timestamp_s,dt_s,pitch_setpoint,pitch_measurement,pitch_command,roll_setpoint,roll_measurement,roll_command,yaw_setpoint,yaw_measurement,yaw_command,throttle
0.097,0.097,0.000,0.115,0.000,0.000,0.018,0.000,0.000,-4.132,0.000,0.000
0.110,0.011,0.000,0.117,0.000,0.000,0.020,0.000,0.000,-4.137,0.000,0.000
0.123,0.011,0.000,0.116,0.000,0.000,0.019,0.000,0.000,-4.138,0.000,0.000
0.136,0.011,0.000,0.114,0.000,0.000,0.018,0.000,0.000,-4.138,0.000,0.000
0.149,0.011,0.000,0.114,0.000,0.000,0.017,0.000,0.000,-4.137,0.000,0.000
0.162,0.011,0.000,0.113,0.000,0.000,0.017,0.000,0.000,-4.136,0.000,0.000
0.190,0.012,0.000,0.112,0.000,0.000,0.018,0.000,0.000,-4.135,0.000,0.000
0.203,0.011,0.000,0.112,0.000,0.000,0.018,0.000,0.000,-4.136,0.000,0.000
0.216,0.011,0.000,0.112,0.000,0.000,0.018,0.000,0.000,-4.136,0.000,0.000
0.229,0.011,0.000,0.111,0.000,0.000,0.018,0.000,0.000,-4.136,0.000,0.000
0.242,0.011,0.000,0.111,0.000,0.000,0.017,0.000,0.000,-4.136,0.000,0.000
0.255,0.011,0.000,0.110,0.000,0.000,0.016,0.000,0.000,-4.137,0.000,0.000
0.268,0.011,0.000,0.110,0.000,0.000,0.016,0.000,0.000,-4.137,0.000,0.000
0.292,0.012,0.000,0.109,0.000,0.000,0.015,0.000,0.000,-4.137,0.000,0.000
0.305,0.011,0.000,0.109,0.000,0.000,0.015,0.000,0.000,-4.138,0.000,0.000
0.318,0.011,0.000,0.108,0.000,0.000,0.015,0.000,0.000,-4.138,0.000,0.000
0.331,0.011,0.000,0.107,0.000,0.000,0.015,0.000,0.000,-4.138,0.000,0.000
0.344,0.011,0.000,0.107,0.000,0.000,0.015,0.000,0.000,-4.138,0.000,0.000
0.357,0.011,0.000,0.108,0.000,0.000,0.015,0.000,0.000,-4.137,0.000,0.000
0.370,0.011,0.000,0.108,0.000,0.000,0.015,0.000,0.000,-4.138,0.000,0.000
0.393,0.011,0.000,0.107,0.000,0.000,0.014,0.000,0.000,-4.137,0.000,0.000
0.406,0.011,0.000,0.107,0.000,0.000,0.014,0.000,0.000,-4.137,0.000,0.000
0.419,0.011,0.000,0.107,0.000,0.000,0.013,0.000,0.000,-4.137,0.000,0.000
0.432,0.011,0.000,0.107,0.000,0.000,0.013,0.000,0.000,-4.137,0.000,0.000
0.445,0.011,0.000,0.106,0.000,0.000,0.013,0.000,0.000,-4.137,0.000,0.000
0.458,0.011,0.000,0.106,0.000,0.000,0.012,0.000,0.000,-4.137,0.000,0.000
0.481,0.011,0.000,0.106,0.000,0.000,0.013,0.000,0.000,-4.136,0.000,0.000
0.494,0.011,0.000,0.106,0.000,0.000,0.013,0.000,0.000,-4.136,0.000,0.000
0.507,0.011,0.000,0.106,0.000,0.000,0.013,0.000,0.000,-4.136,0.000,0.000
0.520,0.011,0.000,0.106,0.000,0.000,0.013,0.000,0.000,-4.136,0.000,0.000
0.533,0.011,0.000,0.106,0.000,0.000,0.013,0.000,0.000,-4.136,0.000,0.000
0.546,0.011,0.000,0.106,0.000,0.000,0.013,0.000,0.000,-4.136,0.000,0.000
0.559,0.011,0.000,0.107,0.000,0.000,0.013,0.000,0.000,-4.137,0.000,0.000
0.583,0.012,0.000,0.109,0.000,0.000,0.014,0.000,0.000,-4.138,0.000,0.000
0.596,0.011,0.000,0.109,0.000,0.000,0.014,0.000,0.000,-4.139,0.000,0.000
0.609,0.011,0.000,0.109,0.000,0.000,0.015,0.000,0.000,-4.139,0.000,0.000
0.622,0.011,0.000,0.109,0.000,0.000,0.015,0.000,0.000,-4.139,0.000,0.000
0.635,0.011,0.000,0.109,0.000,0.000,0.016,0.000,0.000,-4.140,0.000,0.000
0.648,0.011,0.000,0.107,0.000,0.000,0.015,0.000,0.000,-4.141,0.000,0.000
0.661,0.011,0.000,0.107,0.000,0.000,0.015,0.000,0.000,-4.141,0.000,0.000
0.685,0.012,0.000,0.106,0.000,0.000,0.013,0.000,0.000,-4.141,0.000,0.000
0.698,0.011,0.000,0.106,0.000,0.000,0.013,0.000,0.000,-4.141,0.000,0.000
0.711,0.011,0.000,0.106,0.000,0.000,0.013,0.000,0.000,-4.142,0.000,0.000
0.724,0.011,0.000,0.107,0.000,0.000,0.013,0.000,0.000,-4.142,0.000,0.000
0.737,0.011,0.000,0.107,0.000,0.000,0.014,0.000,0.000,-4.143,0.000,0.000
0.750,0.011,0.000,0.107,0.000,0.000,0.014,0.000,0.000,-4.144,0.000,0.000
0.763,0.011,0.000,0.108,0.000,0.000,0.013,0.000,0.000,-4.144,0.000,0.000
0.787,0.012,0.000,0.109,0.000,0.000,0.012,0.000,0.000,-4.145,0.000,0.000
0.800,0.011,0.000,0.109,0.000,0.000,0.012,0.000,0.000,-4.146,0.000,0.000
0.813,0.011,0.000,0.109,0.000,0.000,0.011,0.000,0.000,-4.146,0.000,0.000
0.826,0.011,0.000,0.109,0.000,0.000,0.010,0.000,0.000,-4.147,0.000,0.000
0.839,0.011,0.000,0.109,0.000,0.000,0.009,0.000,0.000,-4.148,0.000,0.000
0.852,0.011,0.000,0.110,0.000,0.000,0.009,0.000,0.000,-4.147,0.000,0.000
0.865,0.011,0.000,0.110,0.000,0.000,0.009,0.000,0.000,-4.147,0.000,0.000
0.891,0.011,0.000,0.109,0.000,0.000,0.010,0.000,0.000,-4.147,0.000,0.000
0.904,0.011,0.000,0.109,0.000,0.000,0.010,0.000,0.000,-4.147,0.000,0.000
0.917,0.011,0.000,0.109,0.000,0.000,0.009,0.000,0.000,-4.148,0.000,0.000
0.930,0.011,0.000,0.109,0.000,0.000,0.009,0.000,0.000,-4.148,0.000,0.000
0.943,0.011,0.000,0.109,0.000,0.000,0.008,0.000,0.000,-4.149,0.000,0.000
0.956,0.011,0.000,0.108,0.000,0.000,0.008,0.000,0.000,-4.149,0.000,0.000
0.969,0.011,0.000,0.108,0.000,0.000,0.007,0.000,0.000,-4.149,0.000,0.000
0.993,0.012,0.000,0.108,0.000,0.000,0.007,0.000,0.000,-4.149,0.000,0.000
1.006,0.011,0.000,0.108,0.000,0.000,0.007,0.000,0.000,-4.150,0.000,0.000
1.019,0.011,0.000,0.107,0.000,0.000,0.008,0.000,0.000,-4.150,0.000,0.000
1.032,0.011,0.000,0.107,0.000,0.000,0.009,0.000,0.000,-4.151,0.000,0.000
1.045,0.011,0.000,0.106,0.000,0.000,0.009,0.000,0.000,-4.151,0.000,0.000
1.058,0.011,0.000,0.104,0.000,0.000,0.009,0.000,0.000,-4.151,0.000,0.000
1.071,0.011,0.000,0.103,0.000,0.000,0.008,0.000,0.000,-4.152,0.000,0.000
1.095,0.011,0.000,0.102,0.000,0.000,0.008,0.000,0.000,-4.153,0.000,0.000
1.108,0.011,0.000,0.102,0.000,0.000,0.008,0.000,0.000,-4.154,0.000,0.000
1.121,0.011,0.000,0.102,0.000,0.000,0.008,0.000,0.000,-4.154,0.000,0.000
1.134,0.011,0.000,0.102,0.000,0.000,0.009,0.000,0.000,-4.154,0.000,0.000
1.147,0.011,0.000,0.103,0.000,0.000,0.009,0.000,0.000,-4.155,0.000,0.000
1.160,0.011,0.000,0.104,0.000,0.000,0.009,0.000,0.000,-4.155,0.000,0.000
1.173,0.011,0.000,0.104,0.000,0.000,0.008,0.000,0.000,-4.156,0.000,0.000
1.197,0.011,0.000,0.104,0.000,0.000,0.008,0.000,0.000,-4.156,0.000,0.000
1.210,0.011,0.000,0.104,0.000,0.000,0.008,0.000,0.000,-4.156,0.000,0.000
1.223,0.011,0.000,0.104,0.000,0.000,0.008,0.000,0.000,-4.157,0.000,0.000
1.236,0.011,0.000,0.104,0.000,0.000,0.007,0.000,0.000,-4.157,0.000,0.000
1.249,0.011,0.000,0.104,0.000,0.000,0.007,0.000,0.000,-4.157,0.000,0.000
1.262,0.011,0.000,0.104,0.000,0.000,0.007,0.000,0.000,-4.158,0.000,0.000
1.275,0.011,0.000,0.105,0.000,0.000,0.007,0.000,0.000,-4.159,0.000,0.000
1.299,0.011,0.000,0.106,0.000,0.000,0.008,0.000,0.000,-4.159,0.000,0.000
1.312,0.011,0.000,0.106,0.000,0.000,0.008,0.000,0.000,-4.160,0.000,0.000
1.325,0.011,0.000,0.106,0.000,0.000,0.008,0.000,0.000,-4.160,0.000,0.000
1.338,0.011,0.000,0.106,0.000,0.000,0.009,0.000,0.000,-4.160,0.000,0.000
1.351,0.011,0.000,0.106,0.000,0.000,0.010,0.000,0.000,-4.161,0.000,0.000
1.364,0.011,0.000,0.106,0.000,0.000,0.010,0.000,0.000,-4.161,0.000,0.000
1.377,0.011,0.000,0.105,0.000,0.000,0.010,0.000,0.000,-4.160,0.000,0.000
1.401,0.011,0.000,0.107,0.000,0.000,0.011,0.000,0.000,-4.159,0.000,0.000
1.414,0.011,0.000,0.108,0.000,0.000,0.010,0.000,0.000,-4.159,0.000,0.000
1.427,0.011,0.000,0.108,0.000,0.000,0.010,0.000,0.000,-4.160,0.000,0.000
1.440,0.011,0.000,0.108,0.000,0.000,0.010,0.000,0.000,-4.161,0.000,0.000
1.453,0.011,0.000,0.109,0.000,0.000,0.011,0.000,0.000,-4.161,0.000,0.000
1.466,0.011,0.000,0.109,0.000,0.000,0.011,0.000,0.000,-4.162,0.000,0.000
1.479,0.011,0.000,0.109,0.000,0.000,0.012,0.000,0.000,-4.162,0.000,0.000
1.506,0.011,0.000,0.109,0.000,0.000,0.013,0.000,0.000,-4.162,0.000,0.000
1.519,0.011,0.000,0.108,0.000,0.000,0.014,0.000,0.000,-4.162,0.000,0.000
1.532,0.011,0.000,0.108,0.000,0.000,0.013,0.000,0.000,-4.162,0.000,0.000
1.545,0.011,0.000,0.107,0.000,0.000,0.013,0.000,0.000,-4.162,0.000,0.000
1.558,0.011,0.000,0.107,0.000,0.000,0.013,0.000,0.000,-4.163,0.000,0.000
1.571,0.011,0.000,0.107,0.000,0.000,0.013,0.000,0.000,-4.163,0.000,0.000
1.584,0.011,0.000,0.108,0.000,0.000,0.014,0.000,0.000,-4.164,0.000,0.000
1.608,0.011,0.000,0.108,0.000,0.000,0.015,0.000,0.000,-4.165,0.000,0.000
1.621,0.011,0.000,0.108,0.000,0.000,0.015,0.000,0.000,-4.165,0.000,0.000
1.634,0.011,0.000,0.107,0.000,0.000,0.015,0.000,0.000,-4.166,0.000,0.000
1.647,0.011,0.000,0.107,0.000,0.000,0.014,0.000,0.000,-4.167,0.000,0.000
1.660,0.011,0.000,0.106,0.000,0.000,0.014,0.000,0.000,-4.167,0.000,0.000
1.673,0.011,0.000,0.105,0.000,0.000,0.014,0.000,0.000,-4.168,0.000,0.000
1.697,0.011,0.000,0.104,0.000,0.000,0.013,0.000,0.000,-4.168,0.000,0.000
1.710,0.011,0.000,0.105,0.000,0.000,0.013,0.000,0.000,-4.168,0.000,0.000
1.723,0.011,0.000,0.105,0.000,0.000,0.013,0.000,0.000,-4.169,0.000,0.000
1.736,0.011,0.000,0.105,0.000,0.000,0.013,0.000,0.000,-4.169,0.000,0.000
1.749,0.011,0.000,0.105,0.000,0.000,0.013,0.000,0.000,-4.170,0.000,0.000
1.762,0.011,0.000,0.105,0.000,0.000,0.012,0.000,0.000,-4.170,0.000,0.000
1.775,0.011,0.000,0.106,0.000,0.000,0.012,0.000,0.000,-4.170,0.000,0.000
1.796,0.011,0.000,0.107,0.000,0.000,0.012,0.000,0.000,-4.170,0.000,0.000
1.809,0.011,0.000,0.107,0.000,0.000,0.012,0.000,0.000,-4.171,0.000,0.000
1.822,0.011,0.000,0.107,0.000,0.000,0.012,0.000,0.000,-4.172,0.000,0.000
1.835,0.011,0.000,0.107,0.000,0.000,0.013,0.000,0.000,-4.173,0.000,0.000
1.848,0.011,0.000,0.107,0.000,0.000,0.013,0.000,0.000,-4.173,0.000,0.000
1.861,0.011,0.000,0.108,0.000,0.000,0.013,0.000,0.000,-4.173,0.000,0.000
1.874,0.011,0.000,0.108,0.000,0.000,0.013,0.000,0.000,-4.172,0.000,0.000
1.898,0.011,0.000,0.109,0.000,0.000,0.014,0.000,0.000,-4.173,0.000,0.000
1.911,0.011,0.000,0.109,0.000,0.000,0.014,0.000,0.000,-4.173,0.000,0.000
1.924,0.011,0.000,0.110,0.000,0.000,0.015,0.000,0.000,-4.174,0.000,0.000
1.937,0.011,0.000,0.110,0.000,0.000,0.015,0.000,0.000,-4.174,0.000,0.000
1.950,0.011,0.000,0.110,0.000,0.000,0.015,0.000,0.000,-4.174,0.000,0.000
1.963,0.011,0.000,0.110,0.000,0.000,0.016,0.000,0.000,-4.174,0.000,0.000
1.976,0.011,0.000,0.109,0.000,0.000,0.017,0.000,0.000,-4.174,0.000,0.000
2.000,0.012,0.000,0.108,0.000,0.000,0.019,0.000,0.000,-4.174,0.000,0.000
2.013,0.011,0.000,0.108,0.000,0.000,0.020,0.000,0.000,-4.174,0.000,0.000
2.026,0.011,0.000,0.109,0.000,0.000,0.021,0.000,0.000,-4.175,0.000,0.000
2.039,0.011,0.000,0.110,0.000,0.000,0.022,0.000,0.000,-4.176,0.000,0.000
2.052,0.011,0.000,0.110,0.000,0.000,0.023,0.000,0.000,-4.176,0.000,0.000
2.065,0.011,0.000,0.111,0.000,0.000,0.023,0.000,0.000,-4.176,0.000,0.000
2.078,0.011,0.000,0.111,0.000,0.000,0.023,0.000,0.000,-4.176,0.000,0.000
2.102,0.012,0.000,0.110,0.000,0.000,0.024,0.000,0.000,-4.177,0.000,0.000
2.115,0.011,0.000,0.110,0.000,0.000,0.024,0.000,0.000,-4.178,0.000,0.000
2.128,0.011,0.000,0.110,0.000,0.000,0.024,0.000,0.000,-4.177,0.000,0.000
2.141,0.011,0.000,0.110,0.000,0.000,0.024,0.000,0.000,-4.178,0.000,0.000
2.154,0.011,0.000,0.111,0.000,0.000,0.024,0.000,0.000,-4.178,0.000,0.000
2.167,0.011,0.000,0.111,0.000,0.000,0.024,0.000,0.000,-4.178,0.000,0.000
2.180,0.011,0.000,0.111,0.000,0.000,0.024,0.000,0.000,-4.179,0.000,0.000
2.204,0.011,0.000,0.111,0.000,0.000,0.024,0.000,0.000,-4.180,0.000,0.000
2.217,0.011,0.000,0.111,0.000,0.000,0.024,0.000,0.000,-4.180,0.000,0.000
2.230,0.011,0.000,0.111,0.000,0.000,0.024,0.000,0.000,-4.181,0.000,0.000
2.243,0.011,0.000,0.112,0.000,0.000,0.024,0.000,0.000,-4.180,0.000,0.000
2.256,0.011,0.000,0.112,0.000,0.000,0.025,0.000,0.000,-4.181,0.000,0.000
2.269,0.011,0.000,0.112,0.000,0.000,0.024,0.000,0.000,-4.181,0.000,0.000
2.282,0.011,0.000,0.113,0.000,0.000,0.024,0.000,0.000,-4.181,0.000,0.000
2.306,0.011,0.000,0.113,0.000,0.000,0.023,0.000,0.000,-4.182,0.000,0.000
2.319,0.011,0.000,0.114,0.000,0.000,0.023,0.000,0.000,-4.183,0.000,0.000
2.332,0.011,0.000,0.115,0.000,0.000,0.023,0.000,0.000,-4.184,0.000,0.000
2.345,0.011,0.000,0.115,0.000,0.000,0.023,0.000,0.000,-4.185,0.000,0.000
2.358,0.011,0.000,0.116,0.000,0.000,0.024,0.000,0.000,-4.185,0.000,0.000
2.371,0.011,0.000,0.116,0.000,0.000,0.025,0.000,0.000,-4.186,0.000,0.000
2.384,0.011,0.000,0.116,0.000,0.000,0.025,0.000,0.000,-4.186,0.000,0.000
2.408,0.011,0.000,0.117,0.000,0.000,0.025,0.000,0.000,-4.186,0.000,0.000
2.421,0.011,0.000,0.117,0.000,0.000,0.025,0.000,0.000,-4.187,0.000,0.000
2.434,0.011,0.000,0.118,0.000,0.000,0.025,0.000,0.000,-4.187,0.000,0.000
2.447,0.011,0.000,0.118,0.000,0.000,0.025,0.000,0.000,-4.187,0.000,0.000
2.460,0.011,0.000,0.117,0.000,0.000,0.025,0.000,0.000,-4.188,0.000,0.000
2.473,0.011,0.000,0.117,0.000,0.000,0.025,0.000,0.000,-4.188,0.000,0.000
2.486,0.011,0.000,0.116,0.000,0.000,0.025,0.000,0.000,-4.188,0.000,0.000
2.510,0.011,0.000,0.115,0.000,0.000,0.025,0.000,0.000,-4.188,0.000,0.000
2.523,0.011,0.000,0.115,0.000,0.000,0.025,0.000,0.000,-4.188,0.000,0.000
2.536,0.011,0.000,0.114,0.000,0.000,0.026,0.000,0.000,-4.189,0.000,0.000
2.549,0.011,0.000,0.114,0.000,0.000,0.026,0.000,0.000,-4.189,0.000,0.000
2.562,0.011,0.000,0.115,0.000,0.000,0.026,0.000,0.000,-4.190,0.000,0.000
2.575,0.011,0.000,0.116,0.000,0.000,0.026,0.000,0.000,-4.190,0.000,0.000
2.588,0.011,0.000,0.116,0.000,0.000,0.025,0.000,0.000,-4.191,0.000,0.000
2.612,0.011,0.000,0.116,0.000,0.000,0.024,0.000,0.000,-4.192,0.000,0.000
2.625,0.011,0.000,0.116,0.000,0.000,0.024,0.000,0.000,-4.192,0.000,0.000
2.638,0.011,0.000,0.116,0.000,0.000,0.024,0.000,0.000,-4.192,0.000,0.000
2.651,0.011,0.000,0.116,0.000,0.000,0.024,0.000,0.000,-4.192,0.000,0.000
2.664,0.011,0.000,0.117,0.000,0.000,0.023,0.000,0.000,-4.192,0.000,0.000
2.677,0.011,0.000,0.116,0.000,0.000,0.023,0.000,0.000,-4.193,0.000,0.000
2.690,0.011,0.000,0.116,0.000,0.000,0.023,0.000,0.000,-4.193,0.000,0.000
2.714,0.011,0.000,0.117,0.000,0.000,0.023,0.000,0.000,-4.193,0.000,0.000
2.727,0.011,0.000,0.117,0.000,0.000,0.023,0.000,0.000,-4.194,0.000,0.000
2.740,0.011,0.000,0.118,0.000,0.000,0.022,0.000,0.000,-4.194,0.000,0.000
2.753,0.011,0.000,0.118,0.000,0.000,0.022,0.000,0.000,-4.193,0.000,0.000
2.766,0.011,0.000,0.118,0.000,0.000,0.022,0.000,0.000,-4.193,0.000,0.000
2.779,0.011,0.000,0.119,0.000,0.000,0.021,0.000,0.000,-4.192,0.000,0.000
2.792,0.011,0.000,0.119,0.000,0.000,0.022,0.000,0.000,-4.192,0.000,0.000
2.820,0.012,0.000,0.119,0.000,0.000,0.022,0.000,0.000,-4.193,0.000,0.000
2.833,0.011,0.000,0.119,0.000,0.000,0.023,0.000,0.000,-4.193,0.000,0.000
2.846,0.011,0.000,0.119,0.000,0.000,0.023,0.000,0.000,-4.193,0.000,0.000
2.859,0.011,0.000,0.119,0.000,0.000,0.024,0.000,0.000,-4.192,0.000,0.000
2.872,0.011,0.000,0.120,0.000,0.000,0.024,0.000,0.000,-4.193,0.000,0.000
2.885,0.011,0.000,0.119,0.000,0.000,0.024,0.000,0.000,-4.193,0.000,0.000
2.909,0.011,0.000,0.118,0.000,0.000,0.024,0.000,0.000,-4.195,0.000,0.000
2.922,0.011,0.000,0.118,0.000,0.000,0.023,0.000,0.000,-4.195,0.000,0.000
2.935,0.011,0.000,0.118,0.000,0.000,0.023,0.000,0.000,-4.195,0.000,0.000
2.948,0.011,0.000,0.117,0.000,0.000,0.023,0.000,0.000,-4.195,0.000,0.000
2.961,0.011,0.000,0.117,0.000,0.000,0.023,0.000,0.000,-4.195,0.000,0.000
2.974,0.011,0.000,0.117,0.000,0.000,0.024,0.000,0.000,-4.196,0.000,0.000
2.987,0.011,0.000,0.118,0.000,0.000,0.024,0.000,0.000,-4.196,0.000,0.000
3.011,0.011,0.000,0.117,0.000,0.000,0.024,0.000,0.000,-4.197,0.000,0.000
3.024,0.011,0.000,0.117,0.000,0.000,0.024,0.000,0.000,-4.197,0.000,0.000
3.037,0.011,0.000,0.116,0.000,0.000,0.024,0.000,0.000,-4.197,0.000,0.000
3.050,0.011,0.000,0.115,0.000,0.000,0.024,0.000,0.000,-4.197,0.000,0.000
3.063,0.011,0.000,0.115,0.000,0.000,0.024,0.000,0.000,-4.197,0.000,0.000
3.076,0.011,0.000,0.115,0.000,0.000,0.024,0.000,0.000,-4.197,0.000,0.000
3.089,0.011,0.000,0.114,0.000,0.000,0.024,0.000,0.000,-4.197,0.000,0.000
3.113,0.011,0.000,0.114,0.000,0.000,0.024,0.000,0.000,-4.197,0.000,0.000
3.126,0.011,0.000,0.115,0.000,0.000,0.025,0.000,0.000,-4.197,0.000,0.000
3.139,0.011,0.000,0.115,0.000,0.000,0.025,0.000,0.000,-4.197,0.000,0.000
3.152,0.011,0.000,0.115,0.000,0.000,0.025,0.000,0.000,-4.198,0.000,0.000
3.165,0.011,0.000,0.115,0.000,0.000,0.025,0.000,0.000,-4.198,0.000,0.000
3.178,0.011,0.000,0.115,0.000,0.000,0.026,0.000,0.000,-4.199,0.000,0.000
3.191,0.011,0.000,0.116,0.000,0.000,0.026,0.000,0.000,-4.199,0.000,0.000
3.215,0.011,0.000,0.117,0.000,0.000,0.026,0.000,0.000,-4.199,0.000,0.000
3.228,0.011,0.000,0.118,0.000,0.000,0.027,0.000,0.000,-4.200,0.000,0.000
3.241,0.011,0.000,0.118,0.000,0.000,0.028,0.000,0.000,-4.200,0.000,0.000
3.254,0.011,0.000,0.119,0.000,0.000,0.028,0.000,0.000,-4.201,0.000,0.000
3.267,0.011,0.000,0.119,0.000,0.000,0.028,0.000,0.000,-4.201,0.000,0.000
3.280,0.011,0.000,0.119,0.000,0.000,0.028,0.000,0.000,-4.201,0.000,0.000
3.293,0.011,0.000,0.118,0.000,0.000,0.028,0.000,0.000,-4.200,0.000,0.000
3.317,0.011,0.000,0.118,0.000,0.000,0.027,0.000,0.000,-4.200,0.000,0.000
3.330,0.011,0.000,0.118,0.000,0.000,0.028,0.000,0.000,-4.201,0.000,0.000
3.343,0.011,0.000,0.117,0.000,0.000,0.028,0.000,0.000,-4.201,0.000,0.000
3.356,0.011,0.000,0.118,0.000,0.000,0.028,0.000,0.000,-4.201,0.000,0.000
3.369,0.011,0.000,0.118,0.000,0.000,0.028,0.000,0.000,-4.200,0.000,0.000
3.382,0.011,0.000,0.118,0.000,0.000,0.029,0.000,0.000,-4.199,0.000,0.000
3.395,0.011,0.000,0.118,0.000,0.000,0.029,0.000,0.000,-4.199,0.000,0.000
3.419,0.012,0.000,0.119,0.000,0.000,0.028,0.000,0.000,-4.200,0.000,0.000
3.432,0.011,0.000,0.119,0.000,0.000,0.028,0.000,0.000,-4.201,0.000,0.000
3.445,0.011,0.000,0.119,0.000,0.000,0.028,0.000,0.000,-4.202,0.000,0.000
3.458,0.011,0.000,0.119,0.000,0.000,0.028,0.000,0.000,-4.202,0.000,0.000
3.471,0.011,0.000,0.119,0.000,0.000,0.028,0.000,0.000,-4.203,0.000,0.000
3.484,0.011,0.000,0.119,0.000,0.000,0.027,0.000,0.000,-4.203,0.000,0.000
3.497,0.011,0.000,0.119,0.000,0.000,0.027,0.000,0.000,-4.204,0.000,0.000
3.521,0.011,0.000,0.119,0.000,0.000,0.026,0.000,0.000,-4.204,0.000,0.000
3.534,0.011,0.000,0.120,0.000,0.000,0.027,0.000,0.000,-4.204,0.000,0.000
3.547,0.011,0.000,0.119,0.000,0.000,0.027,0.000,0.000,-4.203,0.000,0.000
3.560,0.011,0.000,0.119,0.000,0.000,0.028,0.000,0.000,-4.203,0.000,0.000
3.573,0.011,0.000,0.119,0.000,0.000,0.029,0.000,0.000,-4.203,0.000,0.000
3.586,0.011,0.000,0.119,0.000,0.000,0.030,0.000,0.000,-4.203,0.000,0.000
3.599,0.011,0.000,0.119,0.000,0.000,0.030,0.000,0.000,-4.203,0.000,0.000
3.623,0.011,0.000,0.120,0.000,0.000,0.029,0.000,0.000,-4.204,0.000,0.000
3.636,0.011,0.000,0.121,0.000,0.000,0.029,0.000,0.000,-4.204,0.000,0.000
3.649,0.011,0.000,0.122,0.000,0.000,0.029,0.000,0.000,-4.205,0.000,0.000
3.662,0.011,0.000,0.122,0.000,0.000,0.029,0.000,0.000,-4.205,0.000,0.000
3.675,0.011,0.000,0.122,0.000,0.000,0.030,0.000,0.000,-4.205,0.000,0.000
3.688,0.011,0.000,0.123,0.000,0.000,0.032,0.000,0.000,-4.205,0.000,0.000
3.701,0.011,0.000,0.124,0.000,0.000,0.032,0.000,0.000,-4.205,0.000,0.000
3.725,0.011,0.000,0.125,0.000,0.000,0.033,0.000,0.000,-4.205,0.000,0.000
3.738,0.011,0.000,0.125,0.000,0.000,0.033,0.000,0.000,-4.205,0.000,0.000
3.751,0.011,0.000,0.124,0.000,0.000,0.032,0.000,0.000,-4.204,0.000,0.000
3.764,0.011,0.000,0.125,0.000,0.000,0.031,0.000,0.000,-4.204,0.000,0.000
3.777,0.011,0.000,0.126,0.000,0.000,0.031,0.000,0.000,-4.203,0.000,0.000
3.790,0.011,0.000,0.127,0.000,0.000,0.030,0.000,0.000,-4.204,0.000,0.000
3.803,0.011,0.000,0.127,0.000,0.000,0.030,0.000,0.000,-4.204,0.000,0.000
3.827,0.011,0.000,0.128,0.000,0.000,0.030,0.000,0.000,-4.205,0.000,0.000
3.840,0.011,0.000,0.128,0.000,0.000,0.030,0.000,0.000,-4.205,0.000,0.000
3.853,0.011,0.000,0.128,0.000,0.000,0.030,0.000,0.000,-4.205,0.000,0.000
3.866,0.011,0.000,0.128,0.000,0.000,0.030,0.000,0.000,-4.205,0.000,0.000
3.879,0.011,0.000,0.128,0.000,0.000,0.030,0.000,0.000,-4.205,0.000,0.000
3.892,0.011,0.000,0.128,0.000,0.000,0.029,0.000,0.000,-4.205,0.000,0.000
3.905,0.011,0.000,0.127,0.000,0.000,0.028,0.000,0.000,-4.205,0.000,0.000
3.929,0.011,0.000,0.127,0.000,0.000,0.027,0.000,0.000,-4.206,0.000,0.000
3.942,0.011,0.000,0.126,0.000,0.000,0.026,0.000,0.000,-4.207,0.000,0.000
3.955,0.011,0.000,0.126,0.000,0.000,0.026,0.000,0.000,-4.207,0.000,0.000
3.968,0.011,0.000,0.126,0.000,0.000,0.026,0.000,0.000,-4.208,0.000,0.000
3.981,0.011,0.000,0.126,0.000,0.000,0.026,0.000,0.000,-4.209,0.000,0.000
3.994,0.011,0.000,0.126,0.000,0.000,0.026,0.000,0.000,-4.210,0.000,0.000
4.007,0.011,0.000,0.126,0.000,0.000,0.025,0.000,0.000,-4.211,0.000,0.000
4.031,0.011,0.000,0.127,0.000,0.000,0.025,0.000,0.000,-4.212,0.000,0.000
4.044,0.011,0.000,0.127,0.000,0.000,0.025,0.000,0.000,-4.212,0.000,0.000
4.057,0.011,0.000,0.127,0.000,0.000,0.026,0.000,0.000,-4.212,0.000,0.000
4.070,0.011,0.000,0.127,0.000,0.000,0.026,0.000,0.000,-4.212,0.000,0.000
4.083,0.011,0.000,0.127,0.000,0.000,0.026,0.000,0.000,-4.212,0.000,0.000
4.096,0.011,0.000,0.127,0.000,0.000,0.026,0.000,0.000,-4.212,0.000,0.000
4.109,0.011,0.000,0.128,0.000,0.000,0.025,0.000,0.000,-4.213,0.000,0.000
4.137,0.012,0.000,0.127,0.000,0.000,0.024,0.000,0.000,-4.215,0.000,0.000
4.150,0.011,0.000,0.126,0.000,0.000,0.023,0.000,0.000,-4.216,0.000,0.000
4.163,0.011,0.000,0.125,0.000,0.000,0.022,0.000,0.000,-4.217,0.000,0.000
4.176,0.011,0.000,0.124,0.000,0.000,0.021,0.000,0.000,-4.218,0.000,0.000
4.189,0.011,0.000,0.123,0.000,0.000,0.020,0.000,0.000,-4.220,0.000,0.000
4.202,0.011,0.000,0.122,0.000,0.000,0.020,0.000,0.000,-4.220,0.000,0.000
4.401,0.011,0.000,0.109,0.000,0.000,0.011,0.000,0.000,-4.223,0.000,0.000
4.414,0.011,0.000,0.108,0.000,0.000,0.010,0.000,0.000,-4.224,0.000,0.000
4.427,0.011,0.000,0.108,0.000,0.000,0.010,0.000,0.000,-4.224,0.000,0.000
4.440,0.011,0.000,0.107,0.000,0.000,0.010,0.000,0.000,-4.224,0.000,0.000
4.453,0.011,0.000,0.107,0.000,0.000,0.010,0.000,0.000,-4.224,0.000,0.000
4.466,0.011,0.000,0.106,0.000,0.000,0.011,0.000,0.000,-4.225,0.000,0.000
4.479,0.011,0.000,0.106,0.000,0.000,0.012,0.000,0.000,-4.225,0.000,0.000
4.503,0.012,0.000,0.105,0.000,0.000,0.012,0.000,0.000,-4.225,0.000,0.000
4.516,0.011,0.000,0.105,0.000,0.000,0.011,0.000,0.000,-4.224,0.000,0.000
4.529,0.011,0.000,0.104,0.000,0.000,0.011,0.000,0.000,-4.224,0.000,0.000
4.542,0.011,0.000,0.104,0.000,0.000,0.011,0.000,0.000,-4.224,0.000,0.000
4.555,0.011,0.000,0.105,0.000,0.000,0.011,0.000,0.000,-4.224,0.000,0.000
4.568,0.011,0.000,0.105,0.000,0.000,0.011,0.000,0.000,-4.224,0.000,0.000
4.581,0.011,0.000,0.105,0.000,0.000,0.012,0.000,0.000,-4.225,0.000,0.000
4.605,0.012,0.000,0.105,0.000,0.000,0.012,0.000,0.000,-4.225,0.000,0.000
4.618,0.011,0.000,0.105,0.000,0.000,0.013,0.000,0.000,-4.226,0.000,0.000
4.631,0.011,0.000,0.105,0.000,0.000,0.013,0.000,0.000,-4.226,0.000,0.000
4.644,0.011,0.000,0.105,0.000,0.000,0.014,0.000,0.000,-4.226,0.000,0.000
4.657,0.011,0.000,0.106,0.000,0.000,0.014,0.000,0.000,-4.227,0.000,0.000
4.670,0.011,0.000,0.106,0.000,0.000,0.014,0.000,0.000,-4.227,0.000,0.000
4.683,0.011,0.000,0.106,0.000,0.000,0.013,0.000,0.000,-4.228,0.000,0.000
4.707,0.012,0.000,0.105,0.000,0.000,0.012,0.000,0.000,-4.228,0.000,0.000
4.720,0.011,0.000,0.105,0.000,0.000,0.011,0.000,0.000,-4.228,0.000,0.000
4.733,0.011,0.000,0.104,0.000,0.000,0.011,0.000,0.000,-4.229,0.000,0.000
4.746,0.011,0.000,0.103,0.000,0.000,0.011,0.000,0.000,-4.229,0.000,0.000
4.759,0.011,0.000,0.103,0.000,0.000,0.011,0.000,0.000,-4.229,0.000,0.000
4.772,0.011,0.000,0.103,0.000,0.000,0.012,0.000,0.000,-4.229,0.000,0.000
4.785,0.011,0.000,0.103,0.000,0.000,0.013,0.000,0.000,-4.229,0.000,0.000
4.809,0.012,0.000,0.104,0.000,0.000,0.015,0.000,0.000,-4.229,0.000,0.000
4.822,0.011,0.000,0.104,0.000,0.000,0.015,0.000,0.000,-4.230,0.000,0.000
4.835,0.011,0.000,0.104,0.000,0.000,0.015,0.000,0.000,-4.230,0.000,0.000
4.848,0.011,0.000,0.104,0.000,0.000,0.015,0.000,0.000,-4.230,0.000,0.000
4.861,0.011,0.000,0.104,0.000,0.000,0.015,0.000,0.000,-4.230,0.000,0.000
4.874,0.011,0.000,0.104,-0.006,0.000,0.015,0.002,0.000,-4.230,5.200,5.200
4.887,0.011,0.000,0.104,-0.012,0.000,0.016,0.004,0.000,-4.229,10.000,10.400
4.911,0.012,0.000,0.104,-0.024,0.000,0.016,0.004,0.000,-4.229,19.600,20.000
4.924,0.011,0.000,0.104,-0.030,0.000,0.016,-0.000,0.000,-4.228,25.200,25.200
4.937,0.011,0.000,0.104,-0.036,0.000,0.015,0.003,0.000,-4.228,30.400,30.400
4.950,0.011,0.000,0.103,-0.042,0.000,0.014,-0.001,0.000,-4.228,35.200,35.600
4.963,0.011,0.000,0.103,-0.048,0.000,0.014,0.005,0.000,-4.228,40.800,40.800
4.976,0.011,0.000,0.103,-0.054,0.000,0.014,0.011,0.000,-4.228,45.600,46.000
4.989,0.011,0.000,0.102,-0.059,0.000,0.014,0.020,0.000,-4.228,51.200,51.200
5.013,0.011,0.000,0.101,-0.063,0.000,0.015,0.029,0.000,-4.228,54.800,54.800
5.026,0.011,0.000,0.101,-0.067,0.000,0.016,0.027,0.000,-4.228,54.800,54.800
5.039,0.011,0.000,0.101,-0.067,0.000,0.016,0.011,0.000,-4.228,54.800,54.800
5.052,0.011,0.000,0.102,-0.070,0.000,0.016,0.036,0.000,-4.227,54.800,54.800
5.065,0.011,0.000,0.103,-0.073,0.000,0.017,0.027,0.000,-4.227,54.800,54.800
5.078,0.011,0.000,0.103,-0.065,0.000,0.015,-0.072,0.000,-4.232,54.800,54.800
5.102,0.011,0.000,0.103,-0.072,0.000,0.018,0.067,0.000,-4.227,54.800,54.800
5.115,0.011,0.000,0.103,-0.067,0.000,0.014,-0.126,0.000,-4.230,54.800,54.800
5.128,0.011,0.000,0.102,-0.059,0.000,0.015,0.087,0.000,-4.234,54.800,54.800
5.141,0.011,0.000,0.103,-0.071,0.000,0.018,0.105,0.000,-4.231,54.800,54.800
5.154,0.011,0.000,0.105,-0.071,0.000,0.018,-0.054,0.000,-4.230,54.800,54.800
5.167,0.011,0.000,0.105,-0.067,0.000,0.016,-0.006,0.000,-4.232,54.800,54.800
5.180,0.011,0.000,0.105,-0.068,0.000,0.018,0.098,0.000,-4.234,54.800,54.800
5.204,0.011,0.000,0.106,-0.068,0.000,0.019,-0.006,0.000,-4.230,54.800,54.800
5.217,0.011,0.000,0.106,-0.068,0.000,0.019,0.033,0.000,-4.233,54.800,54.800
5.230,0.011,0.000,0.105,-0.061,0.000,0.020,0.042,0.000,-4.233,54.800,54.800
5.243,0.011,0.000,0.105,-0.065,0.000,0.021,0.016,0.000,-4.230,54.800,54.800
5.256,0.011,0.000,0.106,-0.072,0.000,0.018,-0.046,0.000,-4.231,54.800,54.800
5.269,0.011,0.000,0.106,-0.066,0.000,0.018,0.015,0.000,-4.234,54.800,54.800
5.293,0.012,0.000,0.104,-0.068,0.000,0.019,-0.012,0.000,-4.231,54.800,54.800
5.306,0.011,0.000,0.105,-0.070,0.000,0.018,-0.018,0.000,-4.234,54.800,54.800
5.319,0.011,0.000,0.105,-0.065,0.000,0.018,0.065,0.000,-4.235,54.800,54.800
5.332,0.011,0.000,0.105,-0.070,0.000,0.020,0.044,0.000,-4.232,54.800,54.800
5.345,0.011,0.000,0.106,-0.075,0.000,0.018,-0.073,0.000,-4.231,54.800,54.800
5.358,0.011,0.000,0.107,-0.068,0.000,0.016,-0.013,0.000,-4.235,54.800,54.800
5.371,0.011,0.000,0.106,-0.062,0.000,0.017,0.070,0.000,-4.236,54.800,54.800
5.395,0.012,0.000,0.105,-0.067,0.000,0.018,-0.007,0.000,-4.235,54.800,54.800
5.408,0.011,0.000,0.106,-0.072,0.000,0.018,0.036,0.000,-4.238,54.800,54.800
5.421,0.011,0.000,0.107,-0.071,0.000,0.020,0.094,0.000,-4.237,54.800,54.800
5.434,0.011,0.000,0.108,-0.077,0.000,0.021,0.019,0.000,-4.235,54.800,54.800
5.447,0.011,0.000,0.110,-0.075,0.000,0.021,0.006,0.000,-4.237,54.800,54.800
5.460,0.011,0.000,0.111,-0.070,0.000,0.022,0.067,0.000,-4.239,54.800,54.800
5.473,0.011,0.000,0.111,-0.070,0.000,0.024,0.033,0.000,-4.235,54.800,54.800
5.497,0.011,0.000,0.112,-0.072,0.000,0.021,-0.012,0.000,-4.235,54.800,54.800
5.510,0.011,0.000,0.112,-0.068,0.000,0.022,0.063,0.000,-4.236,54.800,54.800
5.523,0.011,0.000,0.112,-0.068,0.000,0.024,0.029,0.000,-4.233,54.800,54.800
5.536,0.011,0.000,0.112,-0.069,0.000,0.023,-0.008,0.000,-4.232,54.800,54.800
5.549,0.011,0.000,0.111,-0.065,0.000,0.023,0.045,0.000,-4.234,54.800,54.800
5.562,0.011,0.000,0.111,-0.066,0.000,0.024,0.067,0.000,-4.233,54.800,54.800
5.589,0.011,0.000,0.111,-0.073,0.000,0.024,0.021,0.000,-4.233,54.800,54.800
5.602,0.011,0.000,0.112,-0.070,0.000,0.025,0.064,0.000,-4.234,54.800,54.800
5.615,0.011,0.000,0.112,-0.069,0.000,0.027,0.060,0.000,-4.233,54.800,54.800
5.628,0.011,0.000,0.113,-0.071,0.000,0.027,0.008,0.000,-4.233,54.800,54.800
5.641,0.011,0.000,0.112,-0.067,0.000,0.027,0.021,0.000,-4.235,54.800,54.800
5.654,0.011,0.000,0.112,-0.068,0.000,0.027,0.044,0.000,-4.235,54.800,54.800
5.667,0.011,0.000,0.112,-0.070,0.000,0.027,0.014,0.000,-4.234,54.800,54.800
5.691,0.011,0.000,0.112,-0.066,0.000,0.026,0.017,0.000,-4.237,54.800,54.800
5.704,0.011,0.000,0.111,-0.065,0.000,0.026,0.025,0.000,-4.238,54.800,54.800
5.717,0.011,0.000,0.111,-0.072,0.000,0.025,-0.007,0.000,-4.238,54.800,54.800
5.730,0.011,0.000,0.112,-0.073,0.000,0.024,0.001,0.000,-4.239,54.800,54.800
5.743,0.011,0.000,0.113,-0.073,0.000,0.024,0.033,0.000,-4.240,54.800,54.800
5.756,0.011,0.000,0.113,-0.073,0.000,0.024,0.005,0.000,-4.239,54.800,54.800
5.769,0.011,0.000,0.114,-0.072,0.000,0.022,-0.030,0.000,-4.239,54.800,54.800
5.793,0.011,0.000,0.115,-0.070,0.000,0.021,0.013,0.000,-4.242,54.800,54.800
5.806,0.011,0.000,0.115,-0.070,0.000,0.020,0.001,0.000,-4.240,54.800,54.800
5.819,0.011,0.000,0.114,-0.067,0.000,0.019,-0.011,0.000,-4.241,54.800,54.800
5.832,0.011,0.000,0.113,-0.067,0.000,0.019,0.007,0.000,-4.243,54.800,54.800
5.845,0.011,0.000,0.112,-0.067,0.000,0.019,0.009,0.000,-4.243,54.800,54.800
5.858,0.011,0.000,0.112,-0.069,0.000,0.018,-0.009,0.000,-4.243,54.800,54.800
5.882,0.011,0.000,0.112,-0.070,0.000,0.017,0.035,0.000,-4.245,54.800,54.800
5.895,0.011,0.000,0.112,-0.069,0.000,0.018,0.031,0.000,-4.245,54.800,54.800
5.908,0.011,0.000,0.113,-0.072,0.000,0.017,-0.008,0.000,-4.245,54.800,54.800
5.921,0.011,0.000,0.114,-0.077,0.000,0.016,-0.004,0.000,-4.248,54.800,54.800
5.934,0.011,0.000,0.115,-0.071,0.000,0.016,0.018,0.000,-4.249,54.800,54.800
5.947,0.011,0.000,0.114,-0.066,0.000,0.016,0.023,0.000,-4.250,54.800,54.800
5.960,0.011,0.000,0.113,-0.065,0.000,0.016,-0.001,0.000,-4.251,54.800,54.800
6.044,0.011,0.000,0.112,-0.069,0.000,0.016,-0.011,0.000,-4.254,54.800,54.800
6.057,0.011,0.000,0.112,-0.071,0.000,0.015,-0.001,0.000,-4.255,54.800,54.800
6.070,0.011,0.000,0.112,-0.070,0.000,0.015,0.029,0.000,-4.256,54.800,54.800
6.083,0.011,0.000,0.112,-0.072,0.000,0.016,0.016,0.000,-4.255,54.800,54.800
6.096,0.011,0.000,0.113,-0.070,0.000,0.015,-0.011,0.000,-4.254,54.800,54.800
6.109,0.011,0.000,0.113,-0.072,0.000,0.014,-0.006,0.000,-4.254,54.800,54.800
6.133,0.011,0.000,0.114,-0.076,0.000,0.014,0.013,0.000,-4.255,54.800,54.800
6.146,0.011,0.000,0.115,-0.070,0.000,0.014,-0.001,0.000,-4.255,54.800,54.800
6.159,0.011,0.000,0.114,-0.069,0.000,0.013,0.012,0.000,-4.255,54.800,54.800
6.172,0.011,0.000,0.114,-0.073,0.000,0.013,0.014,0.000,-4.254,54.800,54.800
6.185,0.011,0.000,0.115,-0.075,0.000,0.013,-0.009,0.000,-4.254,54.800,54.800
6.198,0.011,0.000,0.116,-0.074,0.000,0.012,-0.019,0.000,-4.255,54.800,54.800
6.211,0.011,0.000,0.116,-0.071,0.000,0.011,0.003,0.000,-4.255,54.800,54.800
6.237,0.012,0.000,0.115,-0.067,0.000,0.011,-0.005,0.000,-4.253,54.800,54.800
6.250,0.011,0.000,0.114,-0.069,0.000,0.010,-0.005,0.000,-4.253,54.800,54.800
6.263,0.011,0.000,0.114,-0.073,0.000,0.010,0.014,0.000,-4.253,54.800,54.800
6.276,0.011,0.000,0.114,-0.073,0.000,0.010,0.007,0.000,-4.253,54.800,54.800
6.289,0.011,0.000,0.115,-0.072,0.000,0.010,-0.003,0.000,-4.253,54.800,54.800
6.302,0.011,0.000,0.115,-0.071,0.000,0.010,0.006,0.000,-4.254,54.800,54.800
6.315,0.011,0.000,0.115,-0.073,0.000,0.009,-0.006,0.000,-4.255,54.800,54.800
6.339,0.011,0.000,0.115,-0.072,0.000,0.008,-0.004,0.000,-4.256,54.800,54.800
6.352,0.011,0.000,0.115,-0.073,0.000,0.008,0.010,0.000,-4.257,54.800,54.800
6.365,0.011,0.000,0.116,-0.072,0.000,0.008,-0.003,0.000,-4.256,54.800,54.800
6.378,0.011,0.000,0.115,-0.070,0.000,0.007,-0.012,0.000,-4.255,54.800,54.800
6.391,0.011,0.000,0.115,-0.068,0.000,0.006,-0.005,0.000,-4.257,54.800,54.800
6.404,0.011,0.000,0.114,-0.069,0.000,0.006,-0.009,0.000,-4.257,54.800,54.800
6.428,0.011,0.000,0.114,-0.073,0.000,0.004,-0.009,0.000,-4.257,54.800,54.800
6.441,0.011,0.000,0.114,-0.072,0.000,0.004,0.006,0.000,-4.257,54.800,54.800
6.454,0.011,0.000,0.114,-0.070,0.000,0.004,0.015,0.000,-4.258,54.800,54.800
6.467,0.011,0.000,0.114,-0.070,0.000,0.004,-0.000,0.000,-4.258,54.800,54.800
6.480,0.011,0.000,0.114,-0.071,0.000,0.004,-0.005,0.000,-4.259,54.800,54.800
6.493,0.011,0.000,0.114,-0.073,0.000,0.004,0.006,0.000,-4.259,54.800,54.800
6.506,0.011,0.000,0.114,-0.072,0.000,0.004,-0.000,0.000,-4.258,54.800,54.800
6.530,0.011,0.000,0.113,-0.070,0.000,0.003,-0.004,0.000,-4.260,54.800,54.800
6.543,0.011,0.000,0.112,-0.070,0.000,0.003,0.020,0.000,-4.261,54.800,54.800
6.556,0.011,0.000,0.112,-0.072,0.000,0.004,0.012,0.000,-4.260,54.800,54.800
6.569,0.011,0.000,0.112,-0.071,0.000,0.004,0.005,0.000,-4.261,54.800,54.800
6.582,0.011,0.000,0.112,-0.069,0.000,0.004,0.014,0.000,-4.261,54.800,54.800
6.595,0.011,0.000,0.111,-0.070,0.000,0.005,0.015,0.000,-4.262,54.800,54.800
6.619,0.011,0.000,0.110,-0.072,0.000,0.004,0.012,0.000,-4.263,54.800,54.800
6.632,0.011,0.000,0.111,-0.071,0.000,0.005,0.013,0.000,-4.265,54.800,54.800
6.645,0.011,0.000,0.110,-0.068,0.000,0.005,0.007,0.000,-4.266,54.800,54.800
6.658,0.011,0.000,0.109,-0.067,0.000,0.005,-0.002,0.000,-4.267,54.800,54.800
6.671,0.011,0.000,0.108,-0.071,0.000,0.004,-0.011,0.000,-4.268,54.800,54.800
6.684,0.011,0.000,0.108,-0.069,0.000,0.004,-0.014,0.000,-4.269,54.800,54.800
6.697,0.011,0.000,0.107,-0.071,0.000,0.003,-0.017,0.000,-4.269,54.800,54.800
6.721,0.012,0.000,0.106,-0.066,0.000,0.002,-0.005,0.000,-4.270,54.800,54.800
6.734,0.011,0.000,0.105,-0.070,0.000,0.001,-0.005,0.000,-4.271,54.800,54.800
6.747,0.011,0.000,0.106,-0.074,0.000,0.001,-0.006,0.000,-4.271,54.800,54.800
6.760,0.011,0.000,0.107,-0.077,0.000,0.001,-0.009,0.000,-4.272,54.800,54.800
6.773,0.011,0.000,0.107,-0.073,0.000,0.001,0.013,0.000,-4.273,54.800,54.800
6.786,0.011,0.000,0.107,-0.072,0.000,0.001,0.014,0.000,-4.272,54.800,54.800
6.799,0.011,0.000,0.107,-0.072,0.000,0.002,0.017,0.000,-4.272,54.800,54.800
6.823,0.011,0.000,0.108,-0.073,0.000,0.003,0.023,0.000,-4.271,54.800,54.800
6.836,0.011,0.000,0.108,-0.072,0.000,0.004,0.028,0.000,-4.271,54.800,54.800
6.849,0.011,0.000,0.108,-0.074,0.000,0.004,0.004,0.000,-4.270,54.800,54.800
6.862,0.011,0.000,0.108,-0.073,0.000,0.004,-0.011,0.000,-4.270,54.800,54.800
6.875,0.011,0.000,0.109,-0.075,0.000,0.003,-0.015,0.000,-4.270,54.800,54.800
6.888,0.011,0.000,0.110,-0.077,0.000,0.002,-0.016,0.000,-4.271,54.800,54.800
6.916,0.012,0.000,0.110,-0.072,0.000,0.002,0.003,0.000,-4.272,54.800,54.800
6.929,0.011,0.000,0.110,-0.071,0.000,0.002,0.009,0.000,-4.271,54.800,54.800
6.942,0.011,0.000,0.109,-0.071,0.000,0.002,0.004,0.000,-4.271,54.800,54.800
6.955,0.011,0.000,0.109,-0.071,0.000,0.002,0.019,0.000,-4.272,54.800,54.800
6.968,0.011,0.000,0.109,-0.070,0.000,0.003,0.019,0.000,-4.272,54.800,54.800
6.981,0.011,0.000,0.108,-0.072,0.000,0.004,0.019,0.000,-4.272,54.800,54.800
6.994,0.011,0.000,0.108,-0.073,0.000,0.004,-0.002,0.000,-4.272,54.800,54.800
7.018,0.011,0.000,0.108,-0.072,0.000,0.003,0.002,0.000,-4.273,54.800,54.800
7.031,0.011,0.000,0.107,-0.069,0.000,0.003,-0.001,0.000,-4.273,54.800,54.800
7.044,0.011,0.000,0.107,-0.071,0.000,0.003,0.000,0.000,-4.273,54.800,54.800
7.057,0.011,0.000,0.107,-0.074,0.000,0.003,0.003,0.000,-4.272,54.800,54.800
7.070,0.011,0.000,0.107,-0.076,0.000,0.003,-0.001,0.000,-4.272,54.800,54.800
7.083,0.011,0.000,0.108,-0.075,0.000,0.003,0.008,0.000,-4.272,54.800,54.800
7.096,0.011,0.000,0.108,-0.076,0.000,0.003,0.018,0.000,-4.273,54.800,54.800
7.120,0.011,0.000,0.110,-0.074,0.000,0.004,0.011,0.000,-4.273,54.800,54.800
7.133,0.011,0.000,0.110,-0.073,0.000,0.005,0.019,0.000,-4.273,54.800,54.800
7.146,0.011,0.000,0.110,-0.073,0.000,0.005,0.016,0.000,-4.273,54.800,54.800
7.159,0.011,0.000,0.109,-0.071,0.000,0.005,0.005,0.000,-4.274,54.800,54.800
7.172,0.011,0.000,0.109,-0.074,0.000,0.005,-0.006,0.000,-4.274,54.800,54.800
7.185,0.011,0.000,0.109,-0.075,0.000,0.005,-0.000,0.000,-4.274,54.800,54.800
7.207,0.012,0.000,0.110,-0.075,0.000,0.005,0.014,0.000,-4.272,54.800,54.800
7.220,0.011,0.000,0.110,-0.072,0.000,0.005,0.003,0.000,-4.272,54.800,54.800
7.233,0.011,0.000,0.110,-0.072,0.000,0.005,0.006,0.000,-4.272,54.800,54.800
7.246,0.011,0.000,0.110,-0.076,0.000,0.005,0.008,0.000,-4.272,54.800,54.800
7.259,0.011,0.000,0.111,-0.074,0.000,0.005,0.024,0.000,-4.272,54.800,54.800
7.272,0.011,0.000,0.110,-0.072,0.000,0.005,0.002,0.000,-4.272,54.800,54.800
7.285,0.011,0.000,0.110,-0.071,0.000,0.005,-0.017,0.000,-4.273,54.800,54.800
7.309,0.011,0.000,0.110,-0.078,0.000,0.005,0.013,0.000,-4.275,54.800,54.800
7.322,0.011,0.000,0.111,-0.077,0.000,0.005,0.031,0.000,-4.275,54.800,54.800
7.335,0.011,0.000,0.112,-0.077,0.000,0.006,0.026,0.000,-4.276,54.800,54.800
7.348,0.011,0.000,0.113,-0.078,0.000,0.007,0.013,0.000,-4.276,54.800,54.800
7.361,0.011,0.000,0.113,-0.076,0.000,0.007,0.010,0.000,-4.278,54.800,54.800
7.374,0.011,0.000,0.113,-0.075,0.000,0.007,-0.002,0.000,-4.279,54.800,54.800
7.398,0.011,0.000,0.112,-0.071,0.000,0.006,-0.007,0.000,-4.281,54.800,54.800
7.411,0.011,0.000,0.112,-0.070,0.000,0.005,-0.004,0.000,-4.281,54.800,54.800
7.424,0.011,0.000,0.111,-0.071,0.000,0.005,0.010,0.000,-4.282,54.800,54.800
7.437,0.011,0.000,0.110,-0.072,0.000,0.005,0.006,0.000,-4.282,54.800,54.800
7.450,0.011,0.000,0.110,-0.075,0.000,0.006,0.014,0.000,-4.282,54.800,54.800
7.463,0.011,0.000,0.110,-0.075,0.000,0.006,0.012,0.000,-4.283,55.200,55.200
7.476,0.011,0.000,0.110,-0.076,0.000,0.006,0.011,0.000,-4.283,60.800,60.800
7.500,0.012,0.000,0.108,-0.091,0.000,0.006,-0.018,0.000,-4.283,70.000,70.000
7.513,0.011,0.000,0.108,-0.099,0.000,0.005,-0.004,0.000,-4.284,73.600,73.600
7.526,0.011,0.000,0.107,-0.103,0.000,0.005,0.018,0.000,-4.285,78.400,78.800
7.539,0.011,0.000,0.106,-0.104,0.000,0.006,0.030,0.000,-4.285,82.000,82.000
7.552,0.011,0.000,0.105,-0.106,0.000,0.006,0.005,0.000,-4.284,82.000,82.000
7.565,0.011,0.000,0.106,-0.120,0.000,0.005,-0.005,0.000,-4.285,82.000,82.000
7.578,0.011,0.000,0.107,-0.118,0.000,0.006,0.046,0.000,-4.287,82.000,82.000
7.602,0.011,0.000,0.106,-0.100,0.000,0.006,-0.034,0.000,-4.286,82.000,82.000
7.615,0.011,0.000,0.106,-0.122,0.000,0.005,-0.031,0.000,-4.288,82.000,82.000
7.628,0.011,0.000,0.109,-0.120,0.000,0.005,0.082,0.000,-4.291,82.000,82.000
7.641,0.011,0.000,0.108,-0.100,0.000,0.007,0.088,0.000,-4.288,82.000,82.000
7.654,0.011,0.000,0.106,-0.113,0.000,0.007,-0.063,0.000,-4.288,82.000,82.000
7.667,0.011,0.000,0.108,-0.125,0.000,0.005,-0.012,0.000,-4.291,82.000,82.000
7.691,0.011,0.000,0.109,-0.103,0.000,0.007,0.007,0.000,-4.289,82.000,82.000
7.704,0.011,0.000,0.109,-0.120,0.000,0.004,-0.117,0.000,-4.292,82.000,82.000
7.717,0.011,0.000,0.110,-0.115,0.000,0.004,0.054,0.000,-4.295,81.200,80.800
7.730,0.011,0.000,0.111,-0.107,0.000,0.006,0.074,0.000,-4.292,75.600,75.600
7.743,0.011,0.000,0.110,-0.095,0.000,0.004,-0.059,0.000,-4.294,70.800,70.400
7.756,0.011,0.000,0.110,-0.087,0.000,0.003,0.036,0.000,-4.297,65.600,65.600
7.769,0.011,0.000,0.110,-0.083,0.000,0.007,0.139,0.000,-4.297,60.400,60.000
7.793,0.011,0.000,0.110,-0.069,0.000,0.004,-0.018,0.000,-4.299,50.800,50.800
7.806,0.011,0.000,0.109,-0.061,0.000,0.005,0.036,0.000,-4.301,46.000,46.000
7.819,0.011,0.000,0.109,-0.053,0.000,0.006,0.007,0.000,-4.300,40.400,40.400
7.832,0.011,0.000,0.108,-0.047,0.000,0.005,-0.025,0.000,-4.301,35.600,35.200
7.845,0.011,0.000,0.108,-0.040,0.000,0.004,0.023,0.000,-4.304,30.000,30.000
7.858,0.011,0.000,0.107,-0.038,0.000,0.006,0.028,0.000,-4.305,29.600,29.600
7.871,0.011,0.000,0.107,-0.040,0.000,0.006,-0.003,0.000,-4.303,28.800,28.800
7.895,0.011,0.000,0.107,-0.039,0.000,0.005,0.003,0.000,-4.304,28.800,28.800
7.908,0.011,0.000,0.107,-0.039,0.000,0.006,0.008,0.000,-4.302,28.800,28.800
7.921,0.011,0.000,0.108,-0.043,0.000,0.005,-0.020,0.000,-4.300,28.800,28.800
7.934,0.011,0.000,0.108,-0.041,0.000,0.003,-0.014,0.000,-4.301,28.800,28.800
7.947,0.011,0.000,0.108,-0.038,0.000,0.003,0.010,0.000,-4.303,28.800,28.800
7.960,0.011,0.000,0.108,-0.042,0.000,0.004,0.000,0.000,-4.301,28.800,28.800
7.984,0.012,0.000,0.109,-0.038,0.000,0.002,-0.005,0.000,-4.303,28.800,28.800
7.997,0.011,0.000,0.107,-0.036,0.000,0.003,0.016,0.000,-4.304,28.800,28.800
8.010,0.011,0.000,0.106,-0.038,0.000,0.003,-0.001,0.000,-4.303,28.800,28.800
8.023,0.011,0.000,0.106,-0.040,0.000,0.002,-0.007,0.000,-4.303,28.800,28.800
8.036,0.011,0.000,0.106,-0.040,0.000,0.002,0.010,0.000,-4.305,28.800,28.800
8.049,0.011,0.000,0.106,-0.040,0.000,0.003,0.007,0.000,-4.305,28.800,28.800
8.062,0.011,0.000,0.106,-0.040,0.000,0.003,-0.013,0.000,-4.304,28.800,28.800
8.086,0.011,0.000,0.106,-0.039,0.000,0.002,0.014,0.000,-4.306,28.800,28.800
8.099,0.011,0.000,0.105,-0.038,0.000,0.004,0.015,0.000,-4.305,28.800,28.800
8.112,0.011,0.000,0.105,-0.038,0.000,0.003,-0.013,0.000,-4.304,28.800,28.800
8.125,0.011,0.000,0.104,-0.041,0.000,0.002,0.004,0.000,-4.305,28.800,28.800
8.138,0.011,0.000,0.104,-0.041,0.000,0.003,0.009,0.000,-4.305,28.800,28.800
8.151,0.011,0.000,0.104,-0.039,0.000,0.003,-0.004,0.000,-4.303,28.800,28.800
8.179,0.012,0.000,0.104,-0.039,0.000,0.002,0.020,0.000,-4.304,28.800,28.800
8.192,0.011,0.000,0.103,-0.040,0.000,0.003,0.011,0.000,-4.305,28.800,28.800
8.205,0.011,0.000,0.103,-0.039,0.000,0.003,-0.011,0.000,-4.304,28.800,28.800
8.218,0.011,0.000,0.102,-0.037,0.000,0.003,-0.006,0.000,-4.304,28.800,28.800
8.231,0.011,0.000,0.102,-0.038,0.000,0.002,-0.000,0.000,-4.306,28.800,28.800
8.244,0.011,0.000,0.102,-0.042,0.000,0.003,0.022,0.000,-4.305,28.800,28.800
8.257,0.011,0.000,0.102,-0.039,0.000,0.004,0.009,0.000,-4.302,28.800,28.800
8.281,0.012,0.000,0.102,-0.040,0.000,0.004,0.020,0.000,-4.306,28.800,28.800
8.294,0.011,0.000,0.102,-0.041,0.000,0.006,0.033,0.000,-4.304,28.800,28.800
8.307,0.011,0.000,0.101,-0.038,0.000,0.005,-0.034,0.000,-4.303,28.800,28.800
8.320,0.011,0.000,0.100,-0.036,0.000,0.003,-0.023,0.000,-4.306,28.800,28.800
8.333,0.011,0.000,0.101,-0.041,0.000,0.003,0.030,0.000,-4.307,28.800,28.800
8.346,0.011,0.000,0.101,-0.043,0.000,0.004,-0.001,0.000,-4.306,28.800,28.800
8.359,0.011,0.000,0.101,-0.040,0.000,0.003,-0.021,0.000,-4.306,28.800,28.800
8.383,0.011,0.000,0.102,-0.043,0.000,0.003,0.011,0.000,-4.309,28.800,28.800
8.396,0.011,0.000,0.102,-0.041,0.000,0.004,-0.007,0.000,-4.307,28.800,28.800
8.409,0.011,0.000,0.103,-0.043,0.000,0.003,-0.004,0.000,-4.309,30.000,30.400
8.422,0.011,0.000,0.103,-0.049,0.000,0.002,0.003,0.000,-4.310,35.200,35.200
8.435,0.011,0.000,0.103,-0.057,0.000,0.003,0.006,0.000,-4.309,40.400,40.800
8.448,0.011,0.000,0.104,-0.065,0.000,0.003,-0.010,0.000,-4.306,46.000,46.000
8.472,0.011,0.000,0.103,-0.075,0.000,0.002,0.025,0.000,-4.307,55.200,55.600
8.485,0.011,0.000,0.103,-0.083,0.000,0.002,0.031,0.000,-4.307,60.800,60.800
8.498,0.011,0.000,0.103,-0.090,0.000,0.002,-0.013,0.000,-4.307,62.400,62.400
8.511,0.011,0.000,0.104,-0.090,0.000,0.002,-0.019,0.000,-4.308,62.400,62.400
8.524,0.011,0.000,0.104,-0.086,0.000,0.002,0.044,0.000,-4.309,62.400,62.400
8.537,0.011,0.000,0.104,-0.090,0.000,0.002,0.003,0.000,-4.308,62.400,62.400
8.550,0.011,0.000,0.105,-0.093,0.000,0.002,-0.016,0.000,-4.309,62.400,62.400
8.574,0.012,0.000,0.106,-0.088,0.000,0.002,0.011,0.000,-4.309,62.400,62.400
8.587,0.011,0.000,0.106,-0.089,0.000,0.003,0.018,0.000,-4.307,62.400,62.400
8.600,0.011,0.000,0.106,-0.090,0.000,0.003,-0.003,0.000,-4.307,62.400,62.400
8.613,0.011,0.000,0.106,-0.091,0.000,0.002,-0.005,0.000,-4.307,62.400,62.400
8.626,0.011,0.000,0.107,-0.091,0.000,0.003,0.028,0.000,-4.304,62.400,62.400
8.639,0.011,0.000,0.107,-0.092,0.000,0.002,-0.047,0.000,-4.305,62.400,62.400
8.663,0.012,0.000,0.109,-0.091,0.000,0.001,0.054,0.000,-4.308,62.400,62.400
8.676,0.011,0.000,0.109,-0.088,0.000,0.001,-0.015,0.000,-4.307,62.400,62.400
8.689,0.011,0.000,0.109,-0.089,0.000,-0.001,-0.060,0.000,-4.308,62.400,62.400
8.702,0.011,0.000,0.110,-0.094,0.000,-0.001,0.021,0.000,-4.311,62.400,62.400
8.715,0.011,0.000,0.110,-0.088,0.000,0.001,0.048,0.000,-4.310,62.400,62.400
8.728,0.011,0.000,0.109,-0.083,0.000,0.001,-0.019,0.000,-4.308,62.400,62.400
8.741,0.011,0.000,0.109,-0.090,0.000,-0.001,-0.027,0.000,-4.309,62.400,62.400
8.765,0.012,0.000,0.111,-0.095,0.000,-0.000,0.016,0.000,-4.310,62.400,62.400
8.778,0.011,0.000,0.111,-0.089,0.000,-0.001,-0.018,0.000,-4.309,62.400,62.400
8.791,0.011,0.000,0.111,-0.084,0.000,-0.001,-0.016,0.000,-4.310,62.400,62.400
8.804,0.011,0.000,0.110,-0.091,0.000,-0.001,0.020,0.000,-4.310,62.400,62.400
8.817,0.011,0.000,0.112,-0.102,0.000,0.000,0.030,0.000,-4.309,62.400,62.400
8.830,0.011,0.000,0.114,-0.097,0.000,0.000,0.004,0.000,-4.309,62.400,62.400
8.843,0.011,0.000,0.114,-0.089,0.000,0.001,0.022,0.000,-4.309,62.400,62.400
8.867,0.012,0.000,0.116,-0.098,0.000,0.001,-0.016,0.000,-4.309,62.400,62.400
8.880,0.011,0.000,0.116,-0.092,0.000,0.001,0.011,0.000,-4.312,62.400,62.400
8.893,0.011,0.000,0.116,-0.086,0.000,0.002,0.065,0.000,-4.313,62.400,62.400
8.906,0.011,0.000,0.115,-0.090,0.000,0.003,0.002,0.000,-4.312,62.400,62.400
8.919,0.011,0.000,0.116,-0.096,0.000,0.002,-0.045,0.000,-4.313,62.400,62.400
8.932,0.011,0.000,0.117,-0.090,0.000,0.001,0.003,0.000,-4.316,62.400,62.400
8.956,0.012,0.000,0.115,-0.087,0.000,0.001,-0.018,0.000,-4.314,62.400,62.400
8.969,0.011,0.000,0.116,-0.094,0.000,-0.000,-0.045,0.000,-4.315,62.400,62.400
8.982,0.011,0.000,0.116,-0.089,0.000,-0.001,-0.015,0.000,-4.317,62.400,62.400
8.995,0.011,0.000,0.114,-0.083,0.000,-0.001,0.001,0.000,-4.318,62.400,62.400
9.008,0.011,0.000,0.113,-0.089,0.000,-0.001,0.002,0.000,-4.316,62.400,62.400
9.021,0.011,0.000,0.114,-0.094,0.000,-0.001,0.004,0.000,-4.316,62.400,62.400
9.034,0.011,0.000,0.114,-0.088,0.000,-0.000,0.031,0.000,-4.317,62.400,62.400
9.058,0.011,0.000,0.112,-0.087,0.000,0.001,-0.009,0.000,-4.317,62.400,62.400
9.071,0.011,0.000,0.112,-0.094,0.000,0.000,-0.002,0.000,-4.318,62.400,62.400
9.084,0.011,0.000,0.113,-0.091,0.000,0.001,0.009,0.000,-4.319,62.400,62.400
9.097,0.011,0.000,0.111,-0.083,0.000,0.000,-0.028,0.000,-4.319,62.400,62.400
9.110,0.011,0.000,0.110,-0.088,0.000,-0.001,-0.016,0.000,-4.319,62.400,62.400
9.123,0.011,0.000,0.111,-0.097,0.000,-0.001,0.001,0.000,-4.320,62.400,62.400
9.147,0.012,0.000,0.111,-0.082,0.000,-0.000,0.016,0.000,-4.318,62.400,62.400
9.160,0.011,0.000,0.109,-0.084,0.000,-0.001,-0.010,0.000,-4.318,62.400,62.400
9.173,0.011,0.000,0.109,-0.098,0.000,-0.001,0.009,0.000,-4.319,62.400,62.400
9.186,0.011,0.000,0.111,-0.095,0.000,-0.000,0.009,0.000,-4.318,62.400,62.400
9.199,0.011,0.000,0.110,-0.083,0.000,-0.000,-0.003,0.000,-4.318,62.400,62.400
9.212,0.011,0.000,0.108,-0.081,0.000,-0.001,0.001,0.000,-4.319,62.400,62.400
9.225,0.011,0.000,0.108,-0.096,0.000,-0.000,0.003,0.000,-4.319,62.400,62.400
9.249,0.011,0.000,0.110,-0.086,0.000,-0.001,-0.018,0.000,-4.319,62.400,62.400
9.262,0.011,0.000,0.107,-0.078,0.000,-0.001,-0.019,0.000,-4.319,62.400,62.400
9.275,0.011,0.000,0.107,-0.092,0.000,-0.002,-0.017,0.000,-4.319,62.400,62.400
9.288,0.011,0.000,0.109,-0.106,0.000,-0.002,-0.019,0.000,-4.319,62.400,62.400
9.301,0.011,0.000,0.111,-0.096,0.000,-0.003,-0.004,0.000,-4.319,62.400,62.400
9.314,0.011,0.000,0.110,-0.082,0.000,-0.002,0.028,0.000,-4.319,62.400,62.400
9.342,0.012,0.000,0.110,-0.100,0.000,-0.001,0.005,0.000,-4.320,62.400,62.400
9.355,0.011,0.000,0.111,-0.093,0.000,-0.000,0.033,0.000,-4.321,62.400,62.400
9.368,0.011,0.000,0.110,-0.085,0.000,0.001,0.042,0.000,-4.321,62.400,62.400
9.381,0.011,0.000,0.110,-0.090,0.000,0.002,0.000,0.000,-4.320,62.400,62.400
9.394,0.011,0.000,0.111,-0.101,0.000,0.001,-0.030,0.000,-4.320,62.400,62.400
9.407,0.011,0.000,0.112,-0.094,0.000,0.000,-0.001,0.000,-4.322,62.400,62.400
9.420,0.011,0.000,0.111,-0.084,0.000,0.001,0.016,0.000,-4.321,62.400,62.400
9.444,0.011,0.000,0.111,-0.096,0.000,-0.000,-0.022,0.000,-4.319,62.400,62.400
9.457,0.011,0.000,0.112,-0.097,0.000,-0.001,-0.009,0.000,-4.320,62.400,62.400
9.470,0.011,0.000,0.112,-0.089,0.000,-0.001,0.019,0.000,-4.320,62.400,62.400
9.483,0.011,0.000,0.111,-0.088,0.000,-0.000,0.006,0.000,-4.319,62.400,62.400
9.496,0.011,0.000,0.111,-0.098,0.000,-0.000,0.001,0.000,-4.318,62.400,62.400
9.509,0.011,0.000,0.112,-0.096,0.000,-0.000,0.009,0.000,-4.319,62.400,62.400
9.533,0.011,0.000,0.112,-0.089,0.000,-0.000,0.000,0.000,-4.319,62.400,62.400
9.546,0.011,0.000,0.112,-0.094,0.000,0.000,0.014,0.000,-4.318,62.400,62.400
9.559,0.011,0.000,0.112,-0.095,0.000,0.001,0.020,0.000,-4.318,62.400,62.400
9.572,0.011,0.000,0.112,-0.088,0.000,0.000,-0.004,0.000,-4.319,62.400,62.400
9.585,0.011,0.000,0.111,-0.091,0.000,0.001,0.001,0.000,-4.321,62.400,62.400
9.598,0.011,0.000,0.111,-0.096,0.000,0.001,0.022,0.000,-4.320,62.400,62.400
9.611,0.011,0.000,0.112,-0.096,0.000,0.001,0.005,0.000,-4.320,62.400,62.400
9.635,0.011,0.000,0.111,-0.088,0.000,0.001,0.012,0.000,-4.322,62.400,62.400
9.648,0.011,0.000,0.111,-0.097,0.000,0.002,0.025,0.000,-4.323,62.400,62.400
9.661,0.011,0.000,0.113,-0.102,0.000,0.002,0.011,0.000,-4.323,62.400,62.400
9.674,0.011,0.000,0.113,-0.085,0.000,0.002,-0.008,0.000,-4.324,62.400,62.400
9.687,0.011,0.000,0.110,-0.078,0.000,0.002,0.003,0.000,-4.325,62.400,62.400
9.700,0.011,0.000,0.109,-0.091,0.000,0.002,-0.006,0.000,-4.325,62.400,62.400
9.713,0.011,0.000,0.110,-0.099,0.000,0.002,0.002,0.000,-4.325,62.400,62.400
9.737,0.011,0.000,0.109,-0.084,0.000,0.002,-0.011,0.000,-4.325,62.400,62.400
9.750,0.011,0.000,0.108,-0.092,0.000,0.001,0.000,0.000,-4.325,62.400,62.400
9.763,0.011,0.000,0.109,-0.103,0.000,0.002,0.014,0.000,-4.326,62.400,62.400
9.776,0.011,0.000,0.111,-0.097,0.000,0.003,0.048,0.000,-4.326,62.400,62.400
9.789,0.011,0.000,0.109,-0.080,0.000,0.005,0.051,0.000,-4.326,62.400,62.400
9.802,0.011,0.000,0.107,-0.087,0.000,0.005,0.002,0.000,-4.326,62.400,62.400
9.826,0.011,0.000,0.110,-0.102,0.000,0.005,0.022,0.000,-4.327,62.400,62.400
9.839,0.011,0.000,0.109,-0.086,0.000,0.006,0.016,0.000,-4.326,62.400,62.400
9.852,0.011,0.000,0.107,-0.083,0.000,0.006,0.003,0.000,-4.325,62.400,62.400
9.865,0.011,0.000,0.107,-0.098,0.000,0.005,-0.010,0.000,-4.325,62.400,62.400
9.878,0.011,0.000,0.109,-0.103,0.000,0.004,-0.006,0.000,-4.325,62.400,62.400
9.891,0.011,0.000,0.110,-0.092,0.000,0.004,0.006,0.000,-4.325,62.400,62.400
9.904,0.011,0.000,0.109,-0.084,0.000,0.004,0.004,0.000,-4.324,62.400,62.400
9.928,0.011,0.000,0.109,-0.102,0.000,0.004,0.004,0.000,-4.324,62.400,62.400
9.941,0.011,0.000,0.110,-0.095,0.000,0.004,0.024,0.000,-4.325,62.400,62.400
9.954,0.011,0.000,0.109,-0.087,0.000,0.005,0.022,0.000,-4.325,62.400,62.400
9.967,0.011,0.000,0.108,-0.089,0.000,0.005,0.007,0.000,-4.325,62.400,62.400
9.980,0.011,0.000,0.108,-0.099,0.000,0.005,0.014,0.000,-4.326,62.400,62.400
9.993,0.011,0.000,0.110,-0.098,0.000,0.005,0.004,0.000,-4.327,62.400,62.400
10.006,0.011,0.000,0.109,-0.086,0.000,0.005,-0.007,0.000,-4.328,62.400,62.400
10.030,0.011,0.000,0.107,-0.092,0.000,0.004,0.002,0.000,-4.327,62.400,62.400
10.043,0.011,0.000,0.108,-0.097,0.000,0.004,0.009,0.000,-4.327,62.400,62.400