timestamp_s,dt_s,pitch_setpoint,pitch_measurement,pitch_control,roll_setpoint,roll_measurement,roll_control,yaw_setpoint,yaw_measurement,yaw_control
0.120,0.120,0.000,0.026,-0.030,0.000,0.048,-0.216,0.000,1.036,-1.372
0.122,0.001,0.000,0.053,-1.030,0.000,-0.029,-1.216,0.000,0.926,-0.372
0.124,0.000,0.000,0.054,-0.106,0.000,-0.030,-0.835,0.000,0.925,-0.357
0.126,0.001,0.000,0.054,-0.095,0.000,-0.031,-0.622,0.000,0.923,-0.950
0.128,0.001,0.000,0.055,-0.093,0.000,-0.032,-0.535,0.000,0.922,-1.055
0.130,0.001,0.000,0.055,-0.064,0.000,-0.032,-0.421,0.000,0.921,-1.161
0.144,0.000,0.000,0.060,-0.481,0.000,-0.036,-1.421,0.000,0.914,-0.161
0.146,0.001,0.000,0.060,-0.079,0.000,-0.036,-0.421,0.000,0.914,-1.161
0.148,0.001,0.000,0.061,-0.055,0.000,-0.036,-0.196,0.000,0.913,-1.466
0.149,0.000,0.000,0.061,-0.050,0.000,-0.037,-0.228,0.000,0.912,-1.496
0.151,0.001,0.000,0.061,-0.040,0.000,-0.037,-0.285,0.000,0.912,-1.495
0.153,0.001,0.000,0.061,-0.034,0.000,-0.037,-0.333,0.000,0.911,-1.541
0.155,0.001,0.000,0.061,-0.054,0.000,-0.037,-0.115,0.000,0.911,-1.708
0.167,0.001,0.000,0.063,-0.183,0.000,-0.036,0.885,0.000,0.908,-0.708
0.168,0.000,0.000,0.063,-0.055,0.000,-0.035,-0.029,0.000,0.908,-1.708
0.170,0.001,0.000,0.063,-0.051,0.000,-0.035,-0.113,0.000,0.907,-1.840
0.172,0.001,0.000,0.063,-0.034,0.000,-0.036,-0.219,0.000,0.907,-1.901
0.173,0.000,0.000,0.064,-0.044,0.000,-0.036,-0.201,0.000,0.907,-1.977
0.175,0.001,0.000,0.064,-0.061,0.000,-0.036,-0.049,0.000,0.907,-2.069
0.177,0.001,0.000,0.064,-0.060,0.000,-0.035,0.087,0.000,0.907,-2.116
0.191,0.000,0.000,0.065,-0.155,0.000,-0.035,0.048,0.000,0.907,-2.361
0.193,0.001,0.000,0.066,-0.042,0.000,-0.035,-0.153,0.000,0.907,-2.147
0.195,0.001,0.000,0.066,-0.048,0.000,-0.035,-0.098,0.000,0.907,-2.148
0.196,0.000,0.000,0.066,-0.056,0.000,-0.035,0.051,0.000,0.907,-2.103
0.198,0.001,0.000,0.066,-0.044,0.000,-0.034,0.250,0.000,0.907,-2.103
0.200,0.001,0.000,0.066,-0.028,0.000,-0.034,0.216,0.000,0.907,-2.149
0.201,0.000,0.000,0.066,-0.026,0.000,-0.033,0.105,0.000,0.907,-2.150
0.203,0.001,0.000,0.066,-0.040,0.000,-0.033,-0.009,0.000,0.907,-2.104
0.217,0.000,0.000,0.067,-0.115,0.000,-0.031,0.991,0.000,0.906,-1.554
0.219,0.000,0.000,0.067,-0.040,0.000,-0.031,0.081,0.000,0.906,-2.073
0.221,0.001,0.000,0.067,-0.035,0.000,-0.031,-0.003,0.000,0.906,-2.119
0.223,0.001,0.000,0.067,-0.043,0.000,-0.030,-0.078,0.000,0.906,-2.120
0.224,0.000,0.000,0.067,-0.046,0.000,-0.030,-0.042,0.000,0.906,-2.028
0.226,0.001,0.000,0.067,-0.041,0.000,-0.030,0.004,0.000,0.906,-1.922
0.228,0.001,0.000,0.067,-0.031,0.000,-0.030,0.077,0.000,0.906,-1.906
0.242,0.001,0.000,0.066,0.085,0.000,-0.027,1.077,0.000,0.904,-0.906
0.244,0.001,0.000,0.066,-0.010,0.000,-0.027,0.150,0.000,0.904,-1.887
0.245,0.000,0.000,0.066,-0.006,0.000,-0.026,0.159,0.000,0.903,-1.765
0.247,0.001,0.000,0.065,0.009,0.000,-0.026,-0.016,0.000,0.903,-1.734
0.249,0.001,0.000,0.065,0.008,0.000,-0.026,0.048,0.000,0.902,-1.718
0.251,0.001,0.000,0.065,-0.011,0.000,-0.026,0.138,0.000,0.902,-1.703
0.252,0.000,0.000,0.064,-0.006,0.000,-0.025,0.221,0.000,0.902,-1.748
0.267,0.001,0.000,0.061,0.359,0.000,-0.023,1.221,0.000,0.898,-0.748
0.268,0.000,0.000,0.060,0.020,0.000,-0.023,0.221,0.000,0.897,-1.618
0.270,0.001,0.000,0.060,0.009,0.000,-0.022,0.183,0.000,0.897,-1.541
0.272,0.001,0.000,0.059,0.013,0.000,-0.022,0.269,0.000,0.896,-1.525
0.274,0.001,0.000,0.059,0.013,0.000,-0.021,0.337,0.000,0.895,-1.417
0.275,0.000,0.000,0.058,0.021,0.000,-0.021,0.202,0.000,0.895,-1.400
0.277,0.001,0.000,0.058,0.041,0.000,-0.020,0.108,0.000,0.894,-1.353
0.279,0.001,0.000,0.057,0.018,0.000,-0.020,0.046,0.000,0.893,-1.352
0.297,0.001,0.000,0.050,0.714,0.000,-0.022,-0.954,0.000,0.885,-0.352
0.298,0.000,0.000,0.049,0.033,0.000,-0.022,-0.271,0.000,0.884,-1.289
0.300,0.001,0.000,0.049,0.035,0.000,-0.022,-0.215,0.000,0.883,-1.089
0.302,0.001,0.000,0.048,0.016,0.000,-0.023,-0.153,0.000,0.882,-0.980
0.304,0.001,0.000,0.048,0.003,0.000,-0.023,-0.134,0.000,0.881,-0.993
0.305,0.000,0.000,0.048,0.025,0.000,-0.023,-0.178,0.000,0.880,-0.930
0.307,0.001,0.000,0.047,0.016,0.000,-0.023,-0.206,0.000,0.879,-0.989
0.323,0.001,0.000,0.045,0.181,0.000,-0.024,-0.758,0.000,0.868,0.011
0.325,0.001,0.000,0.045,0.018,0.000,-0.024,-0.262,0.000,0.866,-0.766
0.327,0.001,0.000,0.044,0.026,0.000,-0.025,-0.301,0.000,0.865,-0.748
0.328,0.000,0.000,0.044,0.015,0.000,-0.025,-0.146,0.000,0.864,-0.761
0.330,0.000,0.000,0.043,0.034,0.000,-0.025,-0.153,0.000,0.862,-0.575
0.332,0.000,0.000,0.043,0.033,0.000,-0.025,-0.215,0.000,0.861,-0.450
0.334,0.001,0.000,0.042,0.027,0.000,-0.026,-0.239,0.000,0.859,-0.585
0.410,0.000,0.000,0.017,1.027,0.000,-0.045,-1.239,0.000,0.807,0.415
0.412,0.001,0.000,0.016,0.040,0.000,-0.045,-0.493,0.000,0.807,-0.585
0.414,0.001,0.000,0.016,0.036,0.000,-0.046,-0.310,0.000,0.806,-1.195
0.416,0.001,0.000,0.016,-0.005,0.000,-0.046,-0.391,0.000,0.805,-1.484
0.418,0.001,0.000,0.016,-0.004,0.000,-0.046,-0.231,0.000,0.805,-1.758
0.419,0.000,0.000,0.015,0.024,0.000,-0.046,-0.299,0.000,0.805,-2.094
0.421,0.000,0.000,0.015,0.017,0.000,-0.047,-0.370,0.000,0.806,-2.446
0.423,0.001,0.000,0.015,0.018,0.000,-0.047,-0.260,0.000,0.806,-2.554
0.437,0.000,0.000,0.011,0.336,0.000,-0.049,-1.101,0.000,0.814,-3.554
0.439,0.000,0.000,0.011,0.057,0.000,-0.049,-0.216,0.000,0.815,-3.227
0.441,0.001,0.000,0.010,0.060,0.000,-0.048,0.081,0.000,0.816,-3.260
0.443,0.001,0.000,0.010,0.060,0.000,-0.048,-0.037,0.000,0.818,-3.446
0.444,0.000,0.000,0.009,0.037,0.000,-0.048,-0.168,0.000,0.819,-3.556
0.446,0.000,0.000,0.009,0.027,0.000,-0.049,-0.424,0.000,0.821,-3.834
0.448,0.001,0.000,0.009,0.008,0.000,-0.049,-0.494,0.000,0.823,-3.991
0.462,0.001,0.000,0.007,0.135,0.000,-0.055,-1.494,0.000,0.842,-4.991
0.464,0.001,0.000,0.007,0.059,0.000,-0.056,-0.761,0.000,0.845,-4.492
0.466,0.001,0.000,0.006,0.050,0.000,-0.057,-0.793,0.000,0.847,-4.818
0.467,0.000,0.000,0.006,0.046,0.000,-0.057,-0.392,0.000,0.850,-4.686
0.469,0.000,0.000,0.005,0.068,0.000,-0.057,-0.084,0.000,0.853,-4.890
0.471,0.000,0.000,0.005,0.042,0.000,-0.057,-0.249,0.000,0.856,-5.232
0.473,0.001,0.000,0.004,0.049,0.000,-0.058,-0.755,0.000,0.859,-4.918
0.487,0.000,0.000,0.003,0.143,0.000,-0.063,-1.755,0.000,0.883,-5.918
0.489,0.001,0.000,0.002,0.004,0.000,-0.064,-0.755,0.000,0.887,-5.431
0.491,0.001,0.000,0.002,0.033,0.000,-0.065,-0.936,0.000,0.890,-5.774
0.493,0.001,0.000,0.002,0.045,0.000,-0.067,-1.294,0.000,0.894,-5.614
0.495,0.001,0.000,0.001,0.034,0.000,-0.068,-0.937,0.000,0.897,-5.682
0.496,0.001,0.000,0.001,0.047,0.000,-0.069,-0.890,0.000,0.901,-5.430
0.498,0.001,0.000,0.000,0.084,0.000,-0.070,-0.805,0.000,0.904,-5.849
0.500,0.001,0.000,-0.001,0.096,0.000,-0.071,-0.816,0.000,0.908,-5.796
0.514,0.001,0.000,-0.006,0.505,0.000,-0.080,-1.816,0.000,0.939,-6.796
0.516,0.001,0.000,-0.007,0.065,0.000,-0.081,-0.874,0.000,0.943,-6.264
0.517,0.000,0.000,-0.007,0.072,0.000,-0.082,-0.856,0.000,0.947,-5.997
0.519,0.001,0.000,-0.008,0.054,0.000,-0.083,-0.775,0.000,0.951,-6.326
0.521,0.001,0.000,-0.008,0.072,0.000,-0.083,-0.615,0.000,0.955,-5.968
0.523,0.001,0.000,-0.009,0.072,0.000,-0.084,-0.656,0.000,0.958,-6.129
0.524,0.000,0.000,-0.010,0.083,0.000,-0.085,-0.686,0.000,0.962,-6.122
0.539,0.001,0.000,-0.015,0.535,0.000,-0.091,-1.686,0.000,0.993,-7.122
0.541,0.001,0.000,-0.016,0.113,0.000,-0.091,-0.786,0.000,0.996,-6.122
0.542,0.000,0.000,-0.018,0.146,0.000,-0.093,-1.066,0.000,1.000,-6.031
0.544,0.000,0.000,-0.019,0.187,0.000,-0.094,-1.060,0.000,1.004,-6.054
0.546,0.001,0.000,-0.022,0.229,0.000,-0.094,-0.541,0.000,1.007,-5.757
0.548,0.001,0.000,-0.024,0.232,0.000,-0.095,-0.704,0.000,1.011,-5.993
0.550,0.001,0.000,-0.026,0.216,0.000,-0.096,-0.957,0.000,1.014,-5.757
0.562,0.001,0.000,-0.038,1.212,0.000,-0.103,-1.957,0.000,1.037,-6.757
0.564,0.001,0.000,-0.040,0.212,0.000,-0.104,-0.957,0.000,1.040,-5.757
0.565,0.000,0.000,-0.041,0.192,0.000,-0.104,-0.317,0.000,1.044,-5.787
0.567,0.001,0.000,-0.043,0.176,0.000,-0.104,-0.571,0.000,1.047,-5.550
0.569,0.001,0.000,-0.045,0.194,0.000,-0.105,-0.967,0.000,1.050,-5.771
0.571,0.001,0.000,-0.046,0.169,0.000,-0.106,-1.072,0.000,1.053,-5.809
0.572,0.000,0.000,-0.048,0.167,0.000,-0.107,-0.660,0.000,1.056,-5.388
0.587,0.001,0.000,-0.063,1.167,0.000,-0.116,-1.660,0.000,1.082,-6.388
0.588,0.000,0.000,-0.065,0.226,0.000,-0.117,-1.069,0.000,1.085,-5.584
0.590,0.000,0.000,-0.067,0.241,0.000,-0.118,-0.855,0.000,1.088,-5.591
0.592,0.001,0.000,-0.069,0.242,0.000,-0.118,-0.558,0.000,1.091,-5.767
0.594,0.001,0.000,-0.071,0.267,0.000,-0.119,-0.684,0.000,1.095,-6.110
0.596,0.001,0.000,-0.073,0.244,0.000,-0.119,-0.672,0.000,1.098,-5.920
0.598,0.001,0.000,-0.075,0.210,0.000,-0.120,-0.737,0.000,1.101,-5.958
0.612,0.001,0.000,-0.085,0.990,0.000,-0.126,-1.737,0.000,1.130,-6.958
0.613,0.000,0.000,-0.085,0.112,0.000,-0.127,-0.813,0.000,1.133,-5.962
0.615,0.000,0.000,-0.086,0.062,0.000,-0.128,-1.086,0.000,1.137,-6.306
0.617,0.001,0.000,-0.085,0.039,0.000,-0.129,-1.099,0.000,1.140,-5.963
0.619,0.001,0.000,-0.085,0.013,0.000,-0.130,-0.955,0.000,1.144,-6.552
0.621,0.001,0.000,-0.085,-0.030,0.000,-0.131,-0.939,0.000,1.148,-6.560
0.623,0.001,0.000,-0.084,-0.056,0.000,-0.133,-1.197,0.000,1.152,-6.753
0.624,0.000,0.000,-0.082,-0.080,0.000,-0.134,-1.422,0.000,1.156,-6.426
0.638,0.000,0.000,-0.074,-0.841,0.000,-0.149,-2.422,0.000,1.190,-7.426
0.640,0.000,0.000,-0.072,-0.084,0.000,-0.151,-1.879,0.000,1.194,-7.267
0.642,0.001,0.000,-0.072,-0.052,0.000,-0.154,-2.234,0.000,1.198,-6.895
0.644,0.001,0.000,-0.071,-0.037,0.000,-0.158,-2.546,0.000,1.203,-7.180
0.645,0.000,0.000,-0.070,-0.026,0.000,-0.160,-2.005,0.000,1.207,-7.144
0.647,0.000,0.000,-0.070,0.007,0.000,-0.163,-1.983,0.000,1.212,-7.659
0.649,0.001,0.000,-0.070,0.017,0.000,-0.166,-2.190,0.000,1.217,-7.563
0.663,0.001,0.000,-0.074,0.449,0.000,-0.185,-3.190,0.000,1.258,-8.563
0.665,0.001,0.000,-0.075,0.146,0.000,-0.187,-2.190,0.000,1.264,-8.102
0.667,0.001,0.000,-0.077,0.257,0.000,-0.190,-2.215,0.000,1.269,-8.526
0.668,0.000,0.000,-0.081,0.351,0.000,-0.193,-2.793,0.000,1.275,-8.814
0.670,0.001,0.000,-0.084,0.391,0.000,-0.197,-2.601,0.000,1.280,-8.093
0.672,0.001,0.000,-0.088,0.471,0.000,-0.200,-2.338,0.000,1.286,-8.579
0.673,0.000,0.000,-0.093,0.529,0.000,-0.202,-2.059,0.000,1.291,-8.408
0.691,0.000,0.000,-0.160,1.529,0.000,-0.225,-3.059,0.000,1.353,-9.408
0.693,0.001,0.000,-0.167,0.772,0.000,-0.227,-2.059,0.000,1.359,-8.958
0.695,0.001,0.000,-0.175,0.924,0.000,-0.230,-2.343,0.000,1.365,-9.354
0.696,0.000,0.000,-0.184,0.955,0.000,-0.232,-1.963,0.000,1.371,-8.878
0.698,0.001,0.000,-0.194,1.119,0.000,-0.234,-1.560,0.000,1.377,-9.197
0.700,0.001,0.000,-0.206,1.297,0.000,-0.234,-1.116,0.000,1.383,-9.792
0.702,0.001,0.000,-0.218,1.290,0.000,-0.236,-1.438,0.000,1.390,-9.379
0.716,0.001,0.000,-0.326,2.290,0.000,-0.240,-2.438,0.000,1.442,-10.379
0.717,0.000,0.000,-0.340,1.538,0.000,-0.240,-1.438,0.000,1.448,-9.759
0.719,0.001,0.000,-0.356,1.747,0.000,-0.240,-0.548,0.000,1.455,-10.294
0.721,0.001,0.000,-0.372,1.762,0.000,-0.240,-0.750,0.000,1.462,-9.714
0.722,0.000,0.000,-0.390,1.968,0.000,-0.240,-0.487,0.000,1.468,-9.866
0.724,0.001,0.000,-0.408,1.981,0.000,-0.238,-0.031,0.000,1.474,-9.499
0.726,0.001,0.000,-0.427,2.168,0.000,-0.237,0.419,0.000,1.481,-10.094
0.740,0.001,0.000,-0.593,3.168,0.000,-0.220,1.419,0.000,1.534,-11.094
0.741,0.000,0.000,-0.613,2.290,0.000,-0.217,1.000,0.000,1.540,-10.094
0.743,0.000,0.000,-0.635,2.517,0.000,-0.213,1.730,0.000,1.547,-10.323
0.745,0.001,0.000,-0.657,2.504,0.000,-0.209,2.121,0.000,1.553,-10.079
0.747,0.001,0.000,-0.681,2.746,0.000,-0.204,2.194,0.000,1.560,-10.415
0.748,0.000,0.000,-0.705,2.694,0.000,-0.200,2.101,0.000,1.566,-9.850
0.750,0.001,0.000,-0.731,2.942,0.000,-0.194,2.662,0.000,1.573,-10.369
0.752,0.001,0.000,-0.756,2.859,0.000,-0.188,3.208,0.000,1.580,-10.095
0.766,0.001,0.000,-0.974,3.859,0.000,-0.136,4.208,0.000,1.634,-11.095
0.767,0.000,0.000,-1.002,3.343,0.000,-0.128,4.138,0.000,1.641,-10.756
0.769,0.001,0.000,-1.029,3.135,0.000,-0.121,4.213,0.000,1.647,-10.099
0.771,0.001,0.000,-1.058,3.382,0.000,-0.112,4.767,0.000,1.654,-10.680
0.772,0.000,0.000,-1.085,3.273,0.000,-0.105,4.263,0.000,1.661,-10.299
0.774,0.000,0.000,-1.115,3.460,0.000,-0.097,4.181,0.000,1.667,-10.605
0.776,0.001,0.000,-1.143,3.349,0.000,-0.090,4.214,0.000,1.674,-10.223
0.790,0.001,0.000,-1.384,4.349,0.000,-0.033,5.214,0.000,1.730,-11.223
0.792,0.001,0.000,-1.413,3.622,0.000,-0.026,4.214,0.000,1.736,-10.659
0.793,0.000,0.000,-1.444,3.729,0.000,-0.018,4.466,0.000,1.743,-10.675
0.795,0.000,0.000,-1.476,3.886,0.000,-0.010,4.855,0.000,1.750,-10.935
0.797,0.001,0.000,-1.505,3.643,0.000,-0.003,4.421,0.000,1.757,-10.402
0.799,0.001,0.000,-1.537,3.893,0.000,0.005,4.657,0.000,1.764,-11.136
0.800,0.000,0.000,-1.567,3.711,0.000,0.012,4.182,0.000,1.770,-10.495
1.000,0.001,0.000,-5.239,4.711,0.000,0.891,5.182,0.000,2.688,-11.495
1.001,0.000,0.000,-5.266,5.211,0.000,0.898,6.182,0.000,2.696,-12.495
1.003,0.001,0.000,-5.296,5.423,0.000,0.905,7.182,0.000,2.706,-13.495
1.005,0.001,0.000,-5.324,5.327,0.000,0.913,7.589,0.000,2.716,-14.495
1.006,0.000,0.000,-5.354,5.503,0.000,0.923,8.233,0.000,2.727,-15.495
1.008,0.000,0.000,-5.384,5.525,0.000,0.933,8.778,0.000,2.739,-16.495
1.010,0.001,0.000,-5.411,5.243,0.000,0.942,8.472,0.000,2.751,-17.495
1.024,0.001,0.000,-5.631,6.243,0.000,1.026,9.472,0.000,2.855,-18.495
1.025,0.000,0.000,-5.655,5.243,0.000,1.035,8.658,0.000,2.868,-19.063
1.027,0.000,0.000,-5.680,5.176,0.000,1.045,8.972,0.000,2.882,-20.063
1.029,0.001,0.000,-5.704,5.047,0.000,1.055,9.039,0.000,2.896,-20.139
1.031,0.001,0.000,-5.729,5.200,0.000,1.065,9.704,0.000,2.911,-21.139
1.032,0.000,0.000,-5.753,5.020,0.000,1.075,9.101,0.000,2.925,-20.989
1.034,0.001,0.000,-5.776,5.091,0.000,1.085,9.225,0.000,2.941,-21.989
1.036,0.001,0.000,-5.798,4.871,0.000,1.094,8.686,0.000,2.957,-22.026
1.050,0.001,0.000,-5.946,5.871,0.000,1.134,9.686,0.000,3.093,-23.026
1.052,0.001,0.000,-5.960,4.871,0.000,1.135,8.686,0.000,3.111,-24.026
1.053,0.000,0.000,-5.968,3.871,0.000,1.130,7.686,0.000,3.127,-23.196
1.055,0.001,0.000,-5.971,3.088,0.000,1.122,6.686,0.000,3.145,-24.196
1.057,0.001,0.000,-5.968,2.575,0.000,1.111,5.686,0.000,3.162,-23.737
1.058,0.000,0.000,-5.961,2.055,0.000,1.094,4.686,0.000,3.180,-24.737
1.060,0.001,0.000,-5.950,1.694,0.000,1.074,3.686,0.000,3.197,-24.264
1.074,0.001,0.000,-5.814,0.694,0.000,0.866,2.686,0.000,3.348,-25.264
1.076,0.001,0.000,-5.792,0.610,0.000,0.835,1.686,0.000,3.367,-26.264
1.078,0.001,0.000,-5.766,0.030,0.000,0.798,0.686,0.000,3.388,-27.264
1.079,0.000,0.000,-5.738,-0.097,0.000,0.760,-0.314,0.000,3.406,-26.264
1.081,0.001,0.000,-5.703,-0.757,0.000,0.715,-1.314,0.000,3.426,-27.264
1.083,0.001,0.000,-5.662,-1.430,0.000,0.664,-2.314,0.000,3.446,-28.119
1.085,0.001,0.000,-5.619,-1.604,0.000,0.612,-3.314,0.000,3.465,-27.119
1.099,0.001,0.000,-5.150,-2.604,0.000,0.154,-4.314,0.000,3.629,-28.119
1.100,0.000,0.000,-5.075,-3.604,0.000,0.093,-5.314,0.000,3.651,-29.119
1.102,0.000,0.000,-4.979,-4.604,0.000,0.028,-6.314,0.000,3.674,-30.119
1.104,0.001,0.000,-4.880,-5.604,0.000,-0.028,-7.314,0.000,3.695,-29.119
1.106,0.001,0.000,-4.757,-6.604,0.000,-0.087,-8.314,0.000,3.719,-30.119
1.108,0.001,0.000,-4.620,-7.604,0.000,-0.141,-9.314,0.000,3.743,-31.119
1.109,0.000,0.000,-4.484,-8.604,0.000,-0.187,-10.314,0.000,3.765,-30.287
1.124,0.001,0.000,-3.389,-9.604,0.000,-0.516,-11.314,0.000,3.953,-31.287
1.125,0.000,0.000,-3.268,-10.451,0.000,-0.550,-12.314,0.000,3.975,-30.924
1.127,0.001,0.000,-3.149,-10.471,0.000,-0.583,-13.314,0.000,3.998,-31.924
1.129,0.001,0.000,-3.041,-9.471,0.000,-0.612,-14.314,0.000,4.020,-30.924
1.131,0.001,0.000,-2.931,-9.663,0.000,-0.642,-15.314,0.000,4.042,-31.316
1.132,0.000,0.000,-2.819,-9.835,0.000,-0.673,-16.314,0.000,4.066,-32.120
1.134,0.001,0.000,-2.719,-8.835,0.000,-0.699,-17.314,0.000,4.087,-31.120
1.148,0.001,0.000,-1.906,-9.835,0.000,-0.913,-18.314,0.000,4.270,-32.120
1.150,0.001,0.000,-1.806,-9.126,0.000,-0.940,-19.008,0.000,4.294,-33.120
1.152,0.001,0.000,-1.705,-9.303,0.000,-0.967,-19.178,0.000,4.319,-34.120
1.154,0.001,0.000,-1.611,-8.538,0.000,-0.992,-18.178,0.000,4.344,-33.872
1.155,0.000,0.000,-1.517,-8.646,0.000,-1.015,-17.205,0.000,4.369,-34.872
1.157,0.000,0.000,-1.427,-8.330,0.000,-1.038,-16.593,0.000,4.394,-34.910
1.159,0.001,0.000,-1.350,-7.330,0.000,-1.057,-15.593,0.000,4.416,-33.910
1.173,0.000,0.000,-0.715,-8.330,0.000,-1.215,-16.593,0.000,4.601,-34.910
1.175,0.001,0.000,-0.635,-7.707,0.000,-1.233,-15.593,0.000,4.625,-33.910
1.177,0.001,0.000,-0.554,-7.751,0.000,-1.251,-14.593,0.000,4.649,-34.704
1.179,0.001,0.000,-0.481,-7.067,0.000,-1.266,-13.593,0.000,4.673,-33.894
1.180,0.000,0.000,-0.419,-6.067,0.000,-1.279,-12.593,0.000,4.694,-32.894
1.182,0.000,0.000,-0.359,-5.761,0.000,-1.290,-11.593,0.000,4.717,-32.587
1.184,0.001,0.000,-0.309,-4.875,0.000,-1.300,-10.593,0.000,4.737,-31.587
1.201,0.000,0.000,0.191,-5.875,0.000,-1.393,-11.593,0.000,4.946,-32.587
1.203,0.001,0.000,0.236,-4.875,0.000,-1.401,-10.593,0.000,4.965,-31.587
1.205,0.001,0.000,0.285,-4.926,0.000,-1.409,-9.593,0.000,4.987,-32.340
1.207,0.001,0.000,0.331,-4.768,0.000,-1.417,-9.161,0.000,5.008,-32.427
1.209,0.001,0.000,0.370,-3.999,0.000,-1.424,-8.420,0.000,5.026,-31.427
1.211,0.001,0.000,0.408,-3.951,0.000,-1.431,-8.336,0.000,5.045,-30.427
1.212,0.000,0.000,0.441,-3.522,0.000,-1.437,-7.864,0.000,5.062,-29.427
1.226,0.000,0.000,0.696,-4.522,0.000,-1.485,-8.864,0.000,5.192,-30.427
1.228,0.001,0.000,0.724,-3.522,0.000,-1.490,-7.864,0.000,5.207,-29.427
1.230,0.001,0.000,0.753,-3.191,0.000,-1.496,-7.628,0.000,5.222,-28.427
1.232,0.001,0.000,0.780,-2.991,0.000,-1.500,-7.312,0.000,5.237,-27.427
1.234,0.001,0.000,0.806,-2.957,0.000,-1.505,-7.255,0.000,5.252,-26.834
1.235,0.000,0.000,0.830,-2.792,0.000,-1.509,-6.910,0.000,5.266,-26.221
1.237,0.001,0.000,0.850,-2.377,0.000,-1.512,-6.482,0.000,5.279,-25.221
1.251,0.001,0.000,1.006,-3.377,0.000,-1.537,-7.482,0.000,5.380,-26.221
1.253,0.001,0.000,1.024,-2.377,0.000,-1.539,-6.482,0.000,5.392,-25.221
1.255,0.001,0.000,1.041,-2.155,0.000,-1.542,-6.079,0.000,5.404,-24.221
1.256,0.000,0.000,1.056,-2.001,0.000,-1.544,-5.870,0.000,5.415,-23.221
1.258,0.001,0.000,1.072,-2.012,0.000,-1.546,-5.837,0.000,5.426,-23.383
1.260,0.001,0.000,1.087,-1.993,0.000,-1.548,-5.777,0.000,5.438,-23.543
1.261,0.000,0.000,1.100,-1.775,0.000,-1.549,-5.557,0.000,5.448,-22.543
1.276,0.001,0.000,1.202,-2.775,0.000,-1.561,-6.557,0.000,5.528,-23.543
1.277,0.000,0.000,1.214,-1.775,0.000,-1.562,-5.557,0.000,5.537,-22.543
1.279,0.001,0.000,1.225,-1.669,0.000,-1.563,-5.420,0.000,5.546,-21.543
1.281,0.001,0.000,1.235,-1.533,0.000,-1.564,-5.220,0.000,5.555,-20.543
1.282,0.000,0.000,1.244,-1.519,0.000,-1.564,-5.029,0.000,5.563,-20.592
1.284,0.001,0.000,1.253,-1.393,0.000,-1.565,-4.796,0.000,5.570,-19.631
1.286,0.001,0.000,1.261,-1.387,0.000,-1.565,-4.654,0.000,5.577,-19.707
1.300,0.001,0.000,1.323,-2.387,0.000,-1.563,-3.654,0.000,5.632,-20.707
1.302,0.001,0.000,1.330,-1.387,0.000,-1.562,-4.486,0.000,5.638,-19.707
1.303,0.000,0.000,1.337,-1.291,0.000,-1.562,-4.399,0.000,5.644,-18.836
1.305,0.001,0.000,1.343,-1.236,0.000,-1.561,-4.347,0.000,5.650,-18.360
1.307,0.001,0.000,1.349,-1.241,0.000,-1.560,-4.255,0.000,5.655,-18.419
1.308,0.000,0.000,1.355,-1.192,0.000,-1.560,-4.192,0.000,5.661,-17.987
1.310,0.000,0.000,1.361,-1.188,0.000,-1.559,-4.162,0.000,5.666,-18.029
1.324,0.000,0.000,1.405,-2.188,0.000,-1.551,-3.162,0.000,5.706,-19.029
1.326,0.001,0.000,1.410,-1.188,0.000,-1.550,-4.089,0.000,5.710,-18.029
1.328,0.001,0.000,1.415,-1.125,0.000,-1.549,-4.027,0.000,5.715,-17.397
1.329,0.000,0.000,1.419,-1.064,0.000,-1.548,-4.065,0.000,5.719,-16.888
1.331,0.000,0.000,1.423,-1.055,0.000,-1.547,-4.038,0.000,5.723,-16.912
1.333,0.001,0.000,1.427,-1.001,0.000,-1.546,-4.082,0.000,5.726,-16.477
1.335,0.001,0.000,1.430,-0.996,0.000,-1.545,-4.050,0.000,5.730,-16.515
1.336,0.000,0.000,1.433,-0.950,0.000,-1.544,-4.097,0.000,5.733,-16.141
1.350,0.000,0.000,1.456,-1.950,0.000,-1.536,-3.097,0.000,5.758,-17.141
1.352,0.000,0.000,1.459,-0.950,0.000,-1.535,-4.000,0.000,5.761,-16.260
1.354,0.001,0.000,1.461,-0.896,0.000,-1.534,-4.058,0.000,5.763,-15.885
1.356,0.001,0.000,1.464,-0.898,0.000,-1.533,-4.015,0.000,5.766,-15.922
1.357,0.000,0.000,1.466,-0.875,0.000,-1.532,-4.035,0.000,5.769,-15.699
1.359,0.000,0.000,1.468,-0.874,0.000,-1.531,-3.981,0.000,5.771,-15.689
1.361,0.001,0.000,1.470,-0.858,0.000,-1.530,-3.966,0.000,5.773,-15.511
1.375,0.001,0.000,1.485,-1.858,0.000,-1.522,-2.966,0.000,5.791,-16.511
1.377,0.001,0.000,1.486,-0.864,0.000,-1.520,-3.877,0.000,5.793,-15.568
1.379,0.001,0.000,1.488,-0.828,0.000,-1.519,-3.943,0.000,5.795,-15.191
1.380,0.000,0.000,1.489,-0.822,0.000,-1.518,-3.866,0.000,5.797,-15.226
1.382,0.001,0.000,1.490,-0.795,0.000,-1.517,-3.883,0.000,5.799,-15.017
1.384,0.001,0.000,1.491,-0.784,0.000,-1.516,-3.799,0.000,5.800,-15.051
1.385,0.000,0.000,1.492,-0.761,0.000,-1.515,-3.820,0.000,5.802,-14.902
1.463,0.000,0.000,1.525,-1.761,0.000,-1.458,-2.820,0.000,5.866,-15.902
1.465,0.001,0.000,1.526,-0.761,0.000,-1.457,-3.698,0.000,5.868,-14.902
1.467,0.001,0.000,1.526,-0.746,0.000,-1.456,-3.666,0.000,5.869,-14.886
1.469,0.001,0.000,1.527,-0.739,0.000,-1.455,-3.666,0.000,5.870,-14.890
1.470,0.000,0.000,1.527,-0.732,0.000,-1.454,-3.715,0.000,5.871,-14.725
1.472,0.000,0.000,1.527,-0.725,0.000,-1.452,-3.645,0.000,5.872,-14.728
1.474,0.001,0.000,1.527,-0.719,0.000,-1.451,-3.656,0.000,5.873,-14.670
1.488,0.001,0.000,1.528,-0.803,0.000,-1.441,-2.656,0.000,5.881,-15.670
1.490,0.001,0.000,1.528,-0.709,0.000,-1.440,-3.634,0.000,5.882,-14.670
1.491,0.000,0.000,1.529,-0.710,0.000,-1.439,-3.592,0.000,5.883,-14.645
1.493,0.000,0.000,1.529,-0.705,0.000,-1.438,-3.529,0.000,5.884,-14.648
1.495,0.001,0.000,1.528,-0.699,0.000,-1.436,-3.570,0.000,5.885,-14.528
1.497,0.001,0.000,1.528,-0.694,0.000,-1.435,-3.524,0.000,5.885,-14.530
1.498,0.000,0.000,1.528,-0.684,0.000,-1.434,-3.565,0.000,5.886,-14.440
1.512,0.000,0.000,1.526,-0.475,0.000,-1.422,-2.565,0.000,5.891,-15.440
1.514,0.001,0.000,1.525,-0.669,0.000,-1.421,-3.454,0.000,5.891,-14.440
1.516,0.001,0.000,1.525,-0.661,0.000,-1.420,-3.368,0.000,5.892,-14.438
1.517,0.000,0.000,1.525,-0.656,0.000,-1.418,-3.412,0.000,5.893,-14.409
1.519,0.000,0.000,1.524,-0.646,0.000,-1.417,-3.360,0.000,5.893,-14.441
1.521,0.001,0.000,1.523,-0.642,0.000,-1.415,-3.346,0.000,5.894,-14.472
1.523,0.001,0.000,1.523,-0.645,0.000,-1.414,-3.442,0.000,5.894,-14.428
1.537,0.001,0.000,1.517,-0.168,0.000,-1.403,-2.442,0.000,5.898,-15.428
1.538,0.000,0.000,1.517,-0.638,0.000,-1.401,-3.442,0.000,5.898,-14.428
1.540,0.000,0.000,1.516,-0.634,0.000,-1.400,-3.463,0.000,5.899,-14.407
1.542,0.001,0.000,1.515,-0.637,0.000,-1.399,-3.551,0.000,5.899,-14.362
1.544,0.001,0.000,1.515,-0.630,0.000,-1.398,-3.525,0.000,5.900,-14.362
1.546,0.001,0.000,1.514,-0.626,0.000,-1.397,-3.508,0.000,5.900,-14.348
1.547,0.000,0.000,1.513,-0.630,0.000,-1.396,-3.557,0.000,5.900,-14.271
1.561,0.000,0.000,1.506,-0.036,0.000,-1.387,-2.557,0.000,5.902,-15.271
1.563,0.001,0.000,1.506,-0.618,0.000,-1.386,-3.557,0.000,5.902,-14.337
1.565,0.001,0.000,1.505,-0.607,0.000,-1.385,-3.520,0.000,5.903,-14.398
1.566,0.000,0.000,1.504,-0.610,0.000,-1.383,-3.536,0.000,5.903,-14.398
1.568,0.000,0.000,1.503,-0.601,0.000,-1.382,-3.464,0.000,5.903,-14.459
1.570,0.001,0.000,1.502,-0.607,0.000,-1.381,-3.472,0.000,5.904,-14.490
1.572,0.001,0.000,1.501,-0.601,0.000,-1.380,-3.398,0.000,5.904,-14.536
1.589,0.000,0.000,1.491,0.286,0.000,-1.367,-2.398,0.000,5.907,-15.536
1.591,0.001,0.000,1.490,-0.607,0.000,-1.365,-3.370,0.000,5.907,-14.536
1.593,0.001,0.000,1.489,-0.602,0.000,-1.364,-3.309,0.000,5.908,-14.465
1.594,0.000,0.000,1.488,-0.605,0.000,-1.363,-3.359,0.000,5.908,-14.434
1.596,0.000,0.000,1.487,-0.596,0.000,-1.362,-3.333,0.000,5.908,-14.419
1.598,0.001,0.000,1.486,-0.596,0.000,-1.360,-3.398,0.000,5.908,-14.418
1.600,0.001,0.000,1.485,-0.587,0.000,-1.359,-3.380,0.000,5.908,-14.417
1.614,0.001,0.000,1.476,0.226,0.000,-1.350,-2.380,0.000,5.910,-15.417
1.615,0.000,0.000,1.475,-0.580,0.000,-1.349,-3.380,0.000,5.910,-14.495
1.617,0.000,0.000,1.474,-0.570,0.000,-1.348,-3.401,0.000,5.910,-14.509
1.619,0.001,0.000,1.473,-0.576,0.000,-1.347,-3.463,0.000,5.910,-14.539
1.621,0.001,0.000,1.471,-0.568,0.000,-1.346,-3.434,0.000,5.910,-14.554
1.622,0.000,0.000,1.470,-0.579,0.000,-1.345,-3.457,0.000,5.911,-14.553
1.624,0.000,0.000,1.469,-0.574,0.000,-1.344,-3.398,0.000,5.911,-14.552
1.626,0.001,0.000,1.468,-0.577,0.000,-1.342,-3.417,0.000,5.911,-14.551
1.640,0.001,0.000,1.459,0.266,0.000,-1.333,-2.417,0.000,5.912,-15.513
1.642,0.001,0.000,1.457,-0.563,0.000,-1.332,-3.304,0.000,5.912,-14.551
1.644,0.001,0.000,1.456,-0.579,0.000,-1.331,-3.343,0.000,5.912,-14.549
1.645,0.000,0.000,1.455,-0.572,0.000,-1.330,-3.277,0.000,5.912,-14.563
1.647,0.001,0.000,1.454,-0.576,0.000,-1.329,-3.299,0.000,5.912,-14.562
1.649,0.001,0.000,1.453,-0.566,0.000,-1.327,-3.240,0.000,5.913,-14.591
1.650,0.000,0.000,1.452,-0.571,0.000,-1.326,-3.272,0.000,5.913,-14.605
1.665,0.001,0.000,1.442,0.310,0.000,-1.316,-2.272,0.000,5.914,-15.460
1.666,0.000,0.000,1.441,-0.563,0.000,-1.314,-3.213,0.000,5.914,-14.634
1.668,0.001,0.000,1.440,-0.555,0.000,-1.313,-3.175,0.000,5.914,-14.663
1.670,0.001,0.000,1.438,-0.549,0.000,-1.312,-3.129,0.000,5.914,-14.661
1.671,0.000,0.000,1.437,-0.566,0.000,-1.310,-3.221,0.000,5.914,-14.645
1.673,0.000,0.000,1.436,-0.560,0.000,-1.309,-3.222,0.000,5.914,-14.658
1.675,0.001,0.000,1.435,-0.564,0.000,-1.308,-3.278,0.000,5.914,-14.641
1.689,0.000,0.000,1.426,0.248,0.000,-1.298,-2.278,0.000,5.915,-14.991
1.691,0.001,0.000,1.425,-0.566,0.000,-1.297,-3.262,0.000,5.915,-14.683
1.693,0.001,0.000,1.423,-0.558,0.000,-1.296,-3.227,0.000,5.915,-14.727
1.694,0.000,0.000,1.422,-0.554,0.000,-1.295,-3.181,0.000,5.915,-14.756
1.696,0.001,0.000,1.421,-0.563,0.000,-1.294,-3.249,0.000,5.915,-14.754
1.698,0.001,0.000,1.420,-0.553,0.000,-1.293,-3.201,0.000,5.915,-14.813
1.699,0.000,0.000,1.419,-0.558,0.000,-1.292,-3.205,0.000,5.915,-14.826
1.714,0.001,0.000,1.409,0.327,0.000,-1.282,-2.205,0.000,5.916,-15.604
1.715,0.000,0.000,1.408,-0.546,0.000,-1.281,-3.205,0.000,5.916,-14.793
1.717,0.000,0.000,1.406,-0.536,0.000,-1.280,-3.193,0.000,5.916,-14.775
1.719,0.001,0.000,1.405,-0.544,0.000,-1.279,-3.208,0.000,5.916,-14.773
1.721,0.001,0.000,1.404,-0.540,0.000,-1.278,-3.156,0.000,5.916,-14.770
1.722,0.000,0.000,1.403,-0.537,0.000,-1.276,-3.118,0.000,5.916,-14.768
1.724,0.001,0.000,1.402,-0.550,0.000,-1.275,-3.178,0.000,5.916,-14.750
1.738,0.000,0.000,1.392,0.285,0.000,-1.265,-2.178,0.000,5.916,-14.808
1.740,0.001,0.000,1.391,-0.553,0.000,-1.264,-3.110,0.000,5.916,-14.821
1.742,0.001,0.000,1.390,-0.547,0.000,-1.263,-3.040,0.000,5.916,-14.848
1.743,0.000,0.000,1.389,-0.553,0.000,-1.262,-3.080,0.000,5.916,-14.876
1.745,0.000,0.000,1.388,-0.545,0.000,-1.260,-3.055,0.000,5.916,-14.904
1.747,0.001,0.000,1.387,-0.540,0.000,-1.259,-3.053,0.000,5.916,-14.916
1.749,0.001,0.000,1.386,-0.549,0.000,-1.258,-3.136,0.000,5.916,-14.944
1.763,0.001,0.000,1.376,0.308,0.000,-1.249,-2.136,0.000,5.917,-15.109
1.765,0.001,0.000,1.375,-0.537,0.000,-1.248,-3.131,0.000,5.917,-14.893
1.766,0.000,0.000,1.374,-0.527,0.000,-1.247,-3.103,0.000,5.917,-14.890
1.768,0.001,0.000,1.372,-0.531,0.000,-1.246,-3.150,0.000,5.917,-14.886
1.770,0.001,0.000,1.371,-0.523,0.000,-1.245,-3.131,0.000,5.917,-14.898
1.771,0.000,0.000,1.370,-0.531,0.000,-1.244,-3.165,0.000,5.917,-14.910
1.773,0.000,0.000,1.369,-0.526,0.000,-1.242,-3.114,0.000,5.917,-14.922
1.785,0.000,0.000,1.360,0.200,0.000,-1.235,-2.114,0.000,5.917,-15.011
1.787,0.001,0.000,1.359,-0.532,0.000,-1.234,-3.114,0.000,5.917,-15.007
1.789,0.001,0.000,1.358,-0.527,0.000,-1.233,-3.130,0.000,5.917,-15.019
1.790,0.000,0.000,1.357,-0.536,0.000,-1.233,-3.174,0.000,5.917,-15.046
1.792,0.001,0.000,1.356,-0.530,0.000,-1.232,-3.140,0.000,5.917,-15.028
1.794,0.001,0.000,1.354,-0.536,0.000,-1.231,-3.164,0.000,5.917,-15.024
1.796,0.001,0.000,1.353,-0.528,0.000,-1.230,-3.112,0.000,5.917,-15.005
1.810,0.001,0.000,1.344,0.310,0.000,-1.222,-2.112,0.000,5.917,-14.879
1.811,0.000,0.000,1.343,-0.526,0.000,-1.221,-3.112,0.000,5.917,-15.043
1.813,0.000,0.000,1.341,-0.514,0.000,-1.220,-3.058,0.000,5.917,-15.085
1.815,0.001,0.000,1.340,-0.516,0.000,-1.219,-3.049,0.000,5.917,-15.143
1.817,0.001,0.000,1.339,-0.507,0.000,-1.218,-2.972,0.000,5.917,-15.200
1.818,0.000,0.000,1.338,-0.514,0.000,-1.216,-2.979,0.000,5.917,-15.273
1.820,0.001,0.000,1.336,-0.510,0.000,-1.215,-2.918,0.000,5.917,-15.346
1.822,0.001,0.000,1.335,-0.517,0.000,-1.214,-2.941,0.000,5.917,-15.419
1.836,0.001,0.000,1.325,0.353,0.000,-1.204,-1.941,0.000,5.919,-16.419
1.838,0.001,0.000,1.324,-0.506,0.000,-1.203,-2.847,0.000,5.919,-15.419
1.840,0.001,0.000,1.323,-0.524,0.000,-1.202,-2.964,0.000,5.920,-15.258
1.841,0.000,0.000,1.322,-0.519,0.000,-1.200,-2.947,0.000,5.920,-15.193
1.843,0.001,0.000,1.321,-0.524,0.000,-1.199,-3.008,0.000,5.919,-15.128
1.845,0.001,0.000,1.320,-0.515,0.000,-1.198,-2.995,0.000,5.919,-15.078
1.846,0.000,0.000,1.319,-0.518,0.000,-1.197,-3.043,0.000,5.919,-15.043
1.861,0.001,0.000,1.309,0.346,0.000,-1.189,-2.043,0.000,5.918,-14.289
1.862,0.000,0.000,1.308,-0.508,0.000,-1.188,-2.978,0.000,5.918,-15.170
1.864,0.001,0.000,1.306,-0.495,0.000,-1.187,-2.930,0.000,5.918,-15.226
1.866,0.001,0.000,1.305,-0.487,0.000,-1.186,-2.900,0.000,5.918,-15.298
1.867,0.000,0.000,1.304,-0.501,0.000,-1.185,-2.967,0.000,5.918,-15.355
1.869,0.000,0.000,1.302,-0.499,0.000,-1.184,-2.940,0.000,5.918,-15.397
1.871,0.001,0.000,1.301,-0.510,0.000,-1.183,-2.973,0.000,5.919,-15.423
1.885,0.001,0.000,1.292,0.304,0.000,-1.174,-1.973,0.000,5.919,-15.740
1.887,0.001,0.000,1.291,-0.515,0.000,-1.173,-2.960,0.000,5.919,-15.277
1.889,0.001,0.000,1.290,-0.513,0.000,-1.172,-2.914,0.000,5.919,-15.196
1.890,0.000,0.000,1.289,-0.509,0.000,-1.171,-2.864,0.000,5.919,-15.130
1.892,0.001,0.000,1.288,-0.517,0.000,-1.170,-2.901,0.000,5.918,-15.110
1.894,0.001,0.000,1.287,-0.505,0.000,-1.169,-2.831,0.000,5.918,-15.074
1.895,0.000,0.000,1.286,-0.507,0.000,-1.168,-2.853,0.000,5.918,-15.084
1.930,0.001,0.000,1.263,0.493,0.000,-1.145,-1.853,0.000,5.910,-14.084
1.931,0.001,0.000,1.262,-0.495,0.000,-1.144,-2.816,0.000,5.910,-14.921
1.933,0.001,0.000,1.261,-0.486,0.000,-1.143,-2.782,0.000,5.909,-14.793
1.935,0.001,0.000,1.260,-0.496,0.000,-1.142,-2.855,0.000,5.909,-14.771
1.936,0.000,0.000,1.258,-0.493,0.000,-1.141,-2.849,0.000,5.908,-14.688
1.938,0.000,0.000,1.257,-0.493,0.000,-1.140,-2.854,0.000,5.907,-14.636
1.940,0.001,0.000,1.256,-0.503,0.000,-1.139,-2.912,0.000,5.907,-14.705
1.954,0.001,0.000,1.248,0.189,0.000,-1.131,-1.912,0.000,5.902,-13.705
1.955,0.000,0.000,1.248,-0.508,0.000,-1.130,-2.844,0.000,5.902,-14.705
1.957,0.001,0.000,1.247,-0.504,0.000,-1.129,-2.807,0.000,5.901,-15.091
1.959,0.001,0.000,1.246,-0.508,0.000,-1.128,-2.838,0.000,5.901,-15.176
1.961,0.001,0.000,1.245,-0.500,0.000,-1.127,-2.812,0.000,5.901,-15.216
1.962,0.000,0.000,1.244,-0.493,0.000,-1.126,-2.797,0.000,5.901,-15.241
1.964,0.001,0.000,1.243,-0.500,0.000,-1.126,-2.867,0.000,5.900,-15.280
1.978,0.001,0.000,1.234,0.246,0.000,-1.118,-1.867,0.000,5.898,-14.280
1.980,0.001,0.000,1.233,-0.488,0.000,-1.118,-2.861,0.000,5.898,-15.157
1.981,0.000,0.000,1.232,-0.475,0.000,-1.117,-2.793,0.000,5.898,-15.120
1.983,0.001,0.000,1.231,-0.479,0.000,-1.116,-2.782,0.000,5.897,-15.129
1.985,0.001,0.000,1.230,-0.471,0.000,-1.114,-2.684,0.000,5.897,-15.123
1.986,0.000,0.000,1.229,-0.478,0.000,-1.113,-2.666,0.000,5.896,-15.162
1.988,0.000,0.000,1.227,-0.473,0.000,-1.112,-2.580,0.000,5.896,-15.186
2.002,0.000,0.000,1.218,0.318,0.000,-1.102,-1.580,0.000,5.894,-14.186
2.004,0.001,0.000,1.217,-0.483,0.000,-1.101,-2.580,0.000,5.894,-15.186
2.006,0.001,0.000,1.216,-0.479,0.000,-1.100,-2.621,0.000,5.894,-15.423
2.007,0.000,0.000,1.215,-0.487,0.000,-1.099,-2.681,0.000,5.894,-15.462
2.009,0.001,0.000,1.214,-0.482,0.000,-1.098,-2.681,0.000,5.894,-15.486
2.011,0.001,0.000,1.213,-0.484,0.000,-1.097,-2.736,0.000,5.894,-15.480
2.013,0.001,0.000,1.212,-0.476,0.000,-1.096,-2.729,0.000,5.893,-15.458
2.027,0.001,0.000,1.203,0.318,0.000,-1.088,-1.729,0.000,5.892,-14.458
2.028,0.000,0.000,1.202,-0.470,0.000,-1.087,-2.715,0.000,5.892,-15.412
2.030,0.001,0.000,1.201,-0.455,0.000,-1.086,-2.666,0.000,5.892,-15.390
2.032,0.001,0.000,1.200,-0.459,0.000,-1.085,-2.711,0.000,5.891,-15.429
2.033,0.000,0.000,1.199,-0.452,0.000,-1.084,-2.689,0.000,5.891,-15.468
2.035,0.001,0.000,1.197,-0.460,0.000,-1.083,-2.733,0.000,5.891,-15.553
2.037,0.001,0.000,1.196,-0.454,0.000,-1.082,-2.690,0.000,5.891,-15.623
2.039,0.001,0.000,1.195,-0.465,0.000,-1.081,-2.721,0.000,5.891,-15.724
2.053,0.001,0.000,1.186,0.320,0.000,-1.073,-1.721,0.000,5.892,-16.145
2.054,0.000,0.000,1.185,-0.457,0.000,-1.072,-2.641,0.000,5.892,-15.681
2.056,0.001,0.000,1.184,-0.473,0.000,-1.072,-2.709,0.000,5.892,-15.629
2.058,0.001,0.000,1.183,-0.469,0.000,-1.071,-2.670,0.000,5.892,-15.546
2.059,0.000,0.000,1.182,-0.475,0.000,-1.070,-2.700,0.000,5.891,-15.493
2.061,0.000,0.000,1.181,-0.469,0.000,-1.069,-2.680,0.000,5.891,-15.409
2.063,0.001,0.000,1.180,-0.472,0.000,-1.068,-2.720,0.000,5.891,-15.356
2.077,0.001,0.000,1.172,0.273,0.000,-1.060,-1.720,0.000,5.888,-14.356
2.078,0.000,0.000,1.171,-0.462,0.000,-1.059,-2.612,0.000,5.888,-15.356
2.080,0.000,0.000,1.170,-0.451,0.000,-1.058,-2.514,0.000,5.888,-15.574
2.082,0.001,0.000,1.168,-0.443,0.000,-1.057,-2.431,0.000,5.888,-15.659
2.084,0.001,0.000,1.167,-0.454,0.000,-1.056,-2.465,0.000,5.888,-15.743
2.086,0.001,0.000,1.166,-0.450,0.000,-1.055,-2.393,0.000,5.888,-15.828
2.087,0.000,0.000,1.165,-0.460,0.000,-1.053,-2.437,0.000,5.888,-15.897
2.101,0.000,0.000,1.157,0.271,0.000,-1.043,-1.437,0.000,5.889,-16.334
2.103,0.001,0.000,1.156,-0.465,0.000,-1.042,-2.437,0.000,5.889,-15.778
2.105,0.001,0.000,1.155,-0.462,0.000,-1.041,-2.490,0.000,5.889,-15.725
2.106,0.000,0.000,1.154,-0.460,0.000,-1.040,-2.491,0.000,5.888,-15.656
2.108,0.001,0.000,1.153,-0.469,0.000,-1.039,-2.560,0.000,5.888,-15.603
2.110,0.001,0.000,1.152,-0.461,0.000,-1.038,-2.516,0.000,5.888,-15.565
2.111,0.000,0.000,1.151,-0.463,0.000,-1.037,-2.526,0.000,5.888,-15.542
2.126,0.001,0.000,1.143,0.253,0.000,-1.029,-1.526,0.000,5.886,-14.542
2.127,0.000,0.000,1.142,-0.456,0.000,-1.028,-2.526,0.000,5.886,-15.542
2.129,0.001,0.000,1.141,-0.446,0.000,-1.027,-2.507,0.000,5.886,-15.760
2.131,0.001,0.000,1.140,-0.449,0.000,-1.026,-2.549,0.000,5.886,-15.860
2.132,0.000,0.000,1.139,-0.443,0.000,-1.025,-2.537,0.000,5.886,-15.898
2.134,0.000,0.000,1.138,-0.440,0.000,-1.024,-2.521,0.000,5.886,-15.967
2.136,0.001,0.000,1.137,-0.454,0.000,-1.023,-2.593,0.000,5.886,-15.975
2.150,0.001,0.000,1.129,0.256,0.000,-1.016,-1.593,0.000,5.886,-16.121
2.151,0.000,0.000,1.128,-0.451,0.000,-1.015,-2.533,0.000,5.886,-15.823
2.153,0.000,0.000,1.127,-0.446,0.000,-1.014,-2.475,0.000,5.886,-15.770
2.155,0.001,0.000,1.126,-0.452,0.000,-1.013,-2.484,0.000,5.886,-15.746
2.157,0.001,0.000,1.125,-0.445,0.000,-1.012,-2.428,0.000,5.886,-15.708
2.159,0.001,0.000,1.124,-0.440,0.000,-1.011,-2.397,0.000,5.886,-15.700
2.160,0.000,0.000,1.123,-0.448,0.000,-1.010,-2.450,0.000,5.885,-15.738
2.174,0.001,0.000,1.115,0.254,0.000,-1.001,-1.450,0.000,5.884,-14.919
2.176,0.001,0.000,1.114,-0.445,0.000,-1.000,-2.412,0.000,5.884,-15.873
2.178,0.001,0.000,1.113,-0.438,0.000,-0.999,-2.383,0.000,5.884,-15.910
2.179,0.000,0.000,1.112,-0.441,0.000,-0.998,-2.399,0.000,5.884,-15.964
2.181,0.001,0.000,1.111,-0.435,0.000,-0.997,-2.361,0.000,5.884,-15.956
2.183,0.001,0.000,1.110,-0.442,0.000,-0.996,-2.412,0.000,5.884,-15.963
2.184,0.000,0.000,1.109,-0.440,0.000,-0.995,-2.399,0.000,5.884,-15.955
2.198,0.000,0.000,1.101,0.248,0.000,-0.987,-1.399,0.000,5.884,-15.473
2.200,0.001,0.000,1.100,-0.441,0.000,-0.987,-2.399,0.000,5.884,-15.908
2.202,0.001,0.000,1.099,-0.433,0.000,-0.986,-2.427,0.000,5.884,-15.900
2.203,0.000,0.000,1.098,-0.437,0.000,-0.985,-2.438,0.000,5.884,-15.922
2.205,0.000,0.000,1.097,-0.429,0.000,-0.984,-2.390,0.000,5.883,-15.929
2.207,0.001,0.000,1.096,-0.431,0.000,-0.983,-2.408,0.000,5.883,-15.967
2.209,0.001,0.000,1.095,-0.419,0.000,-0.982,-2.339,0.000,5.883,-16.004
2.223,0.001,0.000,1.087,0.339,0.000,-0.974,-1.339,0.000,5.883,-15.996
2.224,0.000,0.000,1.086,-0.426,0.000,-0.973,-2.339,0.000,5.883,-16.034
2.226,0.001,0.000,1.085,-0.421,0.000,-0.972,-2.391,0.000,5.883,-16.041
2.228,0.001,0.000,1.084,-0.426,0.000,-0.971,-2.434,0.000,5.883,-16.048
2.230,0.001,0.000,1.083,-0.421,0.000,-0.970,-2.428,0.000,5.883,-16.009
2.231,0.000,0.000,1.082,-0.428,0.000,-0.970,-2.464,0.000,5.883,-16.001
2.233,0.001,0.000,1.081,-0.424,0.000,-0.969,-2.446,0.000,5.883,-15.977
2.235,0.001,0.000,1.080,-0.432,0.000,-0.968,-2.482,0.000,5.883,-15.938
2.252,0.001,0.000,1.070,0.435,0.000,-0.960,-1.482,0.000,5.882,-15.027
2.254,0.001,0.000,1.069,-0.414,0.000,-0.959,-2.375,0.000,5.882,-16.010
2.255,0.000,0.000,1.068,-0.427,0.000,-0.959,-2.441,0.000,5.882,-16.078
2.257,0.000,0.000,1.067,-0.420,0.000,-0.958,-2.420,0.000,5.882,-16.146
2.259,0.001,0.000,1.066,-0.423,0.000,-0.957,-2.453,0.000,5.882,-16.199
2.261,0.001,0.000,1.065,-0.413,0.000,-0.956,-2.427,0.000,5.882,-16.282
2.262,0.000,0.000,1.064,-0.416,0.000,-0.956,-2.454,0.000,5.882,-16.335
2.460,0.001,0.000,0.944,0.584,0.000,-0.868,-1.454,0.000,5.903,-17.335
2.461,0.000,0.000,0.943,-0.369,0.000,-0.867,-2.208,0.000,5.904,-16.335
2.463,0.000,0.000,0.942,-0.361,0.000,-0.866,-2.152,0.000,5.904,-16.307
2.465,0.001,0.000,0.941,-0.356,0.000,-0.865,-2.102,0.000,5.904,-16.329
2.467,0.001,0.000,0.940,-0.365,0.000,-0.864,-2.120,0.000,5.904,-16.306
2.468,0.000,0.000,0.939,-0.361,0.000,-0.864,-2.067,0.000,5.904,-16.344
2.470,0.001,0.000,0.938,-0.368,0.000,-0.863,-2.073,0.000,5.904,-16.366
2.484,0.000,0.000,0.931,0.291,0.000,-0.855,-1.073,0.000,5.906,-17.366
2.486,0.001,0.000,0.930,-0.368,0.000,-0.855,-2.073,0.000,5.906,-16.383
2.488,0.001,0.000,0.929,-0.363,0.000,-0.854,-2.074,0.000,5.906,-16.375
2.489,0.000,0.000,0.928,-0.360,0.000,-0.853,-2.056,0.000,5.906,-16.351
2.491,0.001,0.000,0.927,-0.368,0.000,-0.852,-2.104,0.000,5.906,-16.328
2.493,0.001,0.000,0.926,-0.360,0.000,-0.851,-2.060,0.000,5.906,-16.289
2.494,0.000,0.000,0.925,-0.365,0.000,-0.850,-2.090,0.000,5.906,-16.235
2.508,0.000,0.000,0.918,0.287,0.000,-0.844,-1.090,0.000,5.906,-15.997
2.510,0.001,0.000,0.917,-0.360,0.000,-0.843,-2.070,0.000,5.906,-16.263
2.512,0.001,0.000,0.916,-0.352,0.000,-0.842,-2.031,0.000,5.906,-16.269
2.513,0.000,0.000,0.915,-0.358,0.000,-0.841,-2.070,0.000,5.906,-16.322
2.515,0.000,0.000,0.914,-0.352,0.000,-0.840,-2.041,0.000,5.906,-16.374
2.517,0.001,0.000,0.913,-0.350,0.000,-0.840,-2.028,0.000,5.906,-16.427
2.519,0.001,0.000,0.913,-0.360,0.000,-0.839,-2.080,0.000,5.906,-16.464
2.533,0.001,0.000,0.906,0.253,0.000,-0.832,-1.080,0.000,5.907,-17.358
2.534,0.000,0.000,0.905,-0.362,0.000,-0.832,-2.074,0.000,5.907,-16.419
2.536,0.000,0.000,0.904,-0.359,0.000,-0.831,-2.053,0.000,5.907,-16.395
2.538,0.001,0.000,0.903,-0.364,0.000,-0.830,-2.088,0.000,5.907,-16.356
2.540,0.001,0.000,0.902,-0.360,0.000,-0.830,-2.076,0.000,5.907,-16.316
2.541,0.000,0.000,0.902,-0.357,0.000,-0.829,-2.071,0.000,5.907,-16.292
2.543,0.001,0.000,0.901,-0.364,0.000,-0.828,-2.121,0.000,5.907,-16.268
2.557,0.001,0.000,0.894,0.208,0.000,-0.823,-1.121,0.000,5.907,-15.907
2.559,0.001,0.000,0.894,-0.360,0.000,-0.822,-2.067,0.000,5.907,-16.356
2.560,0.000,0.000,0.893,-0.354,0.000,-0.821,-2.011,0.000,5.907,-16.408
2.562,0.001,0.000,0.892,-0.358,0.000,-0.820,-2.020,0.000,5.907,-16.445
2.564,0.001,0.000,0.891,-0.353,0.000,-0.819,-1.966,0.000,5.907,-16.497
2.565,0.000,0.000,0.890,-0.358,0.000,-0.819,-1.985,0.000,5.907,-16.535
2.567,0.000,0.000,0.890,-0.354,0.000,-0.818,-1.946,0.000,5.907,-16.556
2.582,0.001,0.000,0.883,0.208,0.000,-0.811,-0.946,0.000,5.908,-17.358
2.583,0.000,0.000,0.883,-0.358,0.000,-0.810,-1.946,0.000,5.908,-16.495
2.585,0.001,0.000,0.882,-0.353,0.000,-0.809,-1.966,0.000,5.908,-16.455
2.587,0.001,0.000,0.881,-0.358,0.000,-0.809,-1.994,0.000,5.908,-16.431
2.588,0.000,0.000,0.880,-0.352,0.000,-0.808,-1.960,0.000,5.908,-16.406
2.590,0.001,0.000,0.879,-0.355,0.000,-0.807,-1.976,0.000,5.908,-16.397
2.592,0.001,0.000,0.879,-0.349,0.000,-0.806,-1.938,0.000,5.908,-16.388
2.606,0.001,0.000,0.872,0.212,0.000,-0.800,-0.938,0.000,5.908,-16.287
2.607,0.000,0.000,0.872,-0.352,0.000,-0.799,-1.938,0.000,5.908,-16.476
2.609,0.000,0.000,0.871,-0.346,0.000,-0.798,-1.937,0.000,5.908,-16.497
2.611,0.001,0.000,0.870,-0.351,0.000,-0.797,-1.980,0.000,5.908,-16.549
2.613,0.001,0.000,0.869,-0.346,0.000,-0.797,-1.963,0.000,5.908,-16.571
2.614,0.000,0.000,0.869,-0.352,0.000,-0.796,-2.001,0.000,5.908,-16.592
2.616,0.000,0.000,0.868,-0.348,0.000,-0.795,-1.987,0.000,5.908,-16.583
2.618,0.001,0.000,0.867,-0.353,0.000,-0.795,-2.023,0.000,5.908,-16.574
2.632,0.001,0.000,0.861,0.174,0.000,-0.789,-1.023,0.000,5.909,-16.886
2.634,0.001,0.000,0.860,-0.341,0.000,-0.788,-1.952,0.000,5.909,-16.525
2.635,0.000,0.000,0.860,-0.349,0.000,-0.788,-1.993,0.000,5.909,-16.531
2.637,0.000,0.000,0.859,-0.344,0.000,-0.787,-1.963,0.000,5.909,-16.522
2.639,0.001,0.000,0.858,-0.346,0.000,-0.786,-1.977,0.000,5.909,-16.558
2.641,0.001,0.000,0.857,-0.340,0.000,-0.786,-1.945,0.000,5.909,-16.564
2.642,0.000,0.000,0.857,-0.343,0.000,-0.785,-1.968,0.000,5.909,-16.585
2.656,0.000,0.000,0.850,0.207,0.000,-0.779,-0.968,0.000,5.909,-17.081
2.658,0.001,0.000,0.850,-0.342,0.000,-0.779,-1.937,0.000,5.910,-16.629
2.660,0.001,0.000,0.849,-0.337,0.000,-0.778,-1.899,0.000,5.910,-16.619
2.662,0.001,0.000,0.848,-0.335,0.000,-0.777,-1.876,0.000,5.910,-16.625
2.663,0.000,0.000,0.847,-0.345,0.000,-0.776,-1.929,0.000,5.910,-16.600
2.665,0.001,0.000,0.847,-0.341,0.000,-0.776,-1.903,0.000,5.910,-16.575
2.667,0.001,0.000,0.846,-0.346,0.000,-0.775,-1.937,0.000,5.910,-16.535
2.681,0.001,0.000,0.840,0.166,0.000,-0.769,-0.937,0.000,5.909,-16.266
2.682,0.000,0.000,0.840,-0.342,0.000,-0.769,-1.918,0.000,5.909,-16.561
2.684,0.001,0.000,0.839,-0.336,0.000,-0.768,-1.873,0.000,5.909,-16.597
2.686,0.001,0.000,0.838,-0.334,0.000,-0.767,-1.846,0.000,5.909,-16.618
2.687,0.000,0.000,0.837,-0.340,0.000,-0.766,-1.873,0.000,5.909,-16.654
2.689,0.000,0.000,0.837,-0.335,0.000,-0.765,-1.836,0.000,5.909,-16.675
2.691,0.001,0.000,0.836,-0.338,0.000,-0.765,-1.848,0.000,5.910,-16.711
2.705,0.001,0.000,0.830,0.175,0.000,-0.758,-0.848,0.000,5.910,-17.283
2.707,0.001,0.000,0.829,-0.339,0.000,-0.758,-1.848,0.000,5.910,-16.678
2.708,0.000,0.000,0.829,-0.335,0.000,-0.757,-1.841,0.000,5.910,-16.683
2.710,0.001,0.000,0.828,-0.339,0.000,-0.756,-1.869,0.000,5.910,-16.658
2.712,0.001,0.000,0.827,-0.334,0.000,-0.755,-1.840,0.000,5.910,-16.633
2.714,0.001,0.000,0.827,-0.331,0.000,-0.755,-1.821,0.000,5.910,-16.623
2.715,0.000,0.000,0.826,-0.338,0.000,-0.754,-1.869,0.000,5.910,-16.598
2.733,0.001,0.000,0.819,0.313,0.000,-0.746,-0.869,0.000,5.910,-16.420
2.735,0.001,0.000,0.818,-0.333,0.000,-0.746,-1.833,0.000,5.910,-16.669
2.736,0.000,0.000,0.817,-0.327,0.000,-0.745,-1.798,0.000,5.910,-16.705
2.738,0.001,0.000,0.817,-0.332,0.000,-0.744,-1.831,0.000,5.910,-16.726
2.740,0.001,0.000,0.816,-0.327,0.000,-0.744,-1.804,0.000,5.910,-16.777
2.742,0.001,0.000,0.815,-0.325,0.000,-0.743,-1.800,0.000,5.910,-16.782
2.743,0.000,0.000,0.815,-0.331,0.000,-0.742,-1.843,0.000,5.910,-16.788
2.757,0.000,0.000,0.809,0.162,0.000,-0.737,-0.843,0.000,5.911,-17.114
2.759,0.001,0.000,0.808,-0.330,0.000,-0.736,-1.841,0.000,5.911,-16.723
2.761,0.001,0.000,0.808,-0.326,0.000,-0.735,-1.811,0.000,5.911,-16.713
2.762,0.000,0.000,0.807,-0.330,0.000,-0.735,-1.831,0.000,5.911,-16.687
2.764,0.000,0.000,0.806,-0.326,0.000,-0.734,-1.805,0.000,5.911,-16.677
2.766,0.001,0.000,0.806,-0.328,0.000,-0.733,-1.819,0.000,5.911,-16.682
2.768,0.001,0.000,0.805,-0.324,0.000,-0.733,-1.796,0.000,5.911,-16.687
2.782,0.001,0.000,0.799,0.172,0.000,-0.727,-0.796,0.000,5.910,-16.677
2.783,0.000,0.000,0.799,-0.325,0.000,-0.726,-1.796,0.000,5.910,-16.758
2.785,0.001,0.000,0.798,-0.320,0.000,-0.726,-1.776,0.000,5.911,-16.778
2.787,0.001,0.000,0.797,-0.324,0.000,-0.725,-1.799,0.000,5.911,-16.784
2.789,0.001,0.000,0.797,-0.319,0.000,-0.724,-1.770,0.000,5.911,-16.819
2.790,0.000,0.000,0.796,-0.324,0.000,-0.724,-1.802,0.000,5.911,-16.809
2.792,0.001,0.000,0.795,-0.318,0.000,-0.723,-1.778,0.000,5.911,-16.799
2.806,0.001,0.000,0.790,0.170,0.000,-0.718,-0.778,0.000,5.911,-16.865
2.808,0.001,0.000,0.789,-0.321,0.000,-0.717,-1.778,0.000,5.911,-16.778
2.810,0.001,0.000,0.788,-0.316,0.000,-0.716,-1.750,0.000,5.911,-16.783
2.811,0.001,0.000,0.788,-0.319,0.000,-0.716,-1.762,0.000,5.911,-16.773
2.813,0.001,0.000,0.787,-0.315,0.000,-0.715,-1.724,0.000,5.911,-16.793
2.815,0.001,0.000,0.786,-0.319,0.000,-0.714,-1.737,0.000,5.911,-16.813
2.816,0.000,0.000,0.786,-0.315,0.000,-0.713,-1.701,0.000,5.911,-16.849
2.818,0.001,0.000,0.785,-0.318,0.000,-0.713,-1.714,0.000,5.911,-16.854
2.832,0.000,0.000,0.779,0.167,0.000,-0.707,-0.714,0.000,5.911,-17.241
2.834,0.001,0.000,0.779,-0.309,0.000,-0.706,-1.674,0.000,5.911,-16.864
2.836,0.001,0.000,0.778,-0.320,0.000,-0.705,-1.740,0.000,5.911,-16.838
2.837,0.000,0.000,0.778,-0.317,0.000,-0.704,-1.721,0.000,5.911,-16.828
2.839,0.000,0.000,0.777,-0.322,0.000,-0.704,-1.756,0.000,5.911,-16.802
2.841,0.001,0.000,0.776,-0.318,0.000,-0.703,-1.729,0.000,5.911,-16.776
2.843,0.001,0.000,0.776,-0.322,0.000,-0.703,-1.758,0.000,5.911,-16.765
2.920,0.001,0.000,0.749,0.678,0.000,-0.675,-0.758,0.000,5.907,-15.765
2.921,0.000,0.000,0.749,-0.313,0.000,-0.674,-1.703,0.000,5.907,-16.751
2.923,0.000,0.000,0.748,-0.309,0.000,-0.673,-1.688,0.000,5.907,-16.725
2.925,0.001,0.000,0.747,-0.307,0.000,-0.673,-1.687,0.000,5.907,-16.699
2.927,0.001,0.000,0.747,-0.311,0.000,-0.672,-1.724,0.000,5.907,-16.703
2.929,0.001,0.000,0.746,-0.309,0.000,-0.672,-1.712,0.000,5.906,-16.661
2.930,0.000,0.000,0.746,-0.312,0.000,-0.671,-1.731,0.000,5.906,-16.650
2.944,0.000,0.000,0.741,0.088,0.000,-0.667,-0.731,0.000,5.905,-15.650
2.946,0.001,0.000,0.741,-0.309,0.000,-0.666,-1.703,0.000,5.905,-16.650
2.948,0.001,0.000,0.740,-0.306,0.000,-0.666,-1.673,0.000,5.904,-16.767
2.950,0.001,0.000,0.740,-0.303,0.000,-0.665,-1.651,0.000,5.904,-16.786
2.951,0.000,0.000,0.739,-0.309,0.000,-0.665,-1.679,0.000,5.904,-16.836
2.953,0.001,0.000,0.738,-0.304,0.000,-0.664,-1.647,0.000,5.904,-16.856
2.955,0.001,0.000,0.738,-0.309,0.000,-0.664,-1.668,0.000,5.904,-16.875
2.969,0.001,0.000,0.733,0.101,0.000,-0.659,-0.668,0.000,5.904,-16.604
2.970,0.000,0.000,0.733,-0.305,0.000,-0.658,-1.660,0.000,5.904,-16.837
2.972,0.000,0.000,0.732,-0.300,0.000,-0.658,-1.629,0.000,5.904,-16.811
2.974,0.001,0.000,0.732,-0.302,0.000,-0.657,-1.644,0.000,5.904,-16.800
2.976,0.001,0.000,0.731,-0.297,0.000,-0.656,-1.616,0.000,5.904,-16.789
2.977,0.000,0.000,0.730,-0.293,0.000,-0.656,-1.593,0.000,5.903,-16.762
2.979,0.001,0.000,0.730,-0.298,0.000,-0.655,-1.623,0.000,5.903,-16.796
2.993,0.000,0.000,0.725,0.152,0.000,-0.650,-0.623,0.000,5.902,-15.990
2.995,0.001,0.000,0.724,-0.296,0.000,-0.649,-1.594,0.000,5.902,-16.849
2.997,0.001,0.000,0.724,-0.291,0.000,-0.649,-1.559,0.000,5.902,-16.868
2.998,0.000,0.000,0.723,-0.295,0.000,-0.648,-1.582,0.000,5.902,-16.887
3.000,0.000,0.000,0.722,-0.291,0.000,-0.647,-1.559,0.000,5.902,-16.906
3.002,0.001,0.000,0.722,-0.287,0.000,-0.647,-1.544,0.000,5.902,-16.926
3.004,0.001,0.000,0.721,-0.292,0.000,-0.646,-1.587,0.000,5.902,-16.930
3.016,0.001,0.000,0.717,0.079,0.000,-0.642,-0.587,0.000,5.902,-16.521
3.017,0.000,0.000,0.716,-0.292,0.000,-0.641,-1.586,0.000,5.902,-16.861
3.019,0.001,0.000,0.716,-0.286,0.000,-0.641,-1.560,0.000,5.902,-16.849
3.021,0.001,0.000,0.715,-0.289,0.000,-0.640,-1.579,0.000,5.901,-16.838
3.022,0.000,0.000,0.714,-0.284,0.000,-0.639,-1.553,0.000,5.901,-16.826
3.024,0.001,0.000,0.714,-0.288,0.000,-0.639,-1.573,0.000,5.901,-16.814
3.026,0.001,0.000,0.713,-0.283,0.000,-0.638,-1.542,0.000,5.901,-16.833
3.040,0.001,0.000,0.708,0.175,0.000,-0.633,-0.542,0.000,5.900,-16.027
3.042,0.001,0.000,0.707,-0.285,0.000,-0.632,-1.542,0.000,5.900,-16.885
3.043,0.000,0.000,0.706,-0.282,0.000,-0.632,-1.529,0.000,5.900,-16.904
3.045,0.001,0.000,0.706,-0.285,0.000,-0.631,-1.549,0.000,5.900,-16.908
3.047,0.001,0.000,0.705,-0.281,0.000,-0.630,-1.526,0.000,5.900,-16.926
3.048,0.000,0.000,0.705,-0.284,0.000,-0.630,-1.546,0.000,5.900,-16.930
3.050,0.000,0.000,0.704,-0.281,0.000,-0.629,-1.523,0.000,5.900,-16.919
3.064,0.000,0.000,0.699,0.182,0.000,-0.624,-0.523,0.000,5.899,-16.326
3.066,0.001,0.000,0.698,-0.280,0.000,-0.623,-1.523,0.000,5.899,-16.909
3.068,0.001,0.000,0.697,-0.273,0.000,-0.623,-1.494,0.000,5.899,-16.928
3.069,0.000,0.000,0.697,-0.277,0.000,-0.622,-1.517,0.000,5.899,-16.932
3.071,0.000,0.000,0.696,-0.272,0.000,-0.622,-1.487,0.000,5.899,-16.935
3.073,0.001,0.000,0.695,-0.276,0.000,-0.621,-1.505,0.000,5.899,-16.970
3.075,0.001,0.000,0.695,-0.271,0.000,-0.620,-1.472,0.000,5.899,-16.973
3.076,0.000,0.000,0.694,-0.275,0.000,-0.620,-1.487,0.000,5.899,-17.007
3.091,0.001,0.000,0.689,0.205,0.000,-0.614,-0.487,0.000,5.898,-16.751
3.092,0.000,0.000,0.688,-0.266,0.000,-0.614,-1.449,0.000,5.898,-16.983
3.094,0.001,0.000,0.687,-0.275,0.000,-0.613,-1.509,0.000,5.898,-17.002
3.096,0.001,0.000,0.687,-0.271,0.000,-0.612,-1.495,0.000,5.898,-16.975
3.097,0.000,0.000,0.686,-0.275,0.000,-0.612,-1.525,0.000,5.898,-16.979
3.099,0.000,0.000,0.685,-0.272,0.000,-0.611,-1.511,0.000,5.898,-16.952
3.101,0.001,0.000,0.685,-0.276,0.000,-0.611,-1.534,0.000,5.898,-16.955
3.115,0.001,0.000,0.680,0.176,0.000,-0.606,-0.534,0.000,5.897,-16.270
3.117,0.001,0.000,0.679,-0.273,0.000,-0.606,-1.500,0.000,5.897,-16.976
3.118,0.000,0.000,0.679,-0.269,0.000,-0.605,-1.467,0.000,5.897,-17.010
3.120,0.000,0.000,0.678,-0.266,0.000,-0.604,-1.443,0.000,5.897,-17.028
3.122,0.001,0.000,0.677,-0.273,0.000,-0.604,-1.475,0.000,5.897,-17.062
3.124,0.001,0.000,0.677,-0.268,0.000,-0.603,-1.447,0.000,5.897,-17.096
3.125,0.000,0.000,0.676,-0.272,0.000,-0.603,-1.471,0.000,5.897,-17.130
3.143,0.001,0.000,0.670,0.295,0.000,-0.596,-0.471,0.000,5.897,-17.302
3.145,0.001,0.000,0.669,-0.271,0.000,-0.596,-1.449,0.000,5.897,-17.077
3.147,0.001,0.000,0.669,-0.268,0.000,-0.595,-1.424,0.000,5.897,-17.049
3.148,0.000,0.000,0.668,-0.266,0.000,-0.595,-1.412,0.000,5.897,-17.053
3.150,0.001,0.000,0.667,-0.271,0.000,-0.594,-1.446,0.000,5.897,-17.026
3.152,0.001,0.000,0.667,-0.267,0.000,-0.593,-1.421,0.000,5.897,-17.044
3.153,0.000,0.000,0.666,-0.270,0.000,-0.593,-1.442,0.000,5.897,-17.032
3.167,0.000,0.000,0.662,0.143,0.000,-0.588,-0.442,0.000,5.897,-16.714
3.169,0.001,0.000,0.661,-0.269,0.000,-0.587,-1.440,0.000,5.897,-17.068
3.171,0.001,0.000,0.661,-0.265,0.000,-0.587,-1.416,0.000,5.897,-17.087
3.172,0.000,0.000,0.660,-0.268,0.000,-0.586,-1.435,0.000,5.897,-17.090
3.174,0.000,0.000,0.659,-0.265,0.000,-0.586,-1.418,0.000,5.897,-17.109
3.176,0.001,0.000,0.659,-0.262,0.000,-0.585,-1.401,0.000,5.897,-17.082
3.178,0.001,0.000,0.658,-0.268,0.000,-0.584,-1.438,0.000,5.897,-17.100
3.192,0.001,0.000,0.654,0.142,0.000,-0.580,-0.438,0.000,5.896,-16.813
3.193,0.000,0.000,0.653,-0.264,0.000,-0.579,-1.436,0.000,5.896,-17.091
3.195,0.001,0.000,0.652,-0.258,0.000,-0.579,-1.407,0.000,5.896,-17.078
3.197,0.001,0.000,0.652,-0.260,0.000,-0.578,-1.426,0.000,5.896,-17.082
3.198,0.000,0.000,0.651,-0.256,0.000,-0.578,-1.402,0.000,5.896,-17.085
3.200,0.000,0.000,0.651,-0.253,0.000,-0.577,-1.387,0.000,5.896,-17.103
3.202,0.001,0.000,0.650,-0.258,0.000,-0.577,-1.411,0.000,5.896,-17.121
3.216,0.001,0.000,0.645,0.170,0.000,-0.572,-0.411,0.000,5.896,-17.109
