timestamp_s,dt_s,pitch_setpoint,pitch_measurement,pitch_command,roll_setpoint,roll_measurement,roll_command,yaw_setpoint,yaw_measurement,yaw_command,throttle
0.111,0.111,-2.175,-11.260,0.000,-2.126,0.807,0.000,0.249,-1.298,0.000,0.000
0.125,0.012,-2.066,-11.263,0.000,-2.294,0.815,0.000,0.288,-1.323,0.000,0.000
0.139,0.012,-2.040,-11.263,0.000,-2.155,0.816,0.000,0.272,-1.325,0.000,0.000
0.152,0.011,-2.107,-11.264,0.000,-2.277,0.817,0.000,0.140,-1.328,0.000,0.000
0.166,0.012,-2.052,-11.264,0.000,-2.244,0.818,0.000,0.222,-1.332,0.000,0.000
0.191,0.011,-2.124,-11.266,0.000,-2.408,0.819,0.000,0.241,-1.338,0.000,0.000
0.204,0.011,-2.081,-11.266,0.000,-2.289,0.819,0.000,0.240,-1.341,0.000,0.000
0.218,0.012,-2.163,-11.267,0.000,-2.394,0.819,0.000,0.366,-1.343,0.000,0.000
0.231,0.011,-2.168,-11.270,0.000,-2.321,0.819,0.000,0.304,-1.345,0.000,0.000
0.245,0.012,-2.062,-11.270,0.000,-2.279,0.819,0.000,0.297,-1.347,0.000,0.000
0.258,0.011,-2.221,-11.270,0.000,-2.279,0.819,0.000,0.347,-1.349,0.000,0.000
0.271,0.011,-1.991,-11.271,0.000,-2.230,0.819,0.000,0.377,-1.351,0.000,0.000
0.297,0.011,-2.117,-11.271,0.000,-2.282,0.819,0.000,0.324,-1.355,0.000,0.000
0.310,0.011,-2.163,-11.271,0.000,-2.332,0.819,0.000,0.405,-1.357,0.000,0.000
0.324,0.012,-2.050,-11.272,0.000,-2.216,0.820,0.000,0.347,-1.358,0.000,0.000
0.338,0.012,-2.038,-11.272,0.000,-2.280,0.821,0.000,0.272,-1.361,0.000,0.000
0.351,0.011,-2.035,-11.271,0.000,-2.187,0.822,0.000,0.292,-1.363,0.000,0.000
0.365,0.012,-2.204,-11.272,0.000,-2.297,0.823,0.000,0.223,-1.367,0.000,0.000
0.378,0.011,-2.143,-11.273,0.000,-2.391,0.822,0.000,0.330,-1.369,0.000,0.000
0.405,0.011,-2.050,-11.271,0.000,-2.317,0.822,0.000,0.234,-1.375,0.000,0.000
0.419,0.012,-2.130,-11.271,0.000,-2.257,0.822,0.000,0.261,-1.379,0.000,0.000
0.432,0.011,-2.109,-11.271,0.000,-2.223,0.823,0.000,0.268,-1.382,0.000,0.000
0.446,0.012,-2.184,-11.272,0.000,-2.285,0.824,0.000,0.279,-1.385,0.000,0.000
0.459,0.011,-2.126,-11.273,0.000,-2.183,0.825,0.000,0.329,-1.387,0.000,0.000
0.472,0.011,-2.075,-11.273,0.000,-2.219,0.826,0.000,0.259,-1.389,0.000,0.000
0.498,0.011,-2.097,-11.273,0.000,-2.219,0.828,0.000,0.296,-1.394,0.000,0.000
0.511,0.011,-2.156,-11.274,0.000,-2.287,0.829,0.000,0.282,-1.397,0.000,0.000
0.525,0.012,-2.083,-11.274,0.000,-2.147,0.830,0.000,0.284,-1.399,0.000,0.000
0.538,0.011,-2.035,-11.274,0.000,-2.220,0.832,0.000,0.280,-1.401,0.000,0.000
0.551,0.011,-2.164,-11.273,0.000,-2.305,0.833,0.000,0.354,-1.404,0.000,0.000
0.565,0.012,-2.030,-11.273,0.000,-2.072,0.836,0.000,0.327,-1.405,0.000,0.000
0.578,0.011,-2.048,-11.272,0.000,-2.264,0.837,0.000,0.294,-1.407,0.000,0.000
0.605,0.011,-2.095,-11.272,0.000,-2.310,0.838,0.000,0.184,-1.413,0.000,0.000
0.618,0.011,-2.120,-11.271,0.000,-2.276,0.838,0.000,0.307,-1.416,0.000,0.000
0.631,0.011,-2.164,-11.272,0.000,-2.216,0.839,0.000,0.376,-1.417,0.000,0.000
0.645,0.012,-2.107,-11.272,0.000,-2.231,0.841,0.000,0.262,-1.420,0.000,0.000
0.658,0.011,-2.035,-11.272,0.000,-2.144,0.842,0.000,0.304,-1.423,0.000,0.000
0.672,0.012,-2.128,-11.273,0.000,-2.218,0.845,0.000,0.271,-1.425,0.000,0.000
0.700,0.012,-2.080,-11.271,0.000,-2.251,0.847,0.000,0.205,-1.432,0.000,0.000
0.713,0.011,-2.044,-11.271,0.000,-2.118,0.849,0.000,0.312,-1.435,0.000,0.000
0.727,0.012,-2.185,-11.272,0.000,-2.158,0.851,0.000,0.314,-1.437,0.000,0.000
0.740,0.011,-2.167,-11.273,0.000,-2.282,0.852,0.000,0.274,-1.439,0.000,0.000
0.754,0.012,-2.220,-11.274,0.000,-2.292,0.852,0.000,0.148,-1.443,0.000,0.000
0.768,0.012,-2.191,-11.276,0.000,-2.276,0.852,0.000,0.272,-1.447,0.000,0.000
0.781,0.011,-2.131,-11.276,0.000,-2.229,0.852,0.000,0.258,-1.449,0.000,0.000
0.807,0.011,-2.126,-11.277,0.000,-2.228,0.854,0.000,0.208,-1.455,0.000,0.000
0.820,0.011,-2.047,-11.277,0.000,-2.226,0.855,0.000,0.282,-1.458,0.000,0.000
0.833,0.011,-2.139,-11.277,0.000,-2.170,0.856,0.000,0.192,-1.461,0.000,0.000
0.847,0.012,-2.110,-11.278,0.000,-2.309,0.856,0.000,0.342,-1.464,0.000,0.000
0.860,0.011,-2.127,-11.278,0.000,-2.339,0.856,0.000,0.280,-1.467,0.000,0.000
0.874,0.012,-2.189,-11.279,0.000,-2.322,0.856,0.000,0.216,-1.469,0.000,0.000
0.908,0.012,-2.129,-11.281,0.000,-2.317,0.856,0.000,0.273,-1.477,0.000,0.000
0.921,0.011,-2.123,-11.280,0.000,-2.254,0.857,0.000,0.244,-1.479,0.000,0.000
0.935,0.012,-2.092,-11.280,0.000,-2.201,0.857,0.000,0.316,-1.482,0.000,0.000
0.948,0.011,-2.073,-11.280,0.000,-2.350,0.857,0.000,0.188,-1.485,0.000,0.000
0.962,0.012,-2.076,-11.279,0.000,-2.212,0.858,-0.009,0.290,-1.488,-0.000,0.400
0.976,0.012,-2.027,-11.279,0.006,-2.221,0.859,-0.141,0.340,-1.490,-0.001,6.400
0.989,0.011,-2.089,-11.278,0.012,-2.277,0.861,-0.256,0.181,-1.494,-0.001,11.600
1.015,0.011,-2.124,-11.279,0.024,-2.282,0.861,-0.488,0.257,-1.499,-0.003,22.000
1.029,0.012,-2.022,-11.279,0.028,-2.228,0.862,-0.612,0.207,-1.503,-0.003,27.600
1.042,0.011,-2.119,-11.278,0.035,-2.322,0.862,-0.729,0.277,-1.506,-0.004,32.800
1.056,0.012,-2.082,-11.278,0.039,-2.284,0.863,-0.855,0.322,-1.508,-0.006,38.400
1.069,0.011,-2.089,-11.277,0.043,-2.296,0.863,-0.952,0.252,-1.511,-0.006,42.800
1.083,0.012,-2.132,-11.278,0.052,-2.146,0.863,-1.076,0.339,-1.515,-0.008,48.400
1.111,0.012,-2.067,-11.278,0.062,-2.251,0.865,-1.331,0.264,-1.519,-0.008,59.600
1.124,0.011,-2.044,-11.277,0.066,-2.316,0.865,-1.451,0.282,-1.523,-0.006,64.800
1.138,0.012,-2.215,-11.278,0.078,-2.296,0.865,-1.577,0.180,-1.526,-0.006,70.400
1.152,0.012,-2.147,-11.278,0.082,-2.246,0.866,-1.703,0.294,-1.529,-0.011,76.000
1.165,0.011,-2.041,-11.278,0.084,-2.207,0.868,-1.818,0.213,-1.532,-0.009,81.200
1.179,0.012,-1.993,-11.278,0.081,-2.273,0.868,-1.824,0.343,-1.534,-0.014,81.200
1.192,0.011,-2.169,-11.277,0.088,-2.413,0.867,-1.832,0.216,-1.537,-0.009,81.200
1.219,0.011,-1.809,-11.274,0.072,-2.190,0.865,-1.830,1.054,-1.545,-0.041,81.200
1.233,0.012,-1.967,-11.278,0.084,-1.806,0.866,-1.814,0.468,-1.536,-0.025,81.200
1.246,0.011,-2.189,-11.280,0.097,-3.040,0.868,-1.860,-1.176,-1.554,0.052,81.200
1.260,0.012,-2.628,-11.281,0.098,-2.076,0.863,-1.830,1.332,-1.557,-0.048,81.200
1.274,0.012,-2.133,-11.278,0.084,-1.518,0.876,-1.802,0.117,-1.550,-0.014,81.200
1.287,0.011,-2.035,-11.282,0.083,-3.181,0.868,-1.880,-0.382,-1.562,0.021,81.200
1.313,0.011,-2.073,-11.284,0.084,-2.169,0.875,-1.839,1.217,-1.563,-0.049,81.200
1.327,0.012,-2.300,-11.280,0.089,-2.590,0.867,-1.855,-0.632,-1.565,0.020,81.200
1.340,0.011,-2.155,-11.284,0.084,-2.225,0.871,-1.845,-0.321,-1.581,0.019,81.200
1.354,0.012,-1.697,-11.285,0.073,-2.105,0.869,-1.841,1.569,-1.574,-0.064,81.200
1.367,0.011,-2.205,-11.283,0.091,-1.726,0.874,-1.830,-0.287,-1.571,0.005,81.200
1.381,0.012,-2.532,-11.286,0.102,-3.249,0.871,-1.892,-0.347,-1.586,0.017,81.200
1.409,0.011,-1.937,-11.285,0.079,-2.239,0.875,-1.855,0.297,-1.583,-0.012,81.200
1.422,0.011,-2.016,-11.284,0.081,-2.580,0.867,-1.883,-0.501,-1.592,0.018,81.200
1.436,0.012,-2.262,-11.290,0.092,-2.015,0.872,-1.850,0.484,-1.600,-0.020,81.200
1.450,0.012,-2.022,-11.290,0.082,-2.496,0.872,-1.871,0.909,-1.593,-0.037,81.200
1.463,0.011,-2.070,-11.285,0.075,-2.189,0.873,-1.857,-0.686,-1.599,0.020,81.200
1.477,0.012,-2.075,-11.284,0.083,-2.544,0.871,-1.879,0.427,-1.611,-0.011,81.200
1.504,0.011,-1.974,-11.285,0.080,-2.286,0.876,-1.870,-0.209,-1.605,0.008,81.200
1.517,0.011,-2.267,-11.283,0.091,-2.644,0.869,-1.892,-0.137,-1.616,0.006,81.200
1.531,0.012,-2.153,-11.286,0.086,-1.838,0.875,-1.855,0.777,-1.616,-0.031,81.200
1.544,0.011,-1.969,-11.286,0.082,-2.432,0.876,-1.871,0.508,-1.612,-0.032,81.200
1.558,0.012,-2.052,-11.284,0.083,-2.233,0.874,-1.872,-0.511,-1.620,0.020,81.200
1.572,0.012,-2.201,-11.286,0.091,-2.107,0.877,-1.875,0.756,-1.626,-0.026,81.200
1.585,0.011,-2.097,-11.287,0.084,-2.246,0.877,-1.876,0.695,-1.619,-0.033,81.200
1.611,0.011,-1.992,-11.283,0.079,-2.320,0.877,-1.891,0.301,-1.634,-0.000,81.200
1.625,0.012,-2.124,-11.285,0.086,-1.983,0.879,-1.874,0.842,-1.631,-0.034,81.200
1.638,0.011,-2.284,-11.286,0.094,-2.428,0.880,-1.892,0.013,-1.631,-0.006,81.200
1.652,0.012,-2.047,-11.285,0.083,-2.177,0.877,-1.886,-0.288,-1.642,0.012,81.200
1.665,0.011,-2.045,-11.284,0.082,-1.922,0.881,-1.873,0.902,-1.643,-0.034,81.200
1.679,0.012,-1.973,-11.285,0.082,-2.498,0.880,-1.895,0.567,-1.637,-0.027,81.200
1.707,0.011,-2.213,-11.283,0.089,-2.112,0.880,-1.894,0.784,-1.649,-0.030,81.200
1.720,0.011,-2.365,-11.286,0.096,-2.072,0.882,-1.891,0.439,-1.645,-0.018,81.200
1.734,0.012,-2.027,-11.287,0.083,-2.502,0.882,-1.905,-0.170,-1.652,0.008,81.200
1.748,0.012,-1.991,-11.287,0.081,-2.085,0.880,-1.896,0.319,-1.659,-0.013,81.200
1.761,0.011,-2.127,-11.288,0.089,-1.968,0.884,-1.887,0.817,-1.655,-0.032,81.200
1.775,0.012,-2.113,-11.288,0.085,-2.543,0.882,-1.920,0.046,-1.657,-0.003,81.200
1.802,0.011,-2.154,-11.288,0.083,-1.983,0.883,-1.902,0.765,-1.663,-0.031,81.200
1.815,0.011,-2.157,-11.291,0.088,-2.285,0.883,-1.914,0.103,-1.662,-0.004,81.200
1.829,0.012,-2.243,-11.293,0.097,-2.564,0.883,-2.031,-0.086,-1.671,0.004,85.600
1.842,0.011,-2.024,-11.293,0.092,-1.990,0.882,-2.131,0.584,-1.674,-0.027,90.800
1.856,0.012,-2.025,-11.292,0.100,-2.094,0.885,-2.267,0.431,-1.671,-0.023,96.400
1.870,0.012,-2.206,-11.294,0.112,-2.456,0.883,-2.422,-0.138,-1.678,0.010,102.000
1.883,0.011,-2.040,-11.295,0.109,-2.040,0.885,-2.526,0.466,-1.684,-0.025,107.200
1.909,0.011,-2.210,-11.298,0.121,-2.397,0.885,-2.595,0.081,-1.683,-0.009,109.200
1.923,0.012,-2.094,-11.299,0.118,-2.391,0.885,-2.634,0.302,-1.690,-0.004,111.200
1.936,0.011,-2.104,-11.299,0.122,-1.988,0.887,-2.750,0.715,-1.688,-0.042,116.400
1.950,0.012,-2.109,-11.300,0.126,-2.202,0.889,-2.893,0.076,-1.689,-0.009,122.000
1.964,0.012,-2.162,-11.301,0.135,-2.444,0.888,-3.030,0.067,-1.697,0.004,126.800
1.977,0.011,-2.148,-11.301,0.139,-2.051,0.888,-3.074,0.779,-1.698,-0.043,129.600
2.003,0.011,-2.235,-11.300,0.154,-2.318,0.889,-3.347,-0.015,-1.700,0.000,140.000
2.016,0.011,-2.184,-11.303,0.156,-2.313,0.890,-3.426,0.264,-1.705,-0.019,143.200
2.030,0.012,-2.171,-11.303,0.155,-2.176,0.890,-3.420,0.754,-1.703,-0.054,143.200
2.044,0.012,-2.138,-11.301,0.155,-2.294,0.889,-3.480,0.030,-1.705,-0.002,145.200
2.057,0.011,-2.146,-11.302,0.156,-2.260,0.890,-3.481,0.252,-1.710,-0.018,145.200
2.071,0.012,-2.248,-11.305,0.157,-2.116,0.892,-3.469,0.605,-1.710,-0.039,145.200
2.099,0.012,-1.870,-11.301,0.136,-2.279,0.891,-3.496,0.021,-1.719,0.001,145.200
2.112,0.011,-2.291,-11.303,0.164,-2.194,0.892,-3.487,0.713,-1.719,-0.050,145.200
2.126,0.012,-2.225,-11.308,0.162,-2.328,0.891,-3.504,0.250,-1.718,-0.018,145.200
2.140,0.012,-1.796,-11.305,0.136,-2.076,0.891,-3.508,-0.220,-1.727,0.016,145.200
2.153,0.011,-1.864,-11.300,0.134,-2.033,0.895,-3.483,0.689,-1.729,-0.047,145.200
2.167,0.012,-2.370,-11.306,0.172,-2.433,0.894,-3.521,0.684,-1.723,-0.050,145.200
2.198,0.011,-1.896,-11.298,0.117,-1.872,0.891,-3.504,0.762,-1.736,-0.033,145.200
2.211,0.011,-2.671,-11.306,0.195,-2.075,0.894,-3.507,0.739,-1.730,-0.058,145.200
2.225,0.012,-2.357,-11.316,0.171,-2.556,0.891,-3.545,-0.372,-1.737,0.027,145.200
2.238,0.011,-1.289,-11.304,0.092,-2.192,0.892,-3.520,0.181,-1.746,-0.006,145.200
2.252,0.012,-2.176,-11.297,0.158,-1.956,0.895,-3.507,1.108,-1.740,-0.080,145.200
2.266,0.012,-2.605,-11.311,0.189,-2.780,0.892,-3.571,-0.363,-1.741,0.026,145.200
2.279,0.011,-1.567,-11.307,0.114,-2.330,0.891,-3.542,-0.219,-1.755,0.016,145.200
2.305,0.011,-3.150,-11.298,0.229,-2.463,0.893,-3.557,0.413,-1.748,-0.030,145.200
2.319,0.012,-2.164,-11.311,0.157,-2.515,0.888,-3.564,-0.725,-1.762,0.053,145.200
2.332,0.011,-1.278,-11.297,0.093,-2.085,0.888,-3.536,0.801,-1.768,-0.058,145.200
2.346,0.012,-2.294,-11.294,0.153,-1.901,0.893,-3.519,0.894,-1.758,-0.077,145.200
2.360,0.012,-2.868,-11.307,0.211,-2.548,0.891,-3.583,-0.461,-1.765,0.031,145.200
2.373,0.011,-1.748,-11.306,0.127,-2.170,0.889,-3.552,0.091,-1.776,-0.007,145.200
2.399,0.011,-2.743,-11.302,0.180,-2.399,0.894,-3.560,0.006,-1.768,-0.045,145.200
2.412,0.011,-2.077,-11.309,0.158,-2.603,0.891,-3.598,-0.659,-1.783,0.059,145.200
2.426,0.012,-1.707,-11.304,0.124,-1.797,0.892,-3.536,1.233,-1.784,-0.090,145.200
2.440,0.012,-2.257,-11.302,0.163,-2.033,0.897,-3.549,0.481,-1.774,-0.052,145.200
2.453,0.011,-2.283,-11.307,0.166,-2.865,0.893,-3.617,-0.919,-1.787,0.064,145.200
2.467,0.012,-2.205,-11.308,0.159,-1.915,0.892,-3.562,0.940,-1.796,-0.056,145.200
2.495,0.012,-2.334,-11.305,0.166,-2.631,0.896,-3.616,-0.895,-1.792,0.064,145.200
2.508,0.011,-2.227,-11.308,0.162,-2.411,0.893,-3.603,0.140,-1.807,-0.010,145.200
2.522,0.012,-1.956,-11.308,0.149,-1.666,0.899,-3.553,1.608,-1.794,-0.123,145.200
2.536,0.012,-2.118,-11.306,0.152,-2.309,0.902,-3.596,-0.556,-1.792,-0.012,145.200
2.549,0.011,-2.240,-11.308,0.163,-2.671,0.897,-3.632,-0.666,-1.811,0.048,145.200
2.563,0.012,-2.162,-11.311,0.157,-1.922,0.899,-3.582,1.570,-1.807,-0.114,145.200
2.590,0.011,-2.195,-11.306,0.159,-2.903,0.901,-3.659,-1.060,-1.817,0.077,145.200
2.603,0.011,-2.347,-11.312,0.170,-2.047,0.900,-3.601,1.026,-1.824,-0.074,145.200
2.617,0.012,-1.842,-11.312,0.134,-1.880,0.906,-3.592,1.044,-1.810,-0.076,145.200
2.630,0.011,-1.942,-11.306,0.141,-2.685,0.906,-3.653,-0.833,-1.816,0.060,145.200
2.644,0.012,-2.534,-11.310,0.187,-2.297,0.901,-3.633,0.257,-1.832,0.006,145.200
2.658,0.012,-2.049,-11.313,0.149,-1.530,0.907,-3.577,1.537,-1.822,-0.112,145.200
2.671,0.011,-1.861,-11.308,0.137,-2.212,0.911,-3.622,-0.032,-1.817,-0.018,145.200
2.698,0.011,-2.081,-11.312,0.155,-1.984,0.908,-3.623,1.059,-1.833,-0.072,145.200
2.712,0.012,-1.883,-11.309,0.137,-1.996,0.914,-3.624,0.541,-1.824,-0.039,145.200
2.725,0.011,-2.114,-11.306,0.151,-2.648,0.913,-3.665,-0.709,-1.834,0.047,145.200
2.739,0.012,-2.411,-11.310,0.169,-2.164,0.909,-3.650,0.471,-1.844,-0.027,145.200
2.753,0.012,-2.002,-11.310,0.149,-1.785,0.914,-3.617,1.181,-1.836,-0.087,145.200
2.766,0.011,-2.169,-11.307,0.140,-2.268,0.915,-3.651,0.053,-1.834,-0.019,145.200
2.792,0.011,-2.106,-11.314,0.160,-1.839,0.914,-3.649,0.865,-1.848,-0.048,145.200
2.805,0.011,-1.702,-11.309,0.124,-2.089,0.918,-3.652,0.875,-1.840,-0.064,145.200
2.819,0.012,-2.372,-11.309,0.172,-2.563,0.914,-3.690,-0.326,-1.844,0.024,145.200
2.833,0.012,-2.231,-11.314,0.162,-2.269,0.912,-3.672,0.066,-1.855,-0.005,145.200
2.846,0.011,-1.978,-11.311,0.140,-1.979,0.914,-3.653,1.092,-1.852,-0.076,145.200
2.860,0.012,-2.406,-11.314,0.169,-2.115,0.916,-3.658,0.343,-1.845,-0.064,145.200
2.886,0.011,-1.971,-11.318,0.144,-1.983,0.917,-3.665,0.533,-1.864,-0.028,145.200
2.899,0.011,-2.129,-11.315,0.155,-1.922,0.920,-3.664,1.235,-1.855,-0.090,145.200
2.913,0.012,-2.374,-11.322,0.173,-2.567,0.919,-3.713,-0.464,-1.856,0.023,145.200
2.927,0.012,-1.947,-11.323,0.154,-2.505,0.914,-3.718,-0.335,-1.874,0.042,145.200
2.940,0.011,-1.700,-11.314,0.118,-1.838,0.915,-3.675,1.399,-1.873,-0.084,145.200
2.954,0.012,-2.352,-11.315,0.171,-2.286,0.917,-3.703,0.387,-1.864,-0.043,145.200
2.981,0.011,-1.599,-11.314,0.115,-2.178,0.914,-3.703,0.804,-1.886,-0.037,145.200
2.994,0.011,-2.268,-11.312,0.164,-1.793,0.919,-3.688,1.237,-1.874,-0.099,146.000
3.008,0.012,-2.482,-11.320,0.188,-2.677,0.918,-3.912,-0.728,-1.878,0.055,151.600
3.021,0.011,-1.902,-11.320,0.149,-2.527,0.914,-4.039,-0.085,-1.894,0.007,156.800
3.035,0.012,-1.815,-11.313,0.145,-1.700,0.917,-4.120,1.530,-1.887,-0.121,162.400
3.049,0.012,-2.444,-11.315,0.203,-2.491,0.919,-4.323,-0.201,-1.882,0.007,168.000
3.062,0.011,-2.136,-11.320,0.184,-2.694,0.915,-4.469,-0.764,-1.900,0.066,172.400
3.089,0.011,-2.056,-11.313,0.188,-2.083,0.920,-4.700,0.567,-1.890,-0.052,183.200
3.103,0.012,-2.493,-11.320,0.234,-2.881,0.916,-4.923,-0.812,-1.904,0.083,188.800
3.116,0.011,-1.946,-11.320,0.200,-1.895,0.915,-4.977,1.053,-1.910,-0.095,193.999
3.130,0.012,-1.886,-11.314,0.175,-1.937,0.924,-5.016,0.725,-1.899,-0.087,195.999
3.144,0.012,-2.539,-11.319,0.250,-2.992,0.917,-5.169,-0.390,-1.907,0.038,197.199
3.157,0.011,-1.977,-11.321,0.202,-1.796,0.917,-5.064,0.278,-1.915,0.004,197.199
3.183,0.011,-2.250,-11.317,0.226,-2.479,0.916,-5.141,0.106,-1.909,-0.024,197.199
3.197,0.012,-2.197,-11.319,0.217,-2.061,0.924,-5.095,-0.359,-1.921,0.035,197.199
3.210,0.011,-2.182,-11.320,0.208,-2.776,0.918,-5.177,1.217,-1.921,-0.113,197.199
3.224,0.012,-2.034,-11.318,0.201,-1.264,0.925,-5.026,-0.010,-1.916,0.001,197.199
3.237,0.011,-2.208,-11.318,0.218,-3.177,0.926,-5.219,-0.157,-1.926,0.015,197.199
3.251,0.012,-2.190,-11.321,0.216,-1.609,0.917,-5.069,0.523,-1.929,-0.052,197.199
3.279,0.012,-2.249,-11.318,0.227,-2.846,0.918,-5.220,-0.043,-1.926,-0.032,197.199
3.292,0.011,-2.081,-11.320,0.205,-1.440,0.931,-5.066,-0.069,-1.936,0.007,197.199
3.306,0.012,-1.845,-11.318,0.181,-3.260,0.922,-5.244,1.361,-1.930,-0.131,197.199
3.320,0.012,-1.965,-11.315,0.198,-1.353,0.924,-5.078,-0.617,-1.934,0.056,197.199
3.333,0.011,-2.068,-11.316,0.202,-2.900,0.929,-5.191,0.580,-1.941,-0.027,197.199
3.347,0.012,-2.151,-11.317,0.213,-2.044,0.918,-5.158,0.278,-1.940,-0.034,197.199
3.374,0.011,-2.070,-11.316,0.206,-3.086,0.922,-5.259,-0.007,-1.944,-0.010,197.199
3.387,0.011,-2.089,-11.317,0.214,-1.179,0.931,-5.078,0.046,-1.953,0.011,197.199
3.401,0.012,-2.011,-11.317,0.198,-3.028,0.929,-5.260,1.191,-1.945,-0.117,197.199
3.414,0.011,-2.151,-11.317,0.213,-1.670,0.926,-5.146,-0.515,-1.950,0.048,197.199
3.428,0.012,-2.235,-11.318,0.221,-2.402,0.935,-5.161,0.746,-1.955,-0.037,197.199
3.442,0.012,-2.192,-11.319,0.216,-2.408,0.926,-5.222,0.112,-1.955,-0.020,197.199
3.455,0.011,-2.078,-11.319,0.211,-1.764,0.934,-5.151,0.403,-1.959,-0.028,197.199
3.485,0.011,-2.033,-11.319,0.208,-1.789,0.933,-5.170,0.518,-1.968,-0.038,197.199
3.499,0.012,-2.141,-11.319,0.211,-2.581,0.933,-5.249,0.370,-1.966,-0.037,197.199
3.512,0.011,-2.178,-11.319,0.207,-2.191,0.929,-5.255,-0.133,-1.973,0.014,197.199
3.526,0.012,-2.116,-11.319,0.209,-1.907,0.934,-5.190,0.746,-1.974,-0.074,197.199
3.539,0.011,-2.114,-11.319,0.208,-2.611,0.932,-5.267,0.409,-1.972,-0.047,197.199
3.552,0.011,-2.199,-11.319,0.217,-2.078,0.930,-5.217,0.086,-1.977,-0.008,197.199
3.578,0.011,-1.939,-11.321,0.191,-2.541,0.929,-5.271,0.762,-1.982,-0.075,197.199
3.592,0.012,-2.106,-11.320,0.207,-1.637,0.937,-5.179,-0.173,-1.984,0.018,197.199
3.605,0.011,-2.133,-11.321,0.210,-2.990,0.934,-5.324,0.459,-1.989,-0.045,197.199
3.619,0.012,-2.083,-11.320,0.207,-1.431,0.934,-5.204,0.205,-1.989,-0.033,197.199
3.632,0.011,-2.148,-11.321,0.212,-2.469,0.944,-5.281,0.534,-1.992,-0.053,197.199
3.646,0.012,-2.005,-11.320,0.198,-2.353,0.932,-5.275,0.154,-1.993,-0.015,197.199
3.674,0.012,-2.079,-11.323,0.214,-2.922,0.935,-5.350,0.939,-1.995,-0.101,197.199
3.687,0.011,-2.152,-11.320,0.209,-1.413,0.943,-5.193,-0.476,-2.000,0.044,197.199
3.701,0.012,-2.208,-11.321,0.218,-3.161,0.941,-5.373,0.964,-2.004,-0.095,197.199
3.715,0.012,-1.829,-11.318,0.176,-1.412,0.939,-5.251,-0.170,-2.005,-0.013,197.199
3.728,0.011,-2.235,-11.319,0.210,-2.614,0.947,-5.309,0.521,-2.009,-0.035,197.199
3.742,0.012,-1.974,-11.320,0.195,-2.238,0.934,-5.296,0.285,-2.009,-0.028,197.199
3.769,0.011,-2.124,-11.320,0.220,-2.873,0.937,-5.367,0.541,-2.012,-0.059,197.199
3.782,0.011,-2.019,-11.319,0.198,-1.464,0.944,-5.229,-0.352,-2.019,0.038,197.199
3.796,0.012,-2.191,-11.320,0.220,-2.917,0.942,-5.381,0.714,-2.022,-0.071,197.199
3.810,0.012,-2.157,-11.321,0.212,-1.545,0.942,-5.248,0.105,-2.023,-0.010,197.199
3.823,0.011,-2.202,-11.321,0.217,-2.692,0.947,-5.368,0.502,-2.025,-0.050,197.199
3.837,0.012,-2.057,-11.323,0.203,-2.112,0.937,-5.316,-0.015,-2.029,0.001,197.199
3.850,0.011,-2.055,-11.321,0.199,-1.924,0.947,-5.265,0.526,-2.032,-0.022,197.199
3.877,0.011,-2.032,-11.321,0.200,-1.573,0.944,-5.276,0.053,-2.039,-0.005,197.199
3.891,0.012,-2.042,-11.320,0.208,-2.815,0.941,-5.391,0.467,-2.039,-0.051,197.199
3.904,0.011,-2.185,-11.319,0.211,-1.873,0.940,-5.327,0.045,-2.044,-0.001,197.199
3.918,0.012,-2.092,-11.319,0.206,-2.332,0.944,-5.358,0.546,-2.045,-0.054,197.199
3.932,0.012,-2.139,-11.319,0.214,-2.331,0.938,-5.369,-0.101,-2.050,0.007,197.199
3.945,0.011,-2.127,-11.320,0.197,-1.925,0.945,-5.327,0.697,-2.052,-0.063,197.199
3.971,0.011,-2.236,-11.319,0.220,-2.087,0.943,-5.359,0.265,-2.060,-0.026,197.199
3.985,0.012,-1.971,-11.318,0.192,-2.242,0.945,-5.378,0.507,-2.058,-0.071,197.199
3.998,0.011,-2.234,-11.317,0.220,-2.605,0.941,-5.419,-0.031,-2.063,0.007,197.199
4.012,0.012,-2.142,-11.318,0.211,-1.884,0.943,-5.353,0.477,-2.065,-0.058,197.199
4.025,0.011,-2.090,-11.317,0.207,-2.640,0.943,-5.443,0.099,-2.069,-0.003,198.399
4.039,0.012,-2.036,-11.317,0.205,-2.068,0.939,-5.468,0.464,-2.072,-0.049,203.999
4.067,0.011,-2.071,-11.317,0.203,-2.531,0.938,-5.524,0.505,-2.078,-0.043,215.199
4.080,0.011,-2.214,-11.318,0.230,-1.473,0.946,-5.398,0.036,-2.079,-0.014,218.399
4.094,0.012,-2.126,-11.318,0.214,-3.093,0.943,-5.572,0.489,-2.084,-0.041,224.399
4.108,0.012,-2.105,-11.317,0.209,-1.389,0.944,-5.436,0.077,-2.085,-0.018,229.999
4.121,0.011,-2.180,-11.318,0.218,-2.798,0.951,-5.557,0.458,-2.089,-0.046,235.199
4.135,0.012,-1.855,-11.316,0.190,-1.922,0.941,-5.513,0.287,-2.088,-0.049,240.799
4.162,0.011,-1.709,-11.314,0.167,-2.402,0.944,-5.547,0.552,-2.096,-0.058,245.999
4.175,0.011,-2.331,-11.313,0.211,-1.777,0.953,-5.468,0.010,-2.099,0.003,245.999
4.189,0.012,-1.988,-11.313,0.203,-2.440,0.951,-5.549,0.594,-2.103,-0.049,251.999
4.203,0.012,-2.041,-11.313,0.204,-2.064,0.951,-5.512,0.155,-2.104,-0.016,257.599
4.216,0.011,-1.964,-11.310,0.200,-2.055,0.956,-5.513,0.496,-2.108,-0.044,262.399
4.230,0.012,-2.099,-11.311,0.218,-2.412,0.950,-5.559,0.109,-2.107,-0.024,267.999
4.243,0.011,-2.055,-11.310,0.199,-1.948,0.957,-5.504,0.206,-2.113,-0.013,273.198
4.270,0.011,-2.299,-11.310,0.230,-2.075,0.956,-5.536,0.264,-2.118,-0.026,283.998
4.284,0.012,-2.001,-11.311,0.189,-2.446,0.957,-5.574,0.469,-2.123,-0.035,289.598
4.297,0.011,-2.259,-11.312,0.226,-2.142,0.955,-5.553,0.119,-2.123,-0.012,289.598
4.311,0.012,-1.966,-11.309,0.197,-2.273,0.960,-5.571,0.387,-2.128,-0.039,289.598
4.325,0.012,-2.115,-11.309,0.209,-2.507,0.956,-5.593,0.430,-2.130,-0.038,293.998
4.338,0.011,-2.348,-11.310,0.218,-2.036,0.958,-5.582,0.107,-2.132,-0.041,299.198
4.364,0.011,-2.171,-11.309,0.192,-2.299,0.961,-5.574,0.254,-2.137,-0.016,308.798
4.378,0.012,-2.253,-11.312,0.208,-2.281,0.961,-5.618,0.127,-2.139,-0.052,314.798
4.391,0.011,-2.089,-11.315,0.256,-2.401,0.961,-5.621,0.514,-2.141,-0.044,319.998
4.405,0.012,-2.180,-11.312,0.218,-2.141,0.965,-5.587,0.216,-2.145,-0.022,325.598
4.418,0.011,-1.768,-11.311,0.177,-1.710,0.965,-5.548,-0.047,-2.146,0.005,330.798
4.432,0.012,-2.262,-11.314,0.239,-2.620,0.963,-5.642,0.658,-2.148,-0.061,333.998
4.460,0.012,-1.765,-11.310,0.177,-1.999,0.969,-5.543,0.214,-2.154,-0.007,345.197
4.473,0.011,-1.744,-11.314,0.174,-1.841,0.966,-5.579,0.189,-2.157,-0.019,350.397
4.487,0.012,-3.394,-11.317,0.339,-2.255,0.966,-5.625,0.024,-2.165,-0.002,355.997
4.501,0.012,-2.797,-11.312,0.212,-2.353,0.965,-5.649,0.446,-2.167,-0.023,357.197
4.514,0.011,-1.179,-11.311,0.084,-2.523,0.965,-5.639,0.570,-2.165,-0.068,357.197
4.528,0.012,-1.448,-11.315,0.232,-1.753,0.967,-5.580,0.371,-2.170,-0.022,357.997
4.556,0.012,-2.793,-11.311,0.293,-2.622,0.964,-5.671,0.354,-2.176,-0.026,357.997
4.569,0.011,-2.255,-11.311,0.204,-2.147,0.964,-5.652,-0.212,-2.177,0.010,357.997
4.583,0.012,-1.845,-11.312,0.184,-2.379,0.964,-5.671,0.012,-2.181,-0.001,357.997
4.597,0.012,-1.990,-11.311,0.192,-2.054,0.964,-5.650,0.882,-2.183,-0.100,357.997
4.610,0.011,-1.796,-11.309,0.186,-2.465,0.964,-5.698,0.447,-2.185,-0.030,357.997
4.624,0.012,-1.848,-11.308,0.185,-2.757,0.965,-5.722,-0.035,-2.190,0.003,357.997
4.637,0.011,-2.104,-11.308,0.236,-1.778,0.963,-5.619,0.147,-2.192,-0.017,357.997
4.664,0.011,-2.556,-11.305,0.220,-2.838,0.961,-5.713,0.032,-2.198,-0.011,357.997
4.678,0.012,-2.538,-11.305,0.234,-2.215,0.960,-5.678,0.275,-2.205,-0.020,357.997
4.691,0.011,-0.995,-11.307,0.112,-2.360,0.961,-5.688,0.317,-2.205,-0.037,357.997
4.705,0.012,-1.187,-11.310,0.178,-2.171,0.961,-5.673,0.354,-2.205,-0.057,357.997
4.719,0.012,-2.036,-11.311,0.248,-1.966,0.960,-5.674,0.282,-2.210,-0.018,357.997
4.732,0.011,-3.173,-11.309,0.323,-2.177,0.960,-5.709,0.042,-2.215,0.002,357.997
4.762,0.011,-2.127,-11.305,0.164,-2.168,0.961,-5.726,-0.268,-2.216,0.012,357.997
4.776,0.012,-1.440,-11.307,0.125,-2.246,0.962,-5.724,0.261,-2.220,-0.028,357.997
4.789,0.011,-2.003,-11.309,0.200,-2.030,0.963,-5.704,0.816,-2.223,-0.082,357.997
4.803,0.012,-2.282,-11.308,0.228,-2.354,0.963,-5.741,0.485,-2.225,-0.049,357.997
4.816,0.011,-2.566,-11.308,0.238,-2.331,0.964,-5.738,-0.032,-2.228,0.011,357.997
4.830,0.012,-1.919,-11.309,0.189,-2.150,0.962,-5.730,-0.114,-2.231,-0.003,356.797
4.858,0.011,-2.394,-11.310,0.261,-2.383,0.962,-5.760,0.231,-2.237,-0.037,345.997
4.871,0.011,-2.792,-11.309,0.279,-2.460,0.962,-5.778,0.184,-2.241,-0.018,340.397
4.885,0.012,-1.522,-11.305,0.064,-2.566,0.961,-5.783,0.478,-2.243,-0.035,334.798
4.899,0.012,-0.484,-11.307,0.106,-2.586,0.962,-5.761,0.546,-2.244,-0.044,329.598
4.912,0.011,-2.612,-11.312,0.359,-1.890,0.960,-5.705,0.281,-2.247,0.002,329.598
4.926,0.012,-3.595,-11.310,0.296,-2.190,0.956,-5.828,-0.067,-2.251,-0.018,325.198
4.954,0.012,-0.509,-11.305,0.061,-2.462,0.959,-5.794,0.375,-2.257,-0.041,314.398
4.967,0.011,-2.271,-11.311,0.227,-1.658,0.960,-5.728,0.156,-2.263,-0.016,309.198
4.981,0.012,-3.125,-11.309,0.295,-2.203,0.959,-5.825,0.134,-2.264,-0.031,307.198
4.995,0.012,-2.141,-11.306,0.214,-2.974,0.960,-5.869,0.542,-2.264,-0.054,306.398
5.008,0.011,-1.718,-11.306,0.163,-2.207,0.960,-5.759,0.718,-2.263,-0.082,306.398
5.022,0.012,-1.942,-11.309,0.194,-1.882,0.956,-5.769,0.261,-2.267,-0.026,306.398
5.035,0.011,-2.316,-11.308,0.225,-2.748,0.951,-5.868,0.207,-2.267,-0.050,306.398
5.062,0.011,-2.393,-11.309,0.219,-2.110,0.951,-5.790,0.297,-2.273,-0.016,306.398
5.076,0.012,-1.742,-11.309,0.191,-1.902,0.949,-5.816,0.005,-2.276,-0.005,306.398
5.089,0.011,-1.894,-11.312,0.190,-2.626,0.949,-5.870,0.809,-2.274,-0.089,306.398
5.103,0.012,-2.837,-11.312,0.278,-2.457,0.952,-5.785,0.633,-2.274,-0.039,306.398
5.117,0.012,-1.800,-11.309,0.174,-1.999,0.954,-5.783,-0.119,-2.277,0.021,306.398
5.130,0.011,-1.502,-11.311,0.150,-2.335,0.953,-5.851,0.290,-2.279,-0.029,306.398
5.156,0.011,-2.045,-11.307,0.179,-1.907,0.960,-5.797,-0.227,-2.285,0.028,306.398
5.170,0.012,-1.446,-11.310,0.162,-1.912,0.956,-5.855,0.484,-2.288,-0.059,306.398
5.183,0.011,-2.519,-11.313,0.252,-2.557,0.959,-5.890,0.329,-2.293,-0.010,306.398
5.197,0.012,-2.477,-11.311,0.248,-2.324,0.965,-5.872,0.163,-2.293,-0.016,306.398
5.211,0.012,-2.159,-11.310,0.216,-1.212,0.965,-5.765,0.351,-2.294,-0.035,306.398
5.224,0.011,-1.917,-11.312,0.236,-2.761,0.965,-5.909,0.024,-2.299,0.012,306.398
5.250,0.011,-2.339,-11.309,0.194,-1.773,0.970,-5.845,0.327,-2.308,-0.032,306.398
5.263,0.011,-1.826,-11.310,0.183,-2.698,0.970,-5.932,-0.311,-2.314,0.031,306.398
5.277,0.012,-2.555,-11.310,0.255,-2.755,0.972,-5.883,0.120,-2.317,-0.036,306.398
5.291,0.012,-2.220,-11.310,0.214,-1.791,0.972,-5.853,0.456,-2.324,-0.036,306.398
5.304,0.011,-1.897,-11.310,0.190,-2.220,0.972,-5.897,0.184,-2.327,-0.018,306.398
5.318,0.012,-1.788,-11.311,0.179,-2.530,0.971,-5.933,0.002,-2.326,-0.000,306.398
5.346,0.012,-2.254,-11.308,0.233,-2.278,0.971,-5.914,0.018,-2.335,0.004,306.398
5.359,0.011,-1.676,-11.307,0.168,-1.813,0.971,-5.875,-0.002,-2.336,0.000,306.398
5.373,0.012,-1.684,-11.307,0.168,-2.757,0.967,-5.974,0.441,-2.340,-0.044,306.398
5.387,0.012,-2.570,-11.306,0.244,-2.505,0.970,-5.946,0.307,-2.346,-0.012,306.398
5.400,0.011,-2.143,-11.303,0.193,-2.133,0.969,-5.921,0.230,-2.346,-0.036,306.398
5.414,0.012,-1.543,-11.305,0.154,-2.021,0.966,-5.914,0.239,-2.350,-0.024,306.398
5.427,0.011,-2.519,-11.308,0.252,-2.912,0.968,-6.008,0.445,-2.355,-0.044,306.398
5.454,0.011,-1.354,-11.303,0.135,-1.872,0.964,-5.914,0.712,-2.356,-0.071,306.398
5.468,0.012,-2.005,-11.305,0.200,-3.030,0.964,-6.034,0.530,-2.355,-0.053,306.398
5.481,0.011,-2.782,-11.301,0.280,-1.894,0.969,-5.930,0.079,-2.355,-0.018,306.398
5.495,0.012,-1.870,-11.298,0.168,-1.658,0.966,-5.924,0.261,-2.362,-0.026,306.398
5.509,0.012,-1.349,-11.301,0.213,-2.499,0.965,-6.024,0.144,-2.366,-0.010,306.398
5.522,0.011,-2.412,-11.299,0.241,-2.133,0.968,-5.963,0.257,-2.365,-0.026,306.398
5.548,0.011,-1.794,-11.299,0.181,-1.921,0.967,-5.984,-0.050,-2.374,-0.002,306.398
5.562,0.012,-2.128,-11.300,0.207,-2.585,0.969,-6.009,0.418,-2.373,-0.052,306.398
5.575,0.011,-2.286,-11.300,0.229,-2.282,0.971,-5.995,0.225,-2.377,-0.023,306.398
5.589,0.012,-2.376,-11.297,0.217,-1.976,0.969,-5.992,0.156,-2.384,-0.013,306.398
5.603,0.012,-1.679,-11.298,0.184,-2.254,0.967,-6.023,0.063,-2.387,-0.019,306.398
5.616,0.011,-2.144,-11.302,0.214,-2.429,0.968,-6.025,0.589,-2.387,-0.059,306.398
5.644,0.011,-1.933,-11.298,0.140,-1.833,0.969,-6.029,0.053,-2.390,-0.034,306.398
5.657,0.011,-1.571,-11.300,0.211,-2.439,0.969,-6.015,0.624,-2.389,-0.066,306.398
5.671,0.012,-2.650,-11.299,0.261,-2.773,0.969,-6.078,0.310,-2.393,-0.029,306.398
5.685,0.012,-2.229,-11.295,0.159,-1.873,0.971,-6.007,-0.184,-2.400,0.029,306.398
5.698,0.011,-1.689,-11.298,0.169,-2.359,0.968,-6.047,0.285,-2.404,-0.029,306.398
5.712,0.012,-2.500,-11.300,0.250,-2.483,0.968,-6.064,0.564,-2.407,-0.056,306.398
5.740,0.012,-1.810,-11.295,0.120,-1.647,0.969,-5.999,0.083,-2.411,-0.024,306.398
5.753,0.011,-1.965,-11.299,0.196,-2.688,0.965,-6.099,0.433,-2.417,-0.043,306.398
5.767,0.012,-2.504,-11.300,0.246,-2.735,0.967,-6.089,0.503,-2.416,-0.038,306.398
5.781,0.012,-2.302,-11.298,0.233,-1.797,0.968,-5.998,0.140,-2.416,-0.034,306.398
5.794,0.011,-1.519,-11.299,0.173,-2.241,0.963,-6.103,0.233,-2.423,-0.008,306.398
5.808,0.012,-2.282,-11.302,0.229,-2.849,0.963,-6.112,0.223,-2.424,-0.024,306.398
5.821,0.011,-2.388,-11.302,0.247,-2.118,0.964,-6.058,0.505,-2.425,-0.076,306.398
5.848,0.011,-1.860,-11.302,0.186,-2.622,0.960,-6.127,0.006,-2.429,-0.001,306.398
5.862,0.012,-2.198,-11.301,0.224,-2.415,0.960,-6.101,0.481,-2.429,-0.055,306.398
5.875,0.011,-2.545,-11.300,0.196,-2.177,0.959,-6.095,0.420,-2.435,0.006,306.398
5.889,0.012,-2.076,-11.300,0.174,-1.969,0.959,-6.087,-0.173,-2.437,0.023,306.398
5.903,0.012,-1.383,-11.300,0.176,-2.298,0.959,-6.102,0.395,-2.438,-0.057,306.398
5.916,0.011,-2.702,-11.301,0.248,-2.511,0.959,-6.160,0.436,-2.443,-0.037,306.398
5.948,0.011,-2.068,-11.298,0.164,-1.443,0.961,-6.077,-0.057,-2.450,-0.007,306.398
5.962,0.012,-1.538,-11.299,0.154,-2.061,0.957,-6.141,0.485,-2.450,-0.074,306.398
5.975,0.011,-2.378,-11.302,0.251,-2.441,0.959,-6.184,0.228,-2.454,-0.005,306.398
5.989,0.012,-2.309,-11.299,0.231,-2.418,0.963,-6.152,-0.016,-2.457,0.002,306.398
6.002,0.011,-1.312,-11.296,0.144,-1.596,0.961,-6.098,0.267,-2.461,-0.033,306.398
6.015,0.011,-2.317,-11.300,0.232,-2.770,0.960,-6.196,0.099,-2.467,-0.010,306.398
6.041,0.011,-1.422,-11.293,0.142,-1.655,0.957,-6.154,0.311,-2.473,-0.033,306.398
6.054,0.011,-2.216,-11.297,0.222,-3.003,0.958,-6.232,0.031,-2.477,-0.003,306.398
6.068,0.012,-2.565,-11.294,0.261,-2.129,0.961,-6.126,0.341,-2.478,-0.045,306.398
6.082,0.012,-2.020,-11.289,0.190,-1.826,0.960,-6.117,0.427,-2.481,-0.024,306.398
6.095,0.011,-1.852,-11.291,0.185,-2.465,0.958,-6.194,0.019,-2.484,-0.002,306.398
6.109,0.012,-2.009,-11.291,0.201,-2.361,0.960,-6.188,0.299,-2.486,-0.030,306.398
6.137,0.012,-2.379,-11.290,0.221,-2.030,0.963,-6.157,0.313,-2.488,-0.029,306.398
6.150,0.011,-1.782,-11.291,0.176,-2.198,0.962,-6.196,-0.110,-2.491,0.004,306.398
6.164,0.012,-2.119,-11.295,0.212,-2.501,0.961,-6.220,0.748,-2.493,-0.075,306.398
6.178,0.012,-2.569,-11.294,0.258,-2.209,0.962,-6.174,0.455,-2.495,-0.022,306.398
6.191,0.011,-1.656,-11.292,0.162,-2.165,0.961,-6.196,0.229,-2.497,-0.021,306.398
6.205,0.012,-1.770,-11.294,0.177,-2.396,0.958,-6.221,0.630,-2.497,-0.070,306.398
6.232,0.011,-2.333,-11.293,0.220,-2.083,0.961,-6.196,0.000,-2.502,0.001,306.398
6.245,0.011,-1.515,-11.294,0.147,-2.389,0.956,-6.262,0.075,-2.506,-0.013,306.398
6.259,0.012,-2.742,-11.296,0.271,-2.299,0.956,-6.252,0.462,-2.511,-0.047,306.398
6.272,0.011,-2.023,-11.294,0.199,-2.172,0.958,-6.191,0.310,-2.510,-0.031,306.398
6.286,0.012,-1.524,-11.293,0.152,-1.904,0.955,-6.202,0.124,-2.512,-0.012,306.398
6.300,0.012,-1.919,-11.296,0.256,-2.730,0.953,-6.285,0.375,-2.520,-0.009,306.398
6.313,0.011,-2.555,-11.293,0.255,-2.456,0.957,-6.266,0.196,-2.522,-0.020,306.398
6.339,0.011,-1.976,-11.298,0.198,-2.875,0.949,-6.319,0.387,-2.525,-0.039,306.398
6.353,0.012,-2.335,-11.298,0.253,-2.568,0.950,-6.259,0.213,-2.525,-0.016,306.398
6.366,0.011,-2.351,-11.295,0.204,-1.613,0.950,-6.212,0.616,-2.526,-0.070,306.398
6.380,0.012,-1.520,-11.296,0.195,-2.279,0.946,-6.296,0.124,-2.531,0.001,306.398
6.394,0.012,-2.006,-11.297,0.201,-2.588,0.945,-6.307,0.348,-2.531,-0.035,306.398
6.407,0.011,-2.322,-11.297,0.254,-1.892,0.947,-6.233,0.838,-2.530,-0.084,306.398
6.433,0.011,-1.923,-11.296,0.192,-2.470,0.941,-6.336,-0.380,-2.537,-0.014,306.398
6.446,0.011,-2.310,-11.298,0.254,-2.076,0.942,-6.288,0.484,-2.544,-0.013,306.398
6.460,0.012,-2.271,-11.296,0.227,-2.369,0.944,-6.307,-0.004,-2.550,0.000,306.398
6.474,0.012,-1.599,-11.297,0.151,-1.883,0.945,-6.261,-0.275,-2.553,0.032,306.398
6.487,0.011,-2.425,-11.301,0.260,-2.629,0.942,-6.332,0.864,-2.557,-0.074,306.398
6.501,0.012,-2.277,-11.300,0.228,-2.601,0.943,-6.353,0.414,-2.559,-0.039,306.398
6.529,0.012,-1.550,-11.300,0.163,-2.111,0.936,-6.331,0.546,-2.557,-0.074,306.398
6.542,0.011,-2.538,-11.303,0.254,-3.032,0.937,-6.401,0.216,-2.562,-0.022,306.398
6.556,0.012,-2.213,-11.298,0.206,-1.958,0.942,-6.285,-0.180,-2.567,0.020,306.398
6.570,0.012,-1.750,-11.297,0.175,-1.843,0.938,-6.292,0.340,-2.572,-0.034,306.398
6.583,0.011,-2.379,-11.303,0.238,-2.910,0.937,-6.404,0.282,-2.576,-0.028,306.398
6.597,0.012,-2.806,-11.302,0.267,-2.484,0.943,-6.326,0.181,-2.578,-0.018,306.398
6.624,0.011,-1.644,-11.303,0.228,-2.726,0.936,-6.406,0.332,-2.584,-0.034,306.398
6.637,0.011,-2.620,-11.304,0.277,-2.419,0.940,-6.358,0.237,-2.585,-0.029,306.398
6.651,0.012,-2.090,-11.301,0.209,-1.772,0.939,-6.311,0.442,-2.588,-0.044,306.398
6.664,0.011,-1.718,-11.303,0.182,-2.455,0.937,-6.397,0.290,-2.591,-0.027,306.398
6.678,0.012,-2.206,-11.304,0.214,-2.691,0.937,-6.406,0.499,-2.589,-0.053,306.398
6.692,0.012,-2.383,-11.305,0.231,-2.222,0.938,-6.353,0.427,-2.591,-0.038,306.398
6.705,0.011,-2.268,-11.305,0.227,-2.159,0.935,-6.369,0.418,-2.595,-0.042,306.398
6.731,0.012,-2.011,-11.309,0.224,-2.417,0.936,-6.379,0.584,-2.597,-0.052,306.398
6.745,0.012,-2.650,-11.309,0.257,-1.942,0.937,-6.370,0.304,-2.601,-0.025,306.398
6.758,0.011,-1.775,-11.307,0.155,-2.223,0.934,-6.406,0.216,-2.600,-0.017,306.398
6.772,0.012,-1.946,-11.312,0.228,-2.495,0.934,-6.448,0.552,-2.599,-0.088,306.398
6.786,0.012,-2.209,-11.311,0.230,-2.514,0.936,-6.390,0.514,-2.602,-0.031,306.398
6.799,0.011,-2.209,-11.306,0.197,-2.259,0.935,-6.418,0.022,-2.605,-0.004,306.398
6.825,0.011,-2.335,-11.304,0.233,-2.581,0.936,-6.453,0.419,-2.616,-0.042,306.398
6.838,0.011,-1.799,-11.302,0.159,-1.901,0.938,-6.397,0.039,-2.617,-0.011,306.398
6.852,0.012,-1.876,-11.305,0.210,-2.239,0.935,-6.439,0.304,-2.620,-0.044,306.398
6.866,0.012,-2.441,-11.308,0.244,-2.917,0.938,-6.501,0.337,-2.627,-0.034,306.398
6.879,0.011,-2.516,-11.306,0.252,-2.284,0.942,-6.442,0.083,-2.629,-0.008,306.398
6.893,0.012,-1.254,-11.308,0.195,-1.515,0.941,-6.420,0.452,-2.631,-0.049,306.398
6.921,0.012,-2.189,-11.312,0.256,-2.486,0.947,-6.468,-0.071,-2.636,-0.008,306.398
6.934,0.011,-2.093,-11.307,0.144,-1.631,0.947,-6.375,0.568,-2.638,-0.052,306.398
6.948,0.012,-1.725,-11.310,0.185,-2.479,0.945,-6.509,0.050,-2.644,0.001,306.398
6.961,0.011,-2.421,-11.312,0.261,-2.930,0.947,-6.439,0.347,-2.644,-0.020,306.398
6.975,0.012,-2.249,-11.312,0.225,-1.873,0.947,-6.418,0.462,-2.647,-0.054,306.398
6.989,0.012,-1.902,-11.312,0.166,-2.218,0.944,-6.507,0.157,-2.654,0.013,306.398
7.016,0.011,-2.251,-11.312,0.219,-2.429,0.948,-6.480,0.699,-2.660,-0.061,306.398
7.029,0.011,-2.180,-11.311,0.188,-1.899,0.949,-6.477,0.169,-2.663,0.002,306.398
7.043,0.012,-1.626,-11.309,0.169,-2.283,0.948,-6.516,-0.087,-2.665,-0.007,306.398
7.056,0.011,-1.833,-11.310,0.210,-2.357,0.946,-6.510,0.750,-2.667,-0.076,306.398
7.070,0.012,-2.299,-11.311,0.233,-2.581,0.948,-6.518,0.365,-2.670,-0.026,306.398
7.084,0.012,-2.238,-11.309,0.216,-1.756,0.947,-6.521,-0.151,-2.673,-0.005,306.398
7.097,0.011,-1.810,-11.310,0.205,-2.455,0.942,-6.516,0.752,-2.674,-0.072,306.398
7.124,0.011,-2.097,-11.304,0.210,-1.703,0.945,-6.466,0.176,-2.675,-0.018,306.398
7.138,0.012,-1.589,-11.303,0.187,-2.171,0.941,-6.543,0.019,-2.679,-0.021,306.398
7.151,0.011,-2.363,-11.304,0.236,-2.572,0.941,-6.562,0.171,-2.686,-0.017,306.398
7.165,0.012,-2.554,-11.302,0.255,-2.616,0.945,-6.571,0.174,-2.690,-0.017,306.398
7.179,0.012,-1.411,-11.299,0.127,-1.587,0.943,-6.509,0.539,-2.690,-0.052,306.398
7.192,0.011,-2.325,-11.303,0.247,-2.725,0.940,-6.583,0.603,-2.689,-0.063,306.398
7.222,0.011,-2.676,-11.301,0.268,-1.807,0.940,-6.510,0.365,-2.692,-0.037,306.398
7.235,0.011,-1.286,-11.300,0.165,-2.122,0.936,-6.588,0.134,-2.695,-0.027,306.398
7.249,0.012,-2.303,-11.301,0.224,-2.693,0.934,-6.604,0.320,-2.699,-0.023,306.398
7.263,0.012,-2.199,-11.300,0.228,-2.426,0.935,-6.559,0.122,-2.701,-0.040,306.398
7.276,0.011,-1.960,-11.298,0.196,-1.744,0.932,-6.522,0.409,-2.706,-0.041,306.398
7.290,0.012,-1.769,-11.296,0.177,-2.166,0.930,-6.570,-0.065,-2.710,0.007,306.398
7.317,0.011,-2.248,-11.296,0.213,-2.115,0.934,-6.565,0.737,-2.715,-0.061,306.398
7.330,0.011,-2.259,-11.295,0.179,-1.700,0.933,-6.645,0.128,-2.716,-0.037,306.398
7.344,0.012,-1.700,-11.295,0.161,-2.509,0.935,-6.612,0.223,-2.715,-0.031,306.398
7.358,0.012,-2.285,-11.298,0.228,-2.340,0.934,-6.609,0.495,-2.718,-0.050,306.398
7.371,0.011,-2.162,-11.295,0.201,-2.020,0.934,-6.565,0.347,-2.723,-0.016,306.398
7.385,0.012,-1.525,-11.292,0.153,-2.048,0.933,-6.590,0.020,-2.722,-0.041,306.398
7.412,0.011,-2.279,-11.291,0.228,-2.763,0.934,-6.670,-0.123,-2.732,0.012,306.398
7.425,0.011,-1.528,-11.291,0.131,-1.775,0.935,-6.566,-0.039,-2.735,0.011,306.398
7.439,0.012,-2.146,-11.293,0.223,-2.426,0.931,-6.655,0.754,-2.738,-0.084,306.398
7.452,0.011,-2.355,-11.294,0.236,-2.702,0.934,-6.678,0.134,-2.741,-0.013,306.398
7.466,0.012,-2.416,-11.292,0.213,-1.844,0.934,-6.579,0.083,-2.741,-0.018,306.398
7.480,0.012,-1.413,-11.294,0.141,-2.000,0.928,-6.619,0.579,-2.745,-0.058,306.398
7.493,0.011,-2.380,-11.296,0.246,-2.945,0.929,-6.695,0.369,-2.747,-0.028,306.398
7.520,0.011,-1.617,-11.295,0.123,-1.817,0.927,-6.685,0.470,-2.750,-0.042,306.398
7.534,0.012,-1.998,-11.299,0.267,-2.947,0.926,-6.707,-0.159,-2.755,0.011,306.398
7.547,0.011,-2.675,-11.299,0.237,-2.085,0.929,-6.632,0.204,-2.758,-0.025,306.398
7.561,0.012,-1.867,-11.299,0.199,-1.760,0.927,-6.599,0.626,-2.762,-0.050,306.398
7.575,0.012,-1.796,-11.300,0.180,-2.646,0.925,-6.714,-0.030,-2.765,0.003,306.398
7.588,0.011,-2.395,-11.301,0.261,-2.074,0.926,-6.670,0.410,-2.765,-0.053,306.398
7.614,0.011,-1.913,-11.300,0.178,-1.984,0.924,-6.675,-0.145,-2.770,0.015,306.398
7.628,0.012,-2.200,-11.301,0.232,-2.259,0.924,-6.690,0.350,-2.772,-0.046,306.398
7.641,0.011,-2.267,-11.303,0.227,-2.463,0.924,-6.718,0.271,-2.776,-0.027,306.398
7.655,0.012,-2.555,-11.302,0.255,-1.808,0.925,-6.657,0.298,-2.779,-0.030,306.398
7.668,0.011,-1.600,-11.300,0.173,-2.478,0.923,-6.730,0.240,-2.780,-0.032,306.398
7.682,0.012,-1.998,-11.303,0.200,-2.456,0.923,-6.732,0.863,-2.780,-0.070,306.398
7.710,0.012,-1.379,-11.301,0.138,-1.540,0.925,-6.650,-0.259,-2.783,0.026,306.398
7.723,0.011,-2.067,-11.304,0.210,-2.575,0.925,-6.721,0.516,-2.786,-0.034,306.398
7.737,0.012,-2.471,-11.303,0.263,-2.731,0.926,-6.790,0.144,-2.791,-0.021,306.398
7.751,0.012,-2.048,-11.299,0.205,-1.946,0.929,-6.705,0.093,-2.796,-0.009,306.398
7.764,0.011,-1.204,-11.299,0.120,-2.051,0.925,-6.719,0.430,-2.797,-0.043,306.398
7.778,0.012,-2.693,-11.301,0.264,-2.790,0.929,-6.769,0.451,-2.800,-0.032,306.398
7.805,0.011,-1.572,-11.296,0.136,-1.706,0.930,-6.687,0.517,-2.806,-0.043,306.398
7.818,0.011,-2.560,-11.301,0.261,-2.730,0.931,-6.811,0.394,-2.809,-0.052,306.398
7.832,0.012,-2.286,-11.300,0.226,-2.300,0.933,-6.759,0.019,-2.811,0.002,306.398
7.845,0.011,-2.251,-11.300,0.202,-1.535,0.931,-6.690,0.531,-2.814,-0.049,306.398
7.859,0.012,-1.916,-11.300,0.192,-2.541,0.929,-6.800,0.213,-2.816,-0.021,306.398
7.873,0.012,-2.175,-11.301,0.227,-2.335,0.932,-6.769,0.143,-2.818,-0.016,306.398
7.886,0.011,-2.040,-11.301,0.204,-2.154,0.933,-6.765,0.559,-2.822,-0.067,306.398
7.913,0.011,-1.834,-11.299,0.188,-2.460,0.932,-6.794,0.216,-2.823,-0.030,306.398
7.927,0.012,-2.296,-11.301,0.238,-2.166,0.933,-6.781,0.623,-2.825,-0.077,306.398
7.940,0.011,-2.297,-11.300,0.219,-1.784,0.934,-6.746,-0.052,-2.831,0.024,306.398
7.954,0.012,-1.799,-11.299,0.180,-2.655,0.933,-6.840,-0.065,-2.833,0.006,306.398
7.968,0.012,-2.080,-11.303,0.208,-2.015,0.932,-6.781,0.860,-2.835,-0.077,306.398
7.981,0.011,-2.659,-11.302,0.253,-2.768,0.933,-6.839,0.581,-2.837,-0.047,306.398
8.007,0.011,-1.862,-11.302,0.194,-2.338,0.930,-6.821,0.817,-2.837,-0.076,306.398
8.021,0.012,-2.785,-11.302,0.279,-2.626,0.933,-6.861,0.043,-2.842,-0.004,306.398
8.034,0.011,-2.252,-11.301,0.195,-1.699,0.935,-6.748,0.065,-2.845,-0.006,306.398
8.048,0.012,-1.489,-11.303,0.204,-2.028,0.931,-6.890,0.423,-2.849,-0.048,306.398
8.061,0.011,-2.533,-11.305,0.251,-2.893,0.933,-6.883,0.306,-2.852,-0.022,306.398
8.075,0.012,-2.544,-11.302,0.253,-1.864,0.932,-6.801,0.141,-2.853,-0.022,306.398
8.099,0.011,-2.640,-11.305,0.264,-2.745,0.930,-6.901,0.332,-2.858,-0.033,306.398
8.112,0.011,-2.209,-11.302,0.207,-1.559,0.930,-6.776,0.375,-2.860,-0.039,306.398
8.126,0.012,-1.469,-11.305,0.147,-2.271,0.928,-6.864,0.216,-2.865,-0.022,306.398
8.140,0.012,-2.548,-11.309,0.283,-2.640,0.932,-6.891,0.138,-2.867,-0.032,306.398
8.153,0.011,-2.480,-11.306,0.248,-1.918,0.934,-6.836,0.341,-2.870,-0.034,306.398
8.167,0.012,-1.738,-11.309,0.174,-1.723,0.933,-6.822,0.015,-2.876,-0.001,306.398
8.194,0.011,-2.498,-11.310,0.251,-2.353,0.933,-6.880,0.637,-2.878,-0.065,306.398
8.207,0.011,-2.070,-11.311,0.207,-2.014,0.934,-6.865,0.300,-2.881,-0.030,306.398
8.221,0.012,-2.021,-11.310,0.180,-2.001,0.933,-6.893,0.095,-2.883,-0.023,306.398
8.234,0.011,-1.799,-11.312,0.216,-2.446,0.933,-6.920,0.677,-2.883,-0.069,306.398
8.248,0.012,-2.524,-11.313,0.259,-2.410,0.935,-6.888,0.966,-2.882,-0.077,306.398
8.262,0.012,-2.335,-11.310,0.204,-1.793,0.933,-6.872,0.207,-2.881,-0.017,306.398
8.275,0.011,-1.510,-11.309,0.158,-2.368,0.929,-6.936,0.152,-2.881,-0.030,306.398
8.302,0.011,-2.702,-11.308,0.204,-2.194,0.932,-6.922,-0.064,-2.892,0.013,306.398
8.316,0.012,-1.015,-11.307,0.086,-1.850,0.932,-6.892,-0.179,-2.896,0.017,306.398
8.329,0.011,-2.607,-11.310,0.270,-2.542,0.930,-6.958,0.752,-2.899,-0.074,306.398
8.343,0.012,-2.336,-11.309,0.234,-2.389,0.932,-6.948,0.218,-2.901,-0.022,306.398
8.357,0.012,-2.087,-11.307,0.176,-1.625,0.930,-6.884,-0.021,-2.902,-0.011,306.398
8.370,0.011,-1.771,-11.309,0.177,-2.386,0.926,-6.958,0.726,-2.905,-0.073,306.398
8.396,0.011,-2.282,-11.304,0.228,-1.323,0.930,-6.860,0.122,-2.910,-0.012,306.398
8.410,0.012,-1.616,-11.305,0.145,-2.264,0.927,-6.979,0.509,-2.916,-0.038,306.398
8.423,0.011,-2.574,-11.304,0.272,-2.651,0.929,-7.010,0.187,-2.917,-0.027,306.398
8.437,0.012,-2.094,-11.301,0.203,-1.823,0.930,-6.918,0.297,-2.918,-0.045,306.398
8.450,0.011,-1.884,-11.301,0.188,-1.879,0.928,-6.933,0.289,-2.924,-0.029,306.398
8.464,0.012,-2.099,-11.303,0.227,-2.756,0.930,-7.006,0.093,-2.926,-0.014,306.398
8.492,0.011,-2.054,-11.302,0.205,-1.882,0.928,-6.948,0.591,-2.932,-0.059,306.398
8.505,0.011,-2.210,-11.302,0.197,-2.342,0.925,-7.026,-0.042,-2.933,0.007,306.398
8.519,0.012,-2.121,-11.303,0.212,-2.098,0.927,-6.979,0.564,-2.933,-0.056,306.398
8.533,0.012,-2.121,-11.303,0.212,-2.215,0.927,-6.995,0.501,-2.938,-0.050,306.398
8.546,0.011,-2.199,-11.301,0.220,-1.687,0.929,-6.946,-0.040,-2.940,0.004,306.398
8.560,0.012,-1.741,-11.302,0.174,-2.245,0.927,-7.008,0.415,-2.939,-0.042,306.398
8.590,0.011,-2.537,-11.307,0.281,-2.789,0.930,-7.030,0.182,-2.945,-0.007,306.398
8.603,0.011,-2.076,-11.305,0.208,-1.777,0.930,-6.976,-0.121,-2.947,0.012,306.398
8.617,0.012,-1.552,-11.307,0.155,-2.320,0.927,-7.035,0.415,-2.950,-0.041,306.398
8.630,0.011,-2.588,-11.308,0.246,-2.574,0.931,-7.057,0.293,-2.955,-0.014,306.398
8.643,0.011,-2.306,-11.305,0.190,-1.854,0.933,-6.980,0.211,-2.956,-0.031,306.398
8.657,0.012,-1.292,-11.305,0.227,-2.121,0.929,-7.075,0.659,-2.957,-0.068,306.398
8.670,0.011,-2.643,-11.307,0.264,-2.809,0.932,-7.101,0.295,-2.957,-0.030,306.398
8.697,0.011,-1.484,-11.302,0.148,-1.790,0.930,-7.009,0.386,-2.965,-0.039,306.398
8.711,0.012,-1.974,-11.305,0.263,-2.881,0.931,-7.111,0.211,-2.968,-0.022,306.398
8.724,0.011,-2.987,-11.304,0.263,-2.248,0.935,-7.051,0.175,-2.970,-0.015,306.398
8.738,0.012,-1.982,-11.305,0.184,-1.756,0.933,-7.013,0.448,-2.974,-0.039,306.398
8.752,0.012,-1.801,-11.308,0.180,-2.400,0.932,-7.089,0.231,-2.977,-0.023,306.398
8.765,0.011,-2.491,-11.310,0.252,-2.457,0.933,-7.100,0.031,-2.979,-0.009,306.398
8.791,0.011,-1.848,-11.308,0.178,-2.115,0.932,-7.087,0.057,-2.986,0.011,306.398
8.805,0.012,-2.053,-11.309,0.208,-2.803,0.931,-7.144,0.320,-2.987,-0.041,306.398
8.818,0.011,-2.158,-11.310,0.245,-1.893,0.932,-7.072,0.545,-2.991,-0.032,306.398
8.832,0.012,-2.334,-11.307,0.212,-1.912,0.932,-7.068,0.231,-2.994,-0.015,306.398
8.845,0.011,-1.425,-11.307,0.143,-2.276,0.932,-7.110,0.040,-2.994,-0.004,306.398
8.859,0.012,-2.070,-11.308,0.236,-2.487,0.930,-7.139,0.876,-2.995,-0.087,306.398
8.887,0.011,-2.037,-11.302,0.197,-2.417,0.931,-7.136,-0.086,-2.996,-0.010,306.398
8.900,0.011,-1.653,-11.306,0.165,-1.848,0.930,-7.087,0.509,-2.998,-0.051,306.398
8.914,0.012,-2.713,-11.304,0.271,-2.976,0.932,-7.204,0.540,-3.001,-0.054,306.398
8.928,0.012,-1.915,-11.302,0.201,-2.050,0.933,-7.089,0.181,-3.002,-0.003,306.398
8.941,0.011,-1.938,-11.302,0.180,-1.948,0.929,-7.122,0.558,-3.002,-0.074,306.398
8.955,0.012,-2.189,-11.304,0.252,-2.914,0.929,-7.203,0.225,-3.007,-0.006,306.398
8.983,0.012,-1.888,-11.299,0.167,-1.349,0.932,-7.065,0.360,-3.016,-0.040,306.398
8.996,0.011,-1.779,-11.302,0.178,-2.949,0.930,-7.231,0.361,-3.019,-0.015,306.398
9.010,0.012,-2.657,-11.301,0.267,-2.249,0.936,-7.142,0.189,-3.020,-0.016,306.398
9.024,0.012,-2.397,-11.300,0.217,-1.745,0.935,-7.112,0.538,-3.021,-0.056,306.398
9.037,0.011,-1.737,-11.303,0.174,-2.272,0.930,-7.179,0.289,-3.025,-0.029,306.398
9.051,0.012,-2.227,-11.304,0.218,-2.661,0.935,-7.210,0.244,-3.025,-0.027,306.398
9.064,0.011,-2.462,-11.301,0.245,-1.929,0.936,-7.146,0.640,-3.027,-0.066,306.398
9.091,0.011,-2.258,-11.302,0.226,-2.500,0.935,-7.222,0.187,-3.031,-0.019,306.398
9.105,0.012,-2.214,-11.303,0.217,-2.542,0.934,-7.207,0.720,-3.033,-0.065,306.398
9.118,0.011,-2.081,-11.304,0.217,-2.026,0.934,-7.189,0.241,-3.036,0.006,306.398
9.132,0.012,-2.086,-11.302,0.191,-2.044,0.934,-7.206,0.067,-3.036,-0.015,306.398
9.146,0.012,-1.862,-11.305,0.214,-2.432,0.936,-7.245,0.535,-3.038,-0.064,306.398
9.159,0.011,-2.390,-11.307,0.236,-2.601,0.939,-7.244,0.308,-3.042,-0.024,306.398
9.185,0.011,-1.631,-11.305,0.186,-2.401,0.934,-7.246,0.358,-3.048,-0.033,306.398
9.199,0.012,-2.523,-11.304,0.260,-2.635,0.938,-7.260,0.460,-3.052,-0.040,306.398
9.212,0.011,-1.806,-11.300,0.181,-1.638,0.938,-7.177,-0.025,-3.053,0.003,306.398
9.226,0.012,-1.402,-11.301,0.162,-2.226,0.933,-7.261,-0.025,-3.058,-0.037,302.798
9.239,0.011,-2.606,-11.305,0.267,-2.737,0.935,-7.287,0.243,-3.064,-0.006,297.598
9.253,0.012,-2.517,-11.303,0.252,-2.250,0.937,-7.252,0.310,-3.068,-0.031,291.998
9.279,0.011,-2.076,-11.311,0.265,-2.936,0.930,-7.300,0.486,-3.069,-0.030,282.398
9.292,0.011,-2.452,-11.306,0.245,-2.006,0.933,-7.240,0.017,-3.072,-0.002,276.798
9.306,0.012,-1.708,-11.306,0.168,-1.354,0.929,-7.204,0.227,-3.076,-0.020,271.199
9.320,0.012,-1.724,-11.309,0.172,-2.816,0.929,-7.331,0.394,-3.080,-0.039,265.599
9.333,0.011,-2.635,-11.311,0.255,-2.076,0.931,-7.262,0.246,-3.082,-0.031,260.399
9.347,0.012,-2.393,-11.312,0.228,-1.996,0.928,-7.246,0.158,-3.085,-0.005,255.999
9.375,0.012,-1.936,-11.313,0.194,-2.162,0.930,-7.283,0.363,-3.091,-0.036,248.399
9.388,0.011,-2.307,-11.315,0.231,-2.208,0.929,-7.295,0.108,-3.093,-0.012,243.199
9.402,0.012,-2.303,-11.314,0.230,-2.014,0.928,-7.279,0.522,-3.097,-0.052,239.599
9.416,0.012,-2.006,-11.314,0.204,-2.435,0.927,-7.326,0.068,-3.101,0.002,239.599
9.429,0.011,-2.041,-11.315,0.216,-2.226,0.928,-7.291,0.815,-3.100,-0.079,237.199
9.443,0.012,-2.132,-11.315,0.215,-2.030,0.928,-7.300,-0.144,-3.103,0.011,231.599
9.456,0.011,-2.015,-11.314,0.189,-2.329,0.926,-7.325,0.702,-3.104,-0.070,226.399
9.483,0.011,-2.075,-11.311,0.217,-2.105,0.925,-7.316,0.632,-3.108,-0.077,215.599
9.497,0.012,-2.039,-11.309,0.204,-2.281,0.926,-7.333,-0.080,-3.113,0.007,214.799
9.510,0.011,-1.997,-11.308,0.201,-2.279,0.923,-7.351,0.644,-3.113,-0.071,209.599
9.524,0.012,-2.220,-11.309,0.224,-2.366,0.928,-7.339,-0.158,-3.117,0.010,203.999
9.538,0.012,-2.153,-11.310,0.222,-2.096,0.925,-7.275,0.507,-3.120,-0.046,198.399
9.551,0.011,-1.989,-11.309,0.192,-2.074,0.929,-7.083,-0.103,-3.124,0.008,193.200
9.577,0.011,-2.219,-11.310,0.204,-1.564,0.930,-6.785,-0.043,-3.128,-0.003,186.000
9.591,0.012,-2.224,-11.310,0.196,-2.662,0.927,-6.673,0.432,-3.133,-0.037,180.000
9.604,0.011,-2.032,-11.309,0.166,-1.868,0.927,-6.419,0.342,-3.133,-0.032,174.800
9.618,0.012,-2.184,-11.310,0.187,-2.566,0.934,-6.323,0.299,-3.137,-0.026,170.800
9.632,0.012,-2.061,-11.310,0.172,-2.058,0.925,-6.302,0.393,-3.138,-0.040,170.800
9.645,0.011,-2.032,-11.310,0.168,-1.917,0.935,-6.070,0.163,-3.141,-0.013,165.200
9.671,0.011,-2.147,-11.311,0.166,-1.648,0.933,-5.675,-0.113,-3.147,0.009,154.800
9.684,0.011,-2.025,-11.310,0.151,-2.400,0.938,-5.543,0.544,-3.150,-0.041,149.600
9.698,0.012,-2.058,-11.312,0.149,-2.508,0.929,-5.393,0.262,-3.150,-0.019,145.200
9.712,0.012,-2.095,-11.312,0.146,-1.825,0.938,-5.140,-0.119,-3.156,0.008,139.600
9.725,0.011,-2.201,-11.311,0.148,-2.470,0.935,-4.995,0.601,-3.159,-0.040,134.400
9.739,0.012,-2.114,-11.314,0.136,-2.097,0.935,-4.766,0.198,-3.159,-0.013,128.800
9.767,0.012,-2.115,-11.310,0.128,-2.011,0.935,-4.521,0.239,-3.165,-0.016,121.600
9.780,0.011,-2.304,-11.314,0.134,-2.233,0.937,-4.324,0.273,-3.168,-0.016,116.400
9.794,0.012,-1.839,-11.313,0.102,-2.492,0.935,-4.134,0.428,-3.169,-0.024,110.800
9.808,0.012,-2.031,-11.308,0.106,-1.867,0.941,-3.897,0.057,-3.173,-0.004,105.200
9.821,0.011,-2.530,-11.313,0.125,-2.214,0.941,-3.752,0.582,-3.175,-0.026,100.800
9.835,0.012,-2.108,-11.318,0.107,-2.000,0.940,-3.645,0.194,-3.175,-0.014,98.000
9.848,0.011,-1.678,-11.313,0.083,-2.104,0.945,-3.450,0.192,-3.179,-0.007,92.800
9.879,0.011,-2.437,-11.317,0.099,-2.131,0.946,-2.996,0.372,-3.185,-0.015,80.400
9.893,0.012,-1.825,-11.314,0.069,-2.195,0.944,-2.837,0.180,-3.187,-0.007,76.000
9.906,0.011,-1.985,-11.309,0.069,-2.178,0.948,-2.640,0.105,-3.192,-0.002,70.800
9.920,0.012,-2.509,-11.314,0.083,-2.425,0.947,-2.458,0.390,-3.194,-0.014,65.600
9.934,0.012,-1.960,-11.315,0.060,-1.986,0.946,-2.223,0.161,-3.196,-0.005,59.600
9.947,0.011,-1.787,-11.308,0.046,-2.330,0.947,-2.039,0.146,-3.201,-0.003,54.400
9.973,0.011,-2.373,-11.313,0.058,-2.087,0.947,-1.841,0.379,-3.206,-0.009,49.200
9.987,0.012,-1.733,-11.310,0.039,-2.348,0.945,-1.698,0.133,-3.209,-0.003,45.200
10.000,0.011,-1.889,-11.305,0.038,-2.201,0.947,-1.501,0.091,-3.214,-0.002,40.000
10.014,0.012,-2.448,-11.309,0.042,-2.335,0.946,-1.294,0.493,-3.216,-0.008,34.400
10.027,0.011,-2.117,-11.313,0.031,-2.079,0.946,-1.095,0.304,-3.217,-0.004,29.200
10.041,0.012,-1.742,-11.308,0.021,-2.329,0.947,-0.918,0.149,-3.221,-0.001,24.400
10.069,0.012,-2.220,-11.310,0.015,-2.250,0.945,-0.497,0.230,-3.226,-0.002,13.200
10.082,0.011,-1.748,-11.307,0.007,-2.283,0.943,-0.302,0.236,-3.229,-0.001,8.000
10.096,0.012,-1.929,-11.302,0.002,-2.128,0.945,-0.090,0.249,-3.233,-0.000,2.400
10.110,0.012,-2.461,-11.306,0.000,-2.383,0.945,0.000,0.238,-3.236,0.000,0.000
10.123,0.011,-2.104,-11.308,0.000,-2.167,0.945,0.000,0.243,-3.238,0.000,0.000
10.137,0.012,-1.813,-11.303,0.000,-2.141,0.945,0.000,0.124,-3.243,0.000,0.000
10.150,0.011,-2.210,-11.304,0.000,-2.281,0.944,0.000,0.562,-3.244,0.000,0.000
10.177,0.011,-2.045,-11.306,0.000,-2.230,0.945,0.000,0.269,-3.249,0.000,0.000
10.191,0.012,-2.025,-11.303,0.000,-2.072,0.945,0.000,0.495,-3.250,0.000,0.000
10.204,0.011,-2.156,-11.306,0.000,-2.344,0.946,0.000,0.144,-3.251,0.000,0.000
10.218,0.012,-2.106,-11.308,0.000,-2.404,0.944,0.000,0.275,-3.256,0.000,0.000
10.231,0.011,-1.851,-11.303,0.000,-2.094,0.945,0.000,0.540,-3.257,0.000,0.000
10.244,0.011,-2.225,-11.302,0.000,-2.392,0.945,0.000,0.336,-3.257,0.000,0.000
10.270,0.011,-1.944,-11.304,0.000,-1.934,0.944,0.000,0.359,-3.267,0.000,0.000
10.283,0.011,-1.720,-11.299,0.000,-2.272,0.946,0.000,0.737,-3.264,0.000,0.000
10.297,0.012,-2.293,-11.302,0.000,-2.417,0.946,0.000,-0.192,-3.267,0.000,0.000
10.311,0.012,-2.191,-11.306,0.000,-2.329,0.944,0.000,0.461,-3.275,0.000,0.000
10.324,0.011,-1.978,-11.302,0.000,-1.854,0.946,0.000,0.958,-3.270,0.000,0.000
10.338,0.012,-2.100,-11.301,0.000,-2.502,0.947,0.000,-0.344,-3.273,0.000,0.000
10.365,0.011,-1.913,-11.304,0.000,-1.719,0.947,0.000,0.958,-3.280,0.000,0.000
10.378,0.011,-1.993,-11.301,0.000,-2.478,0.947,0.000,0.092,-3.278,0.000,0.000
10.392,0.012,-2.369,-11.302,0.000,-2.395,0.944,0.000,-0.184,-3.289,0.000,0.000
10.405,0.011,-2.193,-11.305,0.000,-1.866,0.947,0.000,0.952,-3.289,0.000,0.000
10.419,0.012,-1.833,-11.302,0.000,-2.219,0.947,0.000,0.158,-3.285,0.000,0.000
10.433,0.012,-2.185,-11.301,0.000,-2.482,0.945,0.000,-0.306,-3.296,0.000,0.000
10.446,0.011,-2.330,-11.306,0.000,-2.071,0.946,0.000,0.779,-3.298,0.000,0.000
10.472,0.011,-1.990,-11.302,0.000,-2.484,0.946,0.000,-0.183,-3.301,0.000,0.000
10.485,0.011,-2.079,-11.304,0.000,-2.111,0.947,0.000,0.216,-3.307,0.000,0.000
10.499,0.012,-2.119,-11.306,0.000,-2.225,0.949,0.000,0.652,-3.306,0.000,0.000
10.513,0.012,-2.060,-11.304,0.000,-2.290,0.948,0.000,-0.088,-3.308,0.000,0.000
10.526,0.011,-2.148,-11.303,0.000,-2.341,0.949,0.000,-0.047,-3.317,0.000,0.000
10.540,0.012,-2.207,-11.305,0.000,-2.093,0.949,0.000,0.829,-3.317,0.000,0.000
10.568,0.012,-1.984,-11.304,0.000,-2.500,0.949,0.000,0.113,-3.325,0.000,0.000
10.581,0.011,-2.344,-11.306,0.000,-1.988,0.950,0.000,0.651,-3.326,0.000,0.000
10.595,0.012,-2.144,-11.308,0.000,-2.285,0.952,0.000,0.371,-3.324,0.000,0.000
10.608,0.011,-2.060,-11.307,0.000,-2.266,0.950,0.000,-0.194,-3.330,0.000,0.000
10.622,0.012,-2.137,-11.307,0.000,-2.116,0.953,0.000,0.394,-3.336,0.000,0.000
10.636,0.012,-2.187,-11.310,0.000,-2.142,0.952,0.000,0.605,-3.333,0.000,0.000
10.649,0.011,-2.052,-11.310,0.000,-2.222,0.953,0.000,-0.208,-3.338,0.000,0.000
10.675,0.011,-2.243,-11.310,0.000,-2.065,0.950,0.000,0.759,-3.343,0.000,0.000
10.689,0.012,-2.068,-11.311,0.000,-2.257,0.952,0.000,0.147,-3.343,0.000,0.000
10.702,0.011,-1.900,-11.309,0.000,-2.434,0.949,0.000,0.101,-3.350,0.000,0.000
10.716,0.012,-2.126,-11.307,0.000,-2.115,0.950,0.000,0.605,-3.351,0.000,0.000
10.729,0.011,-2.243,-11.309,0.000,-2.364,0.949,0.000,0.468,-3.349,0.000,0.000
10.743,0.012,-1.935,-11.308,0.000,-2.400,0.947,0.000,-0.148,-3.354,0.000,0.000
10.771,0.012,-2.091,-11.304,0.000,-2.146,0.946,0.000,0.347,-3.358,0.000,0.000
10.784,0.011,-2.031,-11.304,0.000,-2.326,0.947,0.000,-0.208,-3.364,0.000,0.000
10.798,0.012,-2.036,-11.301,0.000,-2.230,0.946,0.000,0.337,-3.370,0.000,0.000
10.811,0.011,-2.163,-11.301,0.000,-1.977,0.949,0.000,0.476,-3.370,0.000,0.000
10.825,0.012,-2.131,-11.303,0.000,-2.365,0.949,0.000,0.095,-3.372,0.000,0.000
10.839,0.012,-2.046,-11.303,0.000,-2.185,0.948,0.000,0.102,-3.379,0.000,0.000
10.852,0.011,-2.043,-11.301,0.000,-2.121,0.950,0.000,0.588,-3.380,0.000,0.000
10.878,0.011,-2.158,-11.304,0.000,-2.338,0.951,0.000,-0.077,-3.386,0.000,0.000
10.891,0.011,-1.981,-11.302,0.000,-2.214,0.950,0.000,0.409,-3.390,0.000,0.000
10.904,0.011,-2.070,-11.301,0.000,-1.965,0.952,0.000,0.474,-3.390,0.000,0.000
10.918,0.012,-2.325,-11.304,0.000,-2.308,0.953,0.000,0.021,-3.394,0.000,0.000
10.931,0.011,-2.115,-11.305,0.000,-2.285,0.952,0.000,0.324,-3.399,0.000,0.000
10.945,0.012,-2.069,-11.303,0.000,-2.124,0.953,0.000,0.580,-3.398,0.000,0.000
10.973,0.012,-2.008,-11.303,0.000,-2.390,0.951,0.000,0.120,-3.407,0.000,0.000
10.986,0.011,-1.973,-11.302,0.000,-2.313,0.949,0.000,0.523,-3.409,0.000,0.000
11.000,0.012,-2.200,-11.301,0.000,-2.263,0.948,0.000,0.230,-3.410,0.000,0.000
11.013,0.011,-2.139,-11.304,0.000,-2.422,0.947,0.000,0.058,-3.416,0.000,0.000
