timestamp_s,dt_s,pitch_setpoint,pitch_measurement,pitch_command,roll_setpoint,roll_measurement,roll_command,yaw_setpoint,yaw_measurement,yaw_command,throttle
0.086,0.086,0.000,0.097,-0.101,0.000,0.008,0.018,0.000,-4.367,62.400,62.400
0.100,0.012,0.000,0.086,-0.106,0.000,0.011,0.013,0.000,-4.365,62.400,62.400
0.113,0.011,0.000,0.086,-0.105,0.000,0.011,0.022,0.000,-4.366,62.400,62.400
0.126,0.011,0.000,0.084,-0.101,0.000,0.011,0.016,0.000,-4.365,62.400,62.400
0.139,0.011,0.000,0.083,-0.104,0.000,0.011,-0.008,0.000,-4.365,62.400,62.400
0.163,0.011,0.000,0.085,-0.109,0.000,0.011,0.013,0.000,-4.367,62.400,62.400
0.176,0.011,0.000,0.085,-0.105,0.000,0.011,0.026,0.000,-4.366,62.400,62.400
0.189,0.011,0.000,0.084,-0.106,0.000,0.012,0.009,0.000,-4.365,62.400,62.400
0.202,0.011,0.000,0.084,-0.111,0.000,0.011,-0.001,0.000,-4.365,62.400,62.400
0.215,0.011,0.000,0.085,-0.110,0.000,0.011,0.011,0.000,-4.367,62.400,62.400
0.228,0.011,0.000,0.086,-0.107,0.000,0.011,0.016,0.000,-4.367,62.400,62.400
0.241,0.011,0.000,0.085,-0.106,0.000,0.011,0.008,0.000,-4.366,62.400,62.400
0.261,0.012,0.000,0.086,-0.108,0.000,0.009,-0.001,0.000,-4.366,62.400,62.400
0.274,0.011,0.000,0.085,-0.105,0.000,0.009,0.009,0.000,-4.368,62.400,62.400
0.287,0.011,0.000,0.084,-0.106,0.000,0.010,0.025,0.000,-4.367,62.400,62.400
0.300,0.011,0.000,0.084,-0.108,0.000,0.011,0.030,0.000,-4.367,62.400,62.400
0.313,0.011,0.000,0.084,-0.108,0.000,0.011,0.025,0.000,-4.368,62.400,62.400
0.326,0.011,0.000,0.083,-0.104,0.000,0.012,0.026,0.000,-4.369,62.400,62.400
0.339,0.011,0.000,0.082,-0.106,0.000,0.013,0.018,0.000,-4.370,62.400,62.400
0.363,0.011,0.000,0.083,-0.110,0.000,0.013,0.019,0.000,-4.369,62.400,62.400
0.376,0.011,0.000,0.083,-0.106,0.000,0.014,0.028,0.000,-4.369,62.400,62.400
0.389,0.011,0.000,0.082,-0.105,0.000,0.015,0.033,0.000,-4.370,62.400,62.400
0.402,0.011,0.000,0.083,-0.111,0.000,0.015,0.025,0.000,-4.370,62.400,62.400
0.415,0.011,0.000,0.085,-0.112,0.000,0.016,0.027,0.000,-4.370,62.400,62.400
0.428,0.011,0.000,0.085,-0.108,0.000,0.016,0.027,0.000,-4.370,62.400,62.400
0.452,0.011,0.000,0.085,-0.112,0.000,0.017,0.015,0.000,-4.372,62.400,62.400
0.465,0.011,0.000,0.088,-0.116,0.000,0.017,0.018,0.000,-4.372,62.400,62.400
0.478,0.011,0.000,0.090,-0.111,0.000,0.017,0.022,0.000,-4.373,62.400,62.400
0.491,0.011,0.000,0.089,-0.106,0.000,0.016,0.016,0.000,-4.373,62.400,62.400
0.504,0.011,0.000,0.089,-0.110,0.000,0.016,0.000,0.000,-4.374,62.400,62.400
0.517,0.011,0.000,0.091,-0.117,0.000,0.015,0.007,0.000,-4.375,62.400,62.400
0.530,0.011,0.000,0.094,-0.115,0.000,0.015,0.016,0.000,-4.375,62.400,62.400
0.554,0.011,0.000,0.093,-0.108,0.000,0.014,0.008,0.000,-4.375,62.400,62.400
0.567,0.011,0.000,0.094,-0.113,0.000,0.014,0.005,0.000,-4.375,62.400,62.400
0.580,0.011,0.000,0.096,-0.116,0.000,0.013,0.019,0.000,-4.375,62.400,62.400
0.593,0.011,0.000,0.096,-0.107,0.000,0.014,0.018,0.000,-4.375,62.400,62.400
0.606,0.011,0.000,0.094,-0.098,0.000,0.014,0.021,0.000,-4.375,62.400,62.400
0.619,0.011,0.000,0.093,-0.111,0.000,0.014,0.016,0.000,-4.375,62.400,62.400
0.632,0.011,0.000,0.095,-0.116,0.000,0.014,0.022,0.000,-4.376,62.400,62.400
0.656,0.011,0.000,0.095,-0.107,0.000,0.016,0.052,0.000,-4.376,62.400,62.400
0.669,0.011,0.000,0.095,-0.112,0.000,0.016,0.021,0.000,-4.375,62.400,62.400
0.682,0.011,0.000,0.096,-0.116,0.000,0.016,0.019,0.000,-4.375,62.400,62.400
0.695,0.011,0.000,0.098,-0.113,0.000,0.017,0.031,0.000,-4.376,62.400,62.400
0.708,0.011,0.000,0.097,-0.107,0.000,0.017,0.022,0.000,-4.375,62.400,62.400
0.721,0.011,0.000,0.096,-0.109,0.000,0.017,0.011,0.000,-4.375,62.400,62.400
0.745,0.011,0.000,0.098,-0.114,0.000,0.016,0.021,0.000,-4.376,62.400,62.400
0.758,0.011,0.000,0.098,-0.107,0.000,0.016,0.015,0.000,-4.377,62.400,62.400
0.771,0.011,0.000,0.096,-0.109,0.000,0.016,0.021,0.000,-4.376,62.400,62.400
0.784,0.011,0.000,0.097,-0.114,0.000,0.016,0.013,0.000,-4.376,62.400,62.400
0.797,0.011,0.000,0.098,-0.115,0.000,0.016,0.020,0.000,-4.377,62.400,62.400
0.810,0.011,0.000,0.098,-0.111,0.000,0.016,0.031,0.000,-4.378,62.400,62.400
0.823,0.011,0.000,0.097,-0.110,0.000,0.017,0.025,0.000,-4.377,62.400,62.400
0.851,0.012,0.000,0.098,-0.112,0.000,0.017,0.020,0.000,-4.376,62.400,62.400
0.864,0.011,0.000,0.098,-0.111,0.000,0.017,0.017,0.000,-4.377,62.400,62.400
0.877,0.011,0.000,0.098,-0.114,0.000,0.017,0.023,0.000,-4.377,62.400,62.400
0.890,0.011,0.000,0.099,-0.117,0.000,0.017,0.029,0.000,-4.375,62.400,62.400
0.903,0.011,0.000,0.101,-0.114,0.000,0.018,0.028,0.000,-4.375,62.400,62.400
0.916,0.011,0.000,0.100,-0.109,0.000,0.018,0.022,0.000,-4.375,62.400,62.400
0.929,0.011,0.000,0.099,-0.111,0.000,0.018,0.020,0.000,-4.375,62.400,62.400
0.953,0.011,0.000,0.099,-0.112,0.000,0.017,0.014,0.000,-4.374,62.400,62.400
0.966,0.011,0.000,0.097,-0.106,0.000,0.017,0.012,0.000,-4.374,62.400,62.400
0.979,0.011,0.000,0.094,-0.101,0.000,0.016,-0.014,0.000,-4.375,62.400,62.400
0.992,0.011,0.000,0.094,-0.115,0.000,0.015,0.003,0.000,-4.375,62.400,62.400
1.005,0.011,0.000,0.096,-0.115,0.000,0.014,0.010,0.000,-4.374,62.400,62.400
1.018,0.011,0.000,0.095,-0.110,0.000,0.014,0.012,0.000,-4.374,62.400,62.400
1.042,0.011,0.000,0.094,-0.116,0.000,0.014,0.008,0.000,-4.374,62.400,62.400
1.055,0.011,0.000,0.097,-0.119,0.000,0.013,0.016,0.000,-4.374,62.400,62.400
1.068,0.011,0.000,0.098,-0.113,0.000,0.013,0.019,0.000,-4.374,62.400,62.400
1.081,0.011,0.000,0.097,-0.107,0.000,0.014,0.022,0.000,-4.374,62.400,62.400
1.094,0.011,0.000,0.097,-0.114,0.000,0.013,0.014,0.000,-4.374,62.400,62.400
1.107,0.011,0.000,0.099,-0.119,0.000,0.013,0.010,0.000,-4.375,62.400,62.400
1.120,0.011,0.000,0.100,-0.115,0.000,0.013,0.011,0.000,-4.375,62.400,62.400
1.148,0.012,0.000,0.098,-0.114,0.000,0.012,0.007,0.000,-4.376,62.400,62.400
1.161,0.011,0.000,0.100,-0.120,0.000,0.011,0.004,0.000,-4.376,62.400,62.400
1.174,0.011,0.000,0.102,-0.116,0.000,0.011,0.018,0.000,-4.376,62.400,62.400
1.187,0.011,0.000,0.101,-0.109,0.000,0.011,0.018,0.000,-4.375,62.400,62.400
1.200,0.011,0.000,0.099,-0.113,0.000,0.011,0.013,0.000,-4.374,62.400,62.400
1.213,0.011,0.000,0.101,-0.120,0.000,0.012,0.017,0.000,-4.374,62.400,62.400
1.226,0.011,0.000,0.103,-0.117,0.000,0.012,0.024,0.000,-4.375,62.400,62.400
1.250,0.011,0.000,0.101,-0.111,0.000,0.014,0.023,0.000,-4.374,62.400,62.400
1.263,0.011,0.000,0.102,-0.116,0.000,0.014,0.013,0.000,-4.374,62.400,62.400
1.276,0.011,0.000,0.103,-0.117,0.000,0.014,0.016,0.000,-4.375,62.400,62.400
1.289,0.011,0.000,0.103,-0.113,0.000,0.014,0.029,0.000,-4.376,62.400,62.400
1.302,0.011,0.000,0.101,-0.110,0.000,0.015,0.023,0.000,-4.375,62.400,62.400
1.315,0.011,0.000,0.101,-0.116,0.000,0.015,0.021,0.000,-4.374,62.400,62.400
1.339,0.012,0.000,0.103,-0.116,0.000,0.015,0.018,0.000,-4.377,62.400,62.400
1.352,0.011,0.000,0.102,-0.114,0.000,0.015,0.027,0.000,-4.377,62.400,62.400
1.365,0.011,0.000,0.102,-0.115,0.000,0.016,0.021,0.000,-4.376,62.400,62.400
1.378,0.011,0.000,0.103,-0.117,0.000,0.015,0.011,0.000,-4.376,62.400,62.400
1.391,0.011,0.000,0.102,-0.113,0.000,0.015,0.015,0.000,-4.378,62.400,62.400
1.404,0.011,0.000,0.101,-0.113,0.000,0.015,0.021,0.000,-4.378,62.400,62.400
1.417,0.011,0.000,0.102,-0.118,0.000,0.016,0.029,0.000,-4.377,62.400,62.400
1.457,0.011,0.000,0.103,-0.114,0.000,0.016,0.023,0.000,-4.378,62.400,62.400
1.470,0.011,0.000,0.103,-0.116,0.000,0.016,0.019,0.000,-4.377,62.400,62.400
1.483,0.011,0.000,0.104,-0.117,0.000,0.016,0.010,0.000,-4.376,62.400,62.400
1.496,0.011,0.000,0.103,-0.113,0.000,0.015,0.005,0.000,-4.376,62.400,62.400
1.509,0.011,0.000,0.102,-0.113,0.000,0.014,0.008,0.000,-4.377,62.400,62.400
1.522,0.011,0.000,0.102,-0.118,0.000,0.014,0.017,0.000,-4.377,62.400,62.400
1.535,0.011,0.000,0.104,-0.120,0.000,0.014,0.008,0.000,-4.376,62.400,62.400
1.559,0.012,0.000,0.103,-0.111,0.000,0.013,0.015,0.000,-4.377,62.400,62.400
1.572,0.011,0.000,0.103,-0.116,0.000,0.013,0.015,0.000,-4.377,62.400,62.400
1.585,0.011,0.000,0.104,-0.121,0.000,0.013,0.011,0.000,-4.377,62.400,62.400
1.598,0.011,0.000,0.105,-0.117,0.000,0.013,0.020,0.000,-4.377,62.400,62.400
1.611,0.011,0.000,0.103,-0.111,0.000,0.013,0.010,0.000,-4.378,62.400,62.400
1.624,0.011,0.000,0.102,-0.115,0.000,0.013,0.018,0.000,-4.378,62.400,62.400
1.648,0.012,0.000,0.104,-0.122,0.000,0.013,0.021,0.000,-4.379,62.400,62.400
1.661,0.011,0.000,0.104,-0.113,0.000,0.013,0.017,0.000,-4.379,62.400,62.400
1.674,0.011,0.000,0.102,-0.111,0.000,0.013,0.013,0.000,-4.379,62.400,62.400
1.687,0.011,0.000,0.101,-0.118,0.000,0.012,0.011,0.000,-4.379,62.400,62.400
1.700,0.011,0.000,0.103,-0.120,0.000,0.012,0.013,0.000,-4.379,62.400,62.400
1.713,0.011,0.000,0.103,-0.114,0.000,0.012,0.015,0.000,-4.379,62.400,62.400
1.726,0.011,0.000,0.101,-0.111,0.000,0.012,0.015,0.000,-4.378,62.400,62.400
1.750,0.012,0.000,0.101,-0.122,0.000,0.012,0.023,0.000,-4.378,62.400,62.400
1.763,0.011,0.000,0.102,-0.118,0.000,0.013,0.026,0.000,-4.377,62.400,62.400
1.776,0.011,0.000,0.101,-0.113,0.000,0.013,0.022,0.000,-4.377,62.400,62.400
1.789,0.011,0.000,0.100,-0.116,0.000,0.013,0.013,0.000,-4.377,62.400,62.400
1.802,0.011,0.000,0.101,-0.122,0.000,0.013,0.010,0.000,-4.377,62.400,62.400
1.815,0.011,0.000,0.103,-0.119,0.000,0.013,0.012,0.000,-4.379,62.400,62.400
1.839,0.012,0.000,0.101,-0.116,0.000,0.013,0.014,0.000,-4.379,62.400,62.400
1.852,0.011,0.000,0.102,-0.121,0.000,0.012,0.007,0.000,-4.379,62.400,62.400
1.865,0.011,0.000,0.104,-0.120,0.000,0.012,0.018,0.000,-4.381,62.400,62.400
1.878,0.011,0.000,0.104,-0.117,0.000,0.012,0.020,0.000,-4.382,62.400,62.400
1.891,0.011,0.000,0.103,-0.114,0.000,0.013,0.026,0.000,-4.382,62.400,62.400
1.904,0.011,0.000,0.102,-0.119,0.000,0.013,0.019,0.000,-4.382,62.400,62.400
1.917,0.011,0.000,0.103,-0.120,0.000,0.014,0.026,0.000,-4.383,62.400,62.400
1.941,0.012,0.000,0.103,-0.116,0.000,0.015,0.029,0.000,-4.384,62.400,62.400
1.954,0.011,0.000,0.103,-0.118,0.000,0.016,0.015,0.000,-4.384,62.400,62.400
1.967,0.011,0.000,0.103,-0.119,0.000,0.015,0.006,0.000,-4.384,62.400,62.400
1.980,0.011,0.000,0.103,-0.114,0.000,0.014,0.015,0.000,-4.385,62.400,62.400
1.993,0.011,0.000,0.102,-0.117,0.000,0.015,0.022,0.000,-4.386,62.400,62.400
2.006,0.011,0.000,0.103,-0.122,0.000,0.015,0.020,0.000,-4.385,62.400,62.400
2.019,0.011,0.000,0.105,-0.128,0.000,0.015,0.013,0.000,-4.385,62.400,62.400
2.043,0.011,0.000,0.106,-0.117,0.000,0.014,0.016,0.000,-4.387,62.400,62.400
2.056,0.011,0.000,0.106,-0.121,0.000,0.014,0.015,0.000,-4.387,62.400,62.400
2.069,0.011,0.000,0.108,-0.125,0.000,0.014,0.013,0.000,-4.386,62.400,62.400
2.082,0.011,0.000,0.109,-0.119,0.000,0.014,0.009,0.000,-4.387,62.400,62.400
2.095,0.011,0.000,0.108,-0.116,0.000,0.013,0.007,0.000,-4.387,62.400,62.400
2.108,0.011,0.000,0.107,-0.120,0.000,0.012,0.001,0.000,-4.387,62.400,62.400
2.132,0.011,0.000,0.109,-0.119,0.000,0.011,0.011,0.000,-4.386,62.400,62.400
2.145,0.011,0.000,0.108,-0.116,0.000,0.010,-0.002,0.000,-4.386,62.400,62.400
2.158,0.011,0.000,0.107,-0.119,0.000,0.009,-0.004,0.000,-4.386,62.400,62.400
2.171,0.011,0.000,0.108,-0.125,0.000,0.008,-0.004,0.000,-4.386,62.400,62.400
2.184,0.011,0.000,0.110,-0.123,0.000,0.007,0.003,0.000,-4.386,62.400,62.400
2.197,0.011,0.000,0.110,-0.118,0.000,0.007,-0.000,0.000,-4.386,62.400,62.400
2.210,0.011,0.000,0.109,-0.118,0.000,0.006,-0.019,0.000,-4.387,62.400,62.400
2.234,0.011,0.000,0.112,-0.126,0.000,0.005,0.011,0.000,-4.388,62.400,62.400
2.247,0.011,0.000,0.113,-0.118,0.000,0.005,0.017,0.000,-4.388,62.400,62.400
2.260,0.011,0.000,0.111,-0.116,0.000,0.005,0.002,0.000,-4.388,62.400,62.400
2.273,0.011,0.000,0.111,-0.122,0.000,0.005,-0.000,0.000,-4.388,62.400,62.400
2.286,0.011,0.000,0.112,-0.125,0.000,0.004,-0.002,0.000,-4.389,62.400,62.400
2.299,0.011,0.000,0.113,-0.119,0.000,0.004,0.013,0.000,-4.389,62.400,62.400
2.312,0.011,0.000,0.110,-0.114,0.000,0.004,-0.004,0.000,-4.388,62.400,62.400
2.339,0.011,0.000,0.109,-0.125,0.000,0.002,-0.007,0.000,-4.388,62.400,62.400
2.352,0.011,0.000,0.110,-0.120,0.000,0.002,0.009,0.000,-4.389,62.400,62.400
2.365,0.011,0.000,0.108,-0.114,0.000,0.002,0.010,0.000,-4.389,62.400,62.400
2.378,0.011,0.000,0.106,-0.118,0.000,0.002,-0.003,0.000,-4.388,62.400,62.400
2.391,0.011,0.000,0.107,-0.128,0.000,0.001,-0.010,0.000,-4.388,62.400,62.400
2.404,0.011,0.000,0.108,-0.122,0.000,0.001,0.008,0.000,-4.389,62.400,62.400
2.428,0.012,0.000,0.107,-0.119,0.000,0.001,0.008,0.000,-4.389,62.400,62.400
2.441,0.011,0.000,0.108,-0.123,0.000,0.001,0.000,0.000,-4.389,62.400,62.400
2.454,0.011,0.000,0.109,-0.122,0.000,0.001,0.011,0.000,-4.391,62.400,62.400
2.467,0.011,0.000,0.108,-0.118,0.000,0.002,0.013,0.000,-4.392,62.400,62.400
2.480,0.011,0.000,0.107,-0.119,0.000,0.002,0.017,0.000,-4.391,62.400,62.400
2.493,0.011,0.000,0.107,-0.125,0.000,0.003,0.006,0.000,-4.390,62.400,62.400
2.506,0.011,0.000,0.108,-0.122,0.000,0.002,-0.002,0.000,-4.391,62.400,62.400
2.530,0.011,0.000,0.106,-0.118,0.000,0.001,-0.002,0.000,-4.393,62.400,62.400
2.543,0.011,0.000,0.105,-0.121,0.000,-0.000,-0.015,0.000,-4.392,62.400,62.400
2.556,0.011,0.000,0.105,-0.121,0.000,-0.001,-0.010,0.000,-4.391,62.400,62.400
2.569,0.011,0.000,0.105,-0.119,0.000,-0.001,0.009,0.000,-4.392,62.400,62.400
2.582,0.011,0.000,0.104,-0.120,0.000,-0.001,0.006,0.000,-4.391,62.400,62.400
2.595,0.011,0.000,0.104,-0.123,0.000,-0.001,-0.003,0.000,-4.390,62.400,62.400
2.619,0.012,0.000,0.103,-0.117,0.000,-0.002,-0.004,0.000,-4.391,62.400,62.400
2.632,0.011,0.000,0.101,-0.116,0.000,-0.003,-0.008,0.000,-4.392,62.400,62.400
2.645,0.011,0.000,0.101,-0.123,0.000,-0.003,0.001,0.000,-4.392,62.400,62.400
2.658,0.011,0.000,0.102,-0.124,0.000,-0.003,0.002,0.000,-4.392,62.400,62.400
2.671,0.011,0.000,0.102,-0.119,0.000,-0.003,0.001,0.000,-4.393,62.400,62.400
2.684,0.011,0.000,0.101,-0.117,0.000,-0.003,-0.000,0.000,-4.394,62.400,62.400
2.697,0.011,0.000,0.100,-0.123,0.000,-0.003,0.001,0.000,-4.394,62.400,62.400
2.721,0.012,0.000,0.103,-0.123,0.000,-0.003,0.003,0.000,-4.394,62.400,62.400
2.734,0.011,0.000,0.103,-0.119,0.000,-0.004,-0.008,0.000,-4.394,62.400,62.400
2.747,0.011,0.000,0.102,-0.122,0.000,-0.004,-0.011,0.000,-4.395,62.400,62.400
2.760,0.011,0.000,0.103,-0.127,0.000,-0.004,0.007,0.000,-4.396,62.400,62.400
2.773,0.011,0.000,0.105,-0.123,0.000,-0.004,0.007,0.000,-4.396,62.400,62.400
2.786,0.011,0.000,0.103,-0.116,0.000,-0.003,0.002,0.000,-4.395,62.400,62.400
2.810,0.012,0.000,0.101,-0.125,0.000,-0.004,-0.003,0.000,-4.395,62.400,62.400
2.823,0.011,0.000,0.103,-0.127,0.000,-0.004,-0.000,0.000,-4.396,62.400,62.400
2.836,0.011,0.000,0.103,-0.120,0.000,-0.004,-0.000,0.000,-4.396,62.400,62.400
2.849,0.011,0.000,0.101,-0.118,0.000,-0.005,-0.016,0.000,-4.397,62.400,62.400
2.862,0.011,0.000,0.101,-0.125,0.000,-0.006,-0.018,0.000,-4.399,62.400,62.400
2.875,0.011,0.000,0.104,-0.130,0.000,-0.007,-0.013,0.000,-4.400,62.400,62.400
2.888,0.011,0.000,0.105,-0.122,0.000,-0.007,-0.017,0.000,-4.402,62.400,62.400
2.912,0.012,0.000,0.103,-0.122,0.000,-0.009,-0.021,0.000,-4.403,62.400,62.400
2.925,0.011,0.000,0.104,-0.128,0.000,-0.010,-0.017,0.000,-4.404,62.400,62.400
2.938,0.011,0.000,0.106,-0.125,0.000,-0.011,-0.008,0.000,-4.405,62.400,62.400
2.951,0.011,0.000,0.105,-0.121,0.000,-0.010,0.004,0.000,-4.406,62.400,62.400
2.964,0.011,0.000,0.105,-0.123,0.000,-0.010,-0.002,0.000,-4.406,62.400,62.400
2.977,0.011,0.000,0.106,-0.128,0.000,-0.010,0.001,0.000,-4.407,62.400,62.400
3.001,0.012,0.000,0.108,-0.123,0.000,-0.008,0.013,0.000,-4.410,62.400,62.400
3.014,0.011,0.000,0.107,-0.122,0.000,-0.007,0.008,0.000,-4.410,62.400,62.400
3.027,0.011,0.000,0.107,-0.126,0.000,-0.007,-0.008,0.000,-4.410,62.400,62.400
3.040,0.011,0.000,0.108,-0.125,0.000,-0.007,-0.008,0.000,-4.412,62.400,62.400
3.053,0.011,0.000,0.108,-0.122,0.000,-0.007,0.006,0.000,-4.413,62.400,62.400
3.066,0.011,0.000,0.107,-0.123,0.000,-0.007,0.007,0.000,-4.413,62.400,62.400
3.079,0.011,0.000,0.108,-0.129,0.000,-0.007,-0.011,0.000,-4.412,62.400,62.400
3.103,0.011,0.000,0.109,-0.123,0.000,-0.007,-0.001,0.000,-4.412,62.400,62.400
3.116,0.011,0.000,0.108,-0.122,0.000,-0.007,-0.009,0.000,-4.412,62.400,62.400
3.129,0.011,0.000,0.108,-0.126,0.000,-0.008,-0.017,0.000,-4.411,62.400,62.400
3.142,0.011,0.000,0.109,-0.128,0.000,-0.008,-0.012,0.000,-4.410,62.400,62.400
3.155,0.011,0.000,0.109,-0.124,0.000,-0.009,-0.006,0.000,-4.411,62.400,62.400
3.168,0.011,0.000,0.109,-0.125,0.000,-0.009,-0.007,0.000,-4.412,62.400,62.400
3.192,0.011,0.000,0.112,-0.135,0.000,-0.009,0.016,0.000,-4.411,62.400,62.400
3.205,0.011,0.000,0.113,-0.126,0.000,-0.009,-0.006,0.000,-4.412,62.400,62.400
3.218,0.011,0.000,0.113,-0.124,0.000,-0.009,-0.011,0.000,-4.414,62.400,62.400
3.231,0.011,0.000,0.113,-0.128,0.000,-0.009,0.002,0.000,-4.414,62.400,62.400
3.244,0.011,0.000,0.115,-0.132,0.000,-0.009,-0.000,0.000,-4.413,62.400,62.400
3.257,0.011,0.000,0.117,-0.127,0.000,-0.009,-0.007,0.000,-4.413,62.400,62.400
3.270,0.011,0.000,0.116,-0.123,0.000,-0.009,-0.014,0.000,-4.414,62.400,62.400
3.294,0.011,0.000,0.116,-0.131,0.000,-0.010,-0.008,0.000,-4.414,62.400,62.400
3.307,0.011,0.000,0.117,-0.128,0.000,-0.010,0.002,0.000,-4.414,62.400,62.400
3.320,0.011,0.000,0.116,-0.122,0.000,-0.009,0.005,0.000,-4.414,62.400,62.400
3.333,0.011,0.000,0.115,-0.121,0.000,-0.009,-0.005,0.000,-4.415,62.400,62.400
3.346,0.011,0.000,0.115,-0.131,0.000,-0.009,-0.001,0.000,-4.415,62.400,62.400
3.359,0.011,0.000,0.117,-0.129,0.000,-0.008,0.014,0.000,-4.416,62.400,62.400
3.383,0.011,0.000,0.115,-0.119,0.000,-0.007,0.001,0.000,-4.415,62.400,62.400
3.396,0.011,0.000,0.116,-0.134,0.000,-0.007,-0.001,0.000,-4.415,62.400,62.400
3.409,0.011,0.000,0.119,-0.134,0.000,-0.006,0.011,0.000,-4.414,62.400,62.400
3.422,0.011,0.000,0.120,-0.126,0.000,-0.005,0.007,0.000,-4.414,62.400,62.400
3.435,0.011,0.000,0.118,-0.123,0.000,-0.006,-0.009,0.000,-4.414,62.400,62.400
3.448,0.011,0.000,0.118,-0.129,0.000,-0.006,-0.006,0.000,-4.414,62.400,62.400
3.461,0.011,0.000,0.120,-0.133,0.000,-0.007,-0.004,0.000,-4.414,62.400,62.400
3.485,0.011,0.000,0.120,-0.122,0.000,-0.006,-0.002,0.000,-4.413,62.400,62.400
3.498,0.011,0.000,0.118,-0.124,0.000,-0.007,-0.011,0.000,-4.413,62.400,62.400
3.511,0.011,0.000,0.118,-0.130,0.000,-0.008,-0.014,0.000,-4.413,62.400,62.400
3.524,0.011,0.000,0.119,-0.128,0.000,-0.008,-0.001,0.000,-4.415,62.400,62.400
3.537,0.011,0.000,0.118,-0.124,0.000,-0.007,0.000,0.000,-4.415,62.400,62.400
3.550,0.011,0.000,0.116,-0.126,0.000,-0.008,-0.010,0.000,-4.414,62.400,62.400
3.577,0.011,0.000,0.117,-0.128,0.000,-0.009,-0.013,0.000,-4.414,62.400,62.400
3.590,0.011,0.000,0.116,-0.124,0.000,-0.009,-0.007,0.000,-4.415,62.400,62.400
3.603,0.011,0.000,0.114,-0.125,0.000,-0.010,-0.002,0.000,-4.414,62.400,62.400
3.616,0.011,0.000,0.114,-0.127,0.000,-0.009,-0.002,0.000,-4.415,62.400,62.400
3.629,0.011,0.000,0.114,-0.129,0.000,-0.009,0.000,0.000,-4.416,62.400,62.400