timestamp_s,dt_s,pitch_setpoint,pitch_measurement,pitch_command,roll_setpoint,roll_measurement,roll_command,yaw_setpoint,yaw_measurement,yaw_command,throttle
0.101,0.101,0.000,-0.015,0.000,0.000,-0.028,0.000,0.000,-4.546,0.000,0.000
0.114,0.011,0.000,-0.023,0.000,0.000,-0.037,0.000,0.000,-4.541,0.000,0.000
0.127,0.011,0.000,-0.023,0.000,0.000,-0.037,0.000,0.000,-4.541,0.000,0.000
0.140,0.011,0.000,-0.023,0.000,0.000,-0.037,0.000,0.000,-4.540,0.000,0.000
0.153,0.011,0.000,-0.024,0.000,0.000,-0.037,0.000,0.000,-4.540,0.000,0.000
0.166,0.011,0.000,-0.023,0.000,0.000,-0.036,0.000,0.000,-4.540,0.000,0.000
0.190,0.011,0.000,-0.023,0.000,0.000,-0.036,0.000,0.000,-4.539,0.000,0.000
0.203,0.011,0.000,-0.023,0.000,0.000,-0.036,0.000,0.000,-4.539,0.000,0.000
0.216,0.011,0.000,-0.023,0.000,0.000,-0.036,0.000,0.000,-4.539,0.000,0.000
0.229,0.011,0.000,-0.022,0.000,0.000,-0.036,0.000,0.000,-4.538,0.000,0.000
0.242,0.011,0.000,-0.021,0.000,0.000,-0.036,0.000,0.000,-4.538,0.000,0.000
0.255,0.011,0.000,-0.021,0.000,0.000,-0.036,0.000,0.000,-4.539,0.000,0.000
0.279,0.011,0.000,-0.021,0.000,0.000,-0.035,0.000,0.000,-4.539,0.000,0.000
0.292,0.011,0.000,-0.020,0.000,0.000,-0.034,0.000,0.000,-4.539,0.000,0.000
0.305,0.011,0.000,-0.021,0.000,0.000,-0.034,0.000,0.000,-4.539,0.000,0.000
0.318,0.011,0.000,-0.022,0.000,0.000,-0.033,0.000,0.000,-4.540,0.000,0.000
0.331,0.011,0.000,-0.022,0.000,0.000,-0.032,0.000,0.000,-4.540,0.000,0.000
0.344,0.011,0.000,-0.022,0.000,0.000,-0.032,0.000,0.000,-4.540,0.000,0.000
0.357,0.011,0.000,-0.022,0.000,0.000,-0.032,0.000,0.000,-4.540,0.000,0.000
0.383,0.011,0.000,-0.020,0.000,0.000,-0.032,0.000,0.000,-4.540,0.000,0.000
0.396,0.011,0.000,-0.020,0.000,0.000,-0.032,0.000,0.000,-4.540,0.000,0.000
0.409,0.011,0.000,-0.020,0.000,0.000,-0.032,0.000,0.000,-4.541,0.000,0.000
0.422,0.011,0.000,-0.019,0.000,0.000,-0.032,0.000,0.000,-4.541,0.000,0.000
0.435,0.011,0.000,-0.019,0.000,0.000,-0.032,0.000,0.000,-4.541,0.000,0.000
0.448,0.011,0.000,-0.018,0.000,0.000,-0.033,0.000,0.000,-4.541,0.000,0.000
0.461,0.011,0.000,-0.017,0.000,0.000,-0.033,0.000,0.000,-4.542,0.000,0.000
0.485,0.012,0.000,-0.015,0.000,0.000,-0.033,0.000,0.000,-4.542,0.000,0.000
0.498,0.011,0.000,-0.014,0.000,0.000,-0.032,0.000,0.000,-4.542,0.000,0.000
0.511,0.011,0.000,-0.014,0.000,0.000,-0.032,0.000,0.000,-4.542,0.000,0.000
0.524,0.011,0.000,-0.013,0.000,0.000,-0.032,0.000,0.000,-4.541,0.000,0.000
0.537,0.011,0.000,-0.013,0.000,0.000,-0.032,0.000,0.000,-4.540,0.000,0.000
0.550,0.011,0.000,-0.013,0.000,0.000,-0.032,0.000,0.000,-4.540,0.000,0.000
0.574,0.012,0.000,-0.014,0.000,0.000,-0.032,0.000,0.000,-4.538,0.000,0.000
0.587,0.011,0.000,-0.013,0.000,0.000,-0.032,0.000,0.000,-4.538,0.000,0.000
0.600,0.011,0.000,-0.013,0.000,0.000,-0.032,0.000,0.000,-4.537,0.000,0.000
0.613,0.011,0.000,-0.013,0.000,0.000,-0.033,0.000,0.000,-4.537,0.000,0.000
0.626,0.011,0.000,-0.013,0.000,0.000,-0.033,0.000,0.000,-4.536,0.000,0.000
0.639,0.011,0.000,-0.013,0.000,0.000,-0.032,0.000,0.000,-4.536,0.000,0.000
0.652,0.011,0.000,-0.013,0.000,0.000,-0.032,0.000,0.000,-4.535,0.000,0.000
0.676,0.012,0.000,-0.013,0.000,0.000,-0.032,0.000,0.000,-4.535,0.000,0.000
0.689,0.011,0.000,-0.012,0.000,0.000,-0.033,0.000,0.000,-4.534,0.000,0.000
0.702,0.011,0.000,-0.012,0.000,0.000,-0.033,0.000,0.000,-4.534,0.000,0.000
0.715,0.011,0.000,-0.011,0.000,0.000,-0.034,0.000,0.000,-4.533,0.000,0.000
0.728,0.011,0.000,-0.011,0.000,0.000,-0.035,0.000,0.000,-4.533,0.000,0.000
0.741,0.011,0.000,-0.011,0.000,0.000,-0.036,0.000,0.000,-4.533,0.000,0.000
0.754,0.011,0.000,-0.011,0.000,0.000,-0.036,0.000,0.000,-4.533,0.000,0.000
0.778,0.012,0.000,-0.011,0.000,0.000,-0.037,0.000,0.000,-4.533,0.000,0.000
0.791,0.011,0.000,-0.010,0.000,0.000,-0.037,0.000,0.000,-4.534,0.000,0.000
0.804,0.011,0.000,-0.010,0.000,0.000,-0.037,0.000,0.000,-4.534,0.000,0.000
0.817,0.011,0.000,-0.011,0.000,0.000,-0.038,0.000,0.000,-4.534,0.000,0.000
0.830,0.011,0.000,-0.011,0.000,0.000,-0.038,0.000,0.000,-4.533,0.000,0.000
0.843,0.011,0.000,-0.012,0.000,0.000,-0.038,0.000,0.000,-4.533,0.000,0.000
0.856,0.011,0.000,-0.012,0.000,0.000,-0.038,0.000,0.000,-4.533,0.000,0.000
0.883,0.011,0.000,-0.013,0.000,0.000,-0.038,0.000,0.000,-4.532,0.000,0.000
0.896,0.011,0.000,-0.013,0.000,0.000,-0.037,0.000,0.000,-4.532,0.000,0.000
0.909,0.011,0.000,-0.013,0.000,0.000,-0.036,0.000,0.000,-4.533,0.000,0.000
0.922,0.011,0.000,-0.013,0.000,0.000,-0.036,0.000,0.000,-4.533,0.000,0.000
0.935,0.011,0.000,-0.013,0.000,0.000,-0.036,0.000,0.000,-4.533,0.000,0.000
0.948,0.011,0.000,-0.013,0.000,0.000,-0.036,0.000,0.000,-4.533,0.000,0.000
0.972,0.012,0.000,-0.013,0.000,0.000,-0.037,0.000,0.000,-4.534,0.000,0.000
0.985,0.011,0.000,-0.012,0.000,0.000,-0.038,0.000,0.000,-4.534,0.000,0.000
0.998,0.011,0.000,-0.011,0.000,0.000,-0.040,0.000,0.000,-4.534,0.000,0.000
1.011,0.011,0.000,-0.011,0.000,0.000,-0.040,0.000,0.000,-4.535,0.000,0.000
1.024,0.011,0.000,-0.010,0.000,0.000,-0.041,0.000,0.000,-4.534,0.000,0.000
1.037,0.011,0.000,-0.010,0.000,0.000,-0.041,0.000,0.000,-4.535,0.000,0.000
1.050,0.011,0.000,-0.011,0.000,0.000,-0.041,0.000,0.000,-4.535,0.000,0.000
1.074,0.011,0.000,-0.012,0.000,0.000,-0.040,0.000,0.000,-4.535,0.000,0.000
1.087,0.011,0.000,-0.012,0.000,0.000,-0.040,0.000,0.000,-4.536,0.000,0.000
1.100,0.011,0.000,-0.012,0.000,0.000,-0.040,0.000,0.000,-4.536,0.000,0.000
1.113,0.011,0.000,-0.012,0.000,0.000,-0.040,0.000,0.000,-4.536,0.000,0.000
1.126,0.011,0.000,-0.012,0.000,0.000,-0.041,0.000,0.000,-4.536,0.000,0.000
1.139,0.011,0.000,-0.011,0.000,0.000,-0.041,0.000,0.000,-4.536,0.000,0.000
1.152,0.011,0.000,-0.011,0.000,0.000,-0.041,0.000,0.000,-4.535,0.000,0.000
1.174,0.012,0.000,-0.010,0.000,0.000,-0.041,0.000,0.000,-4.535,0.000,0.000
1.187,0.011,0.000,-0.010,0.000,0.000,-0.041,0.000,0.000,-4.535,0.000,0.000
1.200,0.011,0.000,-0.009,0.000,0.000,-0.040,0.000,0.000,-4.535,0.000,0.000
1.213,0.011,0.000,-0.009,0.000,0.000,-0.040,0.000,0.000,-4.535,0.000,0.000
1.226,0.011,0.000,-0.009,0.000,0.000,-0.040,0.000,0.000,-4.535,0.000,0.000
1.239,0.011,0.000,-0.008,0.000,0.000,-0.039,0.000,0.000,-4.535,0.000,0.000
1.252,0.011,0.000,-0.007,0.000,0.000,-0.039,0.000,0.000,-4.535,0.000,0.000
1.276,0.012,0.000,-0.007,0.000,0.000,-0.038,0.000,0.000,-4.536,0.000,0.000
1.289,0.011,0.000,-0.007,0.000,0.000,-0.038,0.000,0.000,-4.536,0.000,0.000
1.302,0.011,0.000,-0.007,0.000,0.000,-0.039,0.000,0.000,-4.537,0.000,0.000
1.315,0.011,0.000,-0.007,0.000,0.000,-0.040,0.000,0.000,-4.537,0.000,0.000
1.328,0.011,0.000,-0.007,0.000,0.000,-0.040,0.000,0.000,-4.537,0.000,0.000
1.341,0.011,0.000,-0.007,0.000,0.000,-0.041,0.000,0.000,-4.538,0.000,0.000
1.365,0.012,0.000,-0.007,0.000,0.000,-0.041,0.000,0.000,-4.538,0.000,0.000
1.378,0.011,0.000,-0.007,0.000,0.000,-0.041,0.000,0.000,-4.539,0.000,0.000
1.391,0.011,0.000,-0.007,0.000,0.000,-0.041,0.000,0.000,-4.539,0.000,0.000
1.404,0.011,0.000,-0.006,0.000,0.000,-0.041,0.000,0.000,-4.540,0.000,0.000
1.417,0.011,0.000,-0.006,0.000,0.000,-0.040,0.000,0.000,-4.540,0.000,0.000
1.430,0.011,0.000,-0.006,0.000,0.000,-0.040,0.000,0.000,-4.541,0.000,0.000
1.443,0.011,0.000,-0.007,0.000,0.000,-0.040,0.000,0.000,-4.542,0.000,0.000
1.467,0.012,0.000,-0.007,0.000,0.000,-0.040,0.000,0.000,-4.542,0.000,0.000
1.480,0.011,0.000,-0.007,0.000,0.000,-0.040,0.000,0.000,-4.542,0.000,0.000
1.493,0.011,0.000,-0.007,0.000,0.000,-0.039,0.000,0.000,-4.543,0.000,0.000
1.506,0.011,0.000,-0.007,0.000,0.000,-0.039,0.000,0.000,-4.543,0.000,0.000
1.519,0.011,0.000,-0.008,0.000,0.000,-0.038,0.000,0.000,-4.543,0.000,0.000
1.532,0.011,0.000,-0.008,0.000,0.000,-0.039,0.000,0.000,-4.543,0.000,0.000
1.545,0.011,0.000,-0.008,0.000,0.000,-0.039,0.000,0.000,-4.543,0.000,0.000
1.569,0.011,0.000,-0.008,0.000,0.000,-0.039,0.000,0.000,-4.543,0.000,0.000
1.582,0.011,0.000,-0.008,0.000,0.000,-0.040,0.000,0.000,-4.543,0.000,0.000
1.595,0.011,0.000,-0.008,0.000,0.000,-0.040,0.000,0.000,-4.542,0.000,0.000
1.608,0.011,0.000,-0.007,0.000,0.000,-0.041,0.000,0.000,-4.542,0.000,0.000
1.621,0.011,0.000,-0.007,0.000,0.000,-0.041,0.000,0.000,-4.542,0.000,0.000
1.634,0.011,0.000,-0.007,0.000,0.000,-0.041,0.000,0.000,-4.543,0.000,0.000
1.647,0.011,0.000,-0.007,0.000,0.000,-0.041,0.000,0.000,-4.543,0.000,0.000
1.674,0.011,0.000,-0.007,0.000,0.000,-0.042,0.000,0.000,-4.543,0.000,0.000
1.687,0.011,0.000,-0.008,0.000,0.000,-0.042,0.000,0.000,-4.542,0.000,0.000
1.700,0.011,0.000,-0.009,0.000,0.000,-0.043,0.000,0.000,-4.542,0.000,0.000
1.713,0.011,0.000,-0.008,0.000,0.000,-0.043,0.000,0.000,-4.542,0.000,0.000
1.726,0.011,0.000,-0.007,0.000,0.000,-0.043,0.000,0.000,-4.542,0.000,0.000
1.739,0.011,0.000,-0.007,0.000,0.000,-0.044,0.000,0.000,-4.542,0.000,0.000
1.763,0.012,0.000,-0.006,0.000,0.000,-0.044,0.000,0.000,-4.542,0.000,0.000
1.776,0.011,0.000,-0.006,0.000,0.000,-0.044,0.000,0.000,-4.542,0.000,0.000
1.789,0.011,0.000,-0.007,0.000,0.000,-0.043,-0.001,0.000,-4.542,0.800,0.800
1.802,0.011,0.000,-0.006,0.000,0.000,-0.043,-0.005,0.000,-4.542,6.000,6.400
1.815,0.011,0.000,-0.006,0.001,0.000,-0.043,-0.012,0.000,-4.543,11.600,11.600
1.828,0.011,0.000,-0.006,0.002,0.000,-0.044,-0.017,0.000,-4.543,16.400,16.800
1.841,0.011,0.000,-0.006,0.002,0.000,-0.043,-0.016,0.000,-4.544,20.000,20.000
1.865,0.012,0.000,-0.006,0.002,0.000,-0.043,-0.022,0.000,-4.544,29.600,30.000
1.878,0.011,0.000,-0.006,0.003,0.000,-0.042,-0.029,0.000,-4.545,35.200,35.200
1.891,0.011,0.000,-0.006,0.002,0.000,-0.042,-0.026,0.000,-4.545,40.000,40.400
1.904,0.011,0.000,-0.005,0.004,0.000,-0.042,-0.034,0.000,-4.545,45.600,45.600
1.917,0.011,0.000,-0.006,0.005,0.000,-0.042,-0.047,0.000,-4.546,47.600,47.600
1.931,0.012,0.000,-0.006,0.005,0.000,-0.042,-0.060,0.000,-4.546,53.200,53.200
1.955,0.012,0.000,-0.005,0.006,0.000,-0.042,-0.056,0.000,-4.548,62.400,62.800
1.968,0.011,0.000,-0.005,0.002,0.000,-0.042,-0.056,0.000,-4.548,65.600,65.600
1.981,0.011,0.000,-0.005,0.006,0.000,-0.043,-0.077,0.000,-4.549,65.600,65.600
1.994,0.011,0.000,-0.005,0.005,0.000,-0.045,-0.150,0.000,-4.553,69.200,69.600
2.007,0.011,0.000,-0.003,0.005,0.000,-0.043,0.065,0.000,-4.549,74.800,74.800
2.020,0.011,0.000,-0.002,-0.002,0.000,-0.040,-0.041,0.000,-4.545,79.600,80.000
2.033,0.011,0.000,-0.003,0.007,0.000,-0.046,-0.272,0.000,-4.551,85.200,85.200
2.057,0.011,0.000,-0.004,0.000,0.000,-0.043,-0.024,0.000,-4.549,92.000,92.000
2.070,0.011,0.000,-0.003,0.003,0.000,-0.047,-0.316,0.000,-4.551,92.000,92.000
2.083,0.011,0.000,-0.005,0.015,0.000,-0.048,-0.070,0.000,-4.556,92.000,92.000
2.096,0.011,0.000,-0.005,0.004,0.000,-0.044,0.105,0.000,-4.557,92.000,92.000
2.109,0.011,0.000,-0.003,0.003,0.000,-0.045,-0.185,0.000,-4.554,92.000,92.000
2.122,0.011,0.000,-0.002,-0.001,0.000,-0.047,-0.174,0.000,-4.556,92.000,92.000
2.146,0.011,0.000,-0.002,0.017,0.000,-0.046,-0.065,0.000,-4.559,93.600,93.600
2.159,0.011,0.000,-0.002,0.010,0.000,-0.047,-0.183,0.000,-4.557,93.600,93.600
2.172,0.011,0.000,-0.002,-0.004,0.000,-0.049,-0.135,0.000,-4.560,93.600,93.600
2.185,0.011,0.000,-0.002,0.013,0.000,-0.048,-0.013,0.000,-4.563,93.600,93.600
2.198,0.011,0.000,-0.003,0.019,0.000,-0.046,-0.045,0.000,-4.560,93.600,93.600
2.211,0.011,0.000,-0.002,-0.000,0.000,-0.047,-0.173,0.000,-4.560,93.600,93.600
2.224,0.011,0.000,-0.001,0.001,0.000,-0.048,-0.115,0.000,-4.564,93.600,93.600
2.248,0.011,0.000,-0.002,0.007,0.000,-0.047,-0.097,0.000,-4.562,93.600,93.600
2.261,0.011,0.000,-0.002,0.010,0.000,-0.049,-0.222,0.000,-4.561,93.600,93.600
2.274,0.011,0.000,-0.003,0.026,0.000,-0.050,-0.088,0.000,-4.560,93.600,93.600
2.287,0.011,0.000,-0.005,0.020,0.000,-0.049,-0.071,0.000,-4.558,93.600,93.600
2.300,0.011,0.000,-0.006,0.005,0.000,-0.050,-0.183,0.000,-4.557,93.600,93.600
2.313,0.011,0.000,-0.005,-0.008,0.000,-0.051,-0.129,0.000,-4.560,93.600,93.600
2.337,0.012,0.000,-0.006,0.022,0.000,-0.048,-0.080,0.000,-4.560,93.600,93.600
2.350,0.011,0.000,-0.006,-0.006,0.000,-0.049,-0.131,0.000,-4.561,93.600,93.600
2.363,0.011,0.000,-0.005,0.006,0.000,-0.048,-0.066,0.000,-4.564,93.600,93.600
2.376,0.011,0.000,-0.006,0.027,0.000,-0.049,-0.099,0.000,-4.563,93.600,93.600
2.389,0.011,0.000,-0.007,0.010,0.000,-0.048,-0.063,0.000,-4.562,93.600,93.600
2.402,0.011,0.000,-0.006,-0.003,0.000,-0.049,-0.164,0.000,-4.564,93.600,93.600
2.415,0.011,0.000,-0.007,0.020,0.000,-0.049,-0.075,0.000,-4.564,93.600,93.600
2.439,0.011,0.000,-0.008,0.015,0.000,-0.048,-0.189,0.000,-4.563,93.600,93.600
2.452,0.011,0.000,-0.009,0.016,0.000,-0.050,-0.128,0.000,-4.563,93.600,93.600
2.465,0.011,0.000,-0.009,0.012,0.000,-0.049,-0.091,0.000,-4.564,93.600,93.600
2.478,0.011,0.000,-0.010,0.018,0.000,-0.050,-0.085,0.000,-4.562,93.600,93.600
2.491,0.011,0.000,-0.010,0.003,0.000,-0.048,-0.023,0.000,-4.560,93.600,93.600
2.504,0.011,0.000,-0.010,0.002,0.000,-0.048,-0.103,0.000,-4.563,93.600,93.600
2.528,0.012,0.000,-0.008,-0.002,0.000,-0.046,-0.089,0.000,-4.563,93.600,93.600
2.541,0.011,0.000,-0.008,0.008,0.000,-0.048,-0.213,0.000,-4.565,93.600,93.600
2.554,0.011,0.000,-0.009,0.011,0.000,-0.048,-0.076,0.000,-4.565,93.600,93.600
2.567,0.011,0.000,-0.008,0.007,0.000,-0.048,-0.078,0.000,-4.566,93.600,93.600
2.580,0.011,0.000,-0.008,0.015,0.000,-0.048,-0.044,0.000,-4.565,93.600,93.600
2.593,0.011,0.000,-0.008,0.008,0.000,-0.047,-0.058,0.000,-4.566,93.600,93.600
2.606,0.011,0.000,-0.008,0.001,0.000,-0.047,-0.122,0.000,-4.569,93.600,93.600
2.626,0.011,0.000,-0.007,0.003,0.000,-0.046,-0.077,0.000,-4.567,93.600,93.600
2.639,0.011,0.000,-0.006,0.004,0.000,-0.048,-0.178,0.000,-4.570,93.600,93.600
2.652,0.011,0.000,-0.006,0.009,0.000,-0.047,0.017,0.000,-4.570,93.600,93.600
2.665,0.011,0.000,-0.006,0.005,0.000,-0.046,-0.102,0.000,-4.570,93.600,93.600
2.678,0.011,0.000,-0.005,0.003,0.000,-0.047,-0.129,0.000,-4.571,93.600,93.600
2.691,0.011,0.000,-0.005,0.012,0.000,-0.046,-0.023,0.000,-4.571,93.600,93.600
2.715,0.012,0.000,-0.004,-0.003,0.000,-0.045,-0.032,0.000,-4.572,93.600,93.600
2.728,0.011,0.000,-0.003,0.002,0.000,-0.044,-0.088,0.000,-4.571,93.600,93.600
2.741,0.011,0.000,-0.004,0.015,0.000,-0.045,-0.142,0.000,-4.573,93.600,93.600
2.754,0.011,0.000,-0.004,0.012,0.000,-0.043,0.049,0.000,-4.572,93.600,93.600
2.767,0.011,0.000,-0.004,0.015,0.000,-0.044,-0.201,0.000,-4.572,93.600,93.600
2.780,0.011,0.000,-0.005,0.007,0.000,-0.046,-0.130,0.000,-4.572,93.600,93.600
2.793,0.011,0.000,-0.006,0.012,0.000,-0.044,0.012,0.000,-4.573,93.600,93.600
2.817,0.012,0.000,-0.006,0.003,0.000,-0.045,-0.078,0.000,-4.571,93.600,93.600
2.830,0.011,0.000,-0.006,0.007,0.000,-0.044,-0.101,0.000,-4.571,94.400,94.400
2.843,0.011,0.000,-0.006,0.013,0.000,-0.046,-0.185,0.000,-4.572,99.200,99.600
2.856,0.011,0.000,-0.006,-0.000,0.000,-0.045,0.001,0.000,-4.571,104.800,104.800
2.869,0.011,0.000,-0.005,0.011,0.000,-0.045,-0.201,0.000,-4.571,108.800,108.800
2.882,0.011,0.000,-0.005,0.002,0.000,-0.046,-0.098,0.000,-4.571,108.800,108.800
2.909,0.011,0.000,-0.004,0.010,0.000,-0.046,-0.226,0.000,-4.571,113.600,113.600
2.922,0.011,0.000,-0.003,0.003,0.000,-0.045,0.046,0.000,-4.572,118.400,118.800
2.935,0.011,0.000,-0.003,0.012,0.000,-0.046,-0.292,0.000,-4.572,123.600,123.600
2.948,0.011,0.000,-0.002,-0.005,0.000,-0.045,0.077,0.000,-4.572,125.600,125.600
2.961,0.011,0.000,-0.003,0.019,0.000,-0.044,-0.205,0.000,-4.572,125.600,125.600
2.974,0.011,0.000,-0.002,0.004,0.000,-0.044,-0.017,0.000,-4.573,125.600,125.600
2.998,0.012,0.000,-0.003,0.004,0.000,-0.044,-0.143,0.000,-4.575,125.600,125.600
3.011,0.011,0.000,-0.003,0.022,0.000,-0.043,-0.106,0.000,-4.576,125.600,125.600
3.024,0.011,0.000,-0.003,0.007,0.000,-0.043,-0.123,0.000,-4.577,125.600,125.600
3.037,0.011,0.000,-0.002,0.008,0.000,-0.042,-0.101,0.000,-4.577,125.600,125.600
3.050,0.011,0.000,-0.002,-0.003,0.000,-0.043,-0.143,0.000,-4.577,125.600,125.600
3.063,0.011,0.000,-0.001,0.009,0.000,-0.043,-0.140,0.000,-4.578,125.600,125.600
3.076,0.011,0.000,-0.001,0.008,0.000,-0.043,-0.137,0.000,-4.579,125.600,125.600
3.100,0.011,0.000,-0.000,0.004,0.000,-0.041,-0.059,0.000,-4.580,125.600,125.600
3.113,0.011,0.000,0.000,0.007,0.000,-0.041,-0.096,0.000,-4.580,125.600,125.600
3.126,0.011,0.000,0.001,0.005,0.000,-0.040,-0.127,0.000,-4.581,125.600,125.600
3.139,0.011,0.000,0.001,0.008,0.000,-0.040,-0.095,0.000,-4.581,125.600,125.600
3.152,0.011,0.000,0.000,0.012,0.000,-0.041,-0.202,0.000,-4.582,125.600,125.600
3.165,0.011,0.000,0.001,0.005,0.000,-0.041,-0.117,0.000,-4.582,125.600,125.600
3.189,0.011,0.000,0.000,0.010,0.000,-0.042,-0.053,0.000,-4.581,125.600,125.600
3.202,0.011,0.000,-0.000,0.012,0.000,-0.042,-0.199,0.000,-4.582,125.600,125.600
3.215,0.011,0.000,0.000,0.008,0.000,-0.042,-0.024,0.000,-4.581,122.800,122.800
3.228,0.011,0.000,-0.000,0.009,0.000,-0.042,-0.191,0.000,-4.582,118.000,117.600
3.241,0.011,0.000,0.001,0.008,0.000,-0.042,-0.071,0.000,-4.582,112.800,112.800
3.254,0.011,0.000,0.000,0.008,0.000,-0.042,-0.156,0.000,-4.583,107.200,107.200
3.267,0.011,0.000,0.001,0.007,0.000,-0.041,0.039,0.000,-4.583,102.400,102.000
3.291,0.012,0.000,-0.000,0.006,0.000,-0.039,0.028,0.000,-4.582,92.400,92.400
3.304,0.011,0.000,-0.002,0.018,0.000,-0.039,-0.134,0.000,-4.583,87.200,87.200
3.317,0.011,0.000,-0.002,-0.001,0.000,-0.039,-0.030,0.000,-4.583,86.800,86.800
3.330,0.011,0.000,-0.001,0.006,0.000,-0.037,-0.052,0.000,-4.583,86.800,86.800
3.343,0.011,0.000,-0.002,0.016,0.000,-0.038,-0.111,0.000,-4.583,86.800,86.800
3.356,0.011,0.000,-0.001,-0.005,0.000,-0.035,0.026,0.000,-4.584,86.800,86.800
3.380,0.011,0.000,-0.001,0.010,0.000,-0.035,-0.043,0.000,-4.582,86.800,86.800
3.393,0.011,0.000,-0.001,-0.000,0.000,-0.034,-0.030,0.000,-4.583,86.800,86.800
3.406,0.011,0.000,-0.000,0.007,0.000,-0.036,-0.179,0.000,-4.582,86.800,86.800
3.419,0.011,0.000,-0.000,0.007,0.000,-0.036,-0.081,0.000,-4.581,86.800,86.800
3.432,0.011,0.000,0.001,-0.003,0.000,-0.037,-0.084,0.000,-4.583,86.800,86.800
3.445,0.011,0.000,0.001,0.014,0.000,-0.038,-0.090,0.000,-4.583,86.800,86.800
3.469,0.011,0.000,0.002,-0.005,0.000,-0.038,-0.200,0.000,-4.584,86.800,86.800
3.482,0.011,0.000,0.001,0.015,0.000,-0.039,0.002,0.000,-4.582,86.800,86.800
3.495,0.011,0.000,0.001,0.003,0.000,-0.038,-0.105,0.000,-4.582,86.800,86.800
3.508,0.011,0.000,0.002,0.005,0.000,-0.039,-0.067,0.000,-4.585,86.800,86.800
3.521,0.011,0.000,0.002,0.007,0.000,-0.038,-0.051,0.000,-4.584,86.800,86.800
3.534,0.011,0.000,0.002,0.004,0.000,-0.037,-0.044,0.000,-4.585,86.800,86.800
3.547,0.011,0.000,0.003,0.004,0.000,-0.039,-0.142,0.000,-4.587,86.800,86.800
3.571,0.011,0.000,0.004,-0.005,0.000,-0.036,-0.074,0.000,-4.586,86.800,86.800
3.584,0.011,0.000,0.005,-0.004,0.000,-0.038,-0.104,0.000,-4.588,86.800,86.800
3.597,0.011,0.000,0.006,-0.002,0.000,-0.036,0.050,0.000,-4.586,86.800,86.800
3.610,0.011,0.000,0.007,-0.001,0.000,-0.034,-0.055,0.000,-4.587,86.800,86.800
3.623,0.011,0.000,0.007,0.008,0.000,-0.035,-0.089,0.000,-4.587,86.800,86.800
3.636,0.011,0.000,0.007,0.001,0.000,-0.032,0.103,0.000,-4.585,86.800,86.800
3.649,0.011,0.000,0.008,0.008,0.000,-0.030,-0.102,0.000,-4.587,86.800,86.800
3.673,0.011,0.000,0.009,-0.005,0.000,-0.028,0.116,0.000,-4.587,86.800,86.800
3.686,0.011,0.000,0.009,0.006,0.000,-0.027,-0.124,0.000,-4.589,86.800,86.800
3.699,0.011,0.000,0.009,0.010,0.000,-0.029,-0.093,0.000,-4.589,86.800,86.800
3.712,0.011,0.000,0.009,-0.007,0.000,-0.026,0.074,0.000,-4.588,86.800,86.800
3.725,0.011,0.000,0.010,0.007,0.000,-0.026,-0.125,0.000,-4.590,86.800,86.800
3.738,0.011,0.000,0.010,0.004,0.000,-0.027,-0.010,0.000,-4.590,86.800,86.800
3.762,0.012,0.000,0.012,0.006,0.000,-0.024,-0.109,0.000,-4.591,86.800,86.800
3.775,0.011,0.000,0.012,-0.004,0.000,-0.024,-0.028,0.000,-4.591,86.800,86.800
3.788,0.011,0.000,0.015,-0.018,0.000,-0.021,0.085,0.000,-4.591,86.800,86.800
3.801,0.011,0.000,0.016,-0.003,0.000,-0.022,-0.136,0.000,-4.593,86.800,86.800
3.814,0.011,0.000,0.016,0.001,0.000,-0.021,0.052,0.000,-4.593,86.800,86.800
3.827,0.011,0.000,0.018,-0.010,0.000,-0.019,0.018,0.000,-4.594,86.800,86.800
3.840,0.011,0.000,0.017,0.013,0.000,-0.020,-0.121,0.000,-4.594,86.800,86.800
3.862,0.011,0.000,0.018,-0.003,0.000,-0.019,0.012,0.000,-4.593,86.800,86.800
3.875,0.011,0.000,0.017,0.011,0.000,-0.020,-0.180,0.000,-4.592,86.800,86.800
3.888,0.011,0.000,0.017,0.003,0.000,-0.021,-0.034,0.000,-4.592,86.800,86.800
3.901,0.011,0.000,0.019,-0.014,0.000,-0.020,-0.041,0.000,-4.594,86.800,86.800
3.914,0.011,0.000,0.018,0.018,0.000,-0.020,-0.094,0.000,-4.593,86.800,86.800
3.927,0.011,0.000,0.017,0.003,0.000,-0.019,-0.023,0.000,-4.593,86.800,86.800
3.951,0.011,0.000,0.016,0.011,0.000,-0.019,-0.062,0.000,-4.593,86.800,86.800
3.964,0.011,0.000,0.016,0.006,0.000,-0.019,-0.019,0.000,-4.593,86.800,86.800
3.977,0.011,0.000,0.016,0.002,0.000,-0.018,-0.016,0.000,-4.594,86.800,86.800
3.990,0.011,0.000,0.015,0.016,0.000,-0.017,-0.006,0.000,-4.592,86.800,86.800
4.003,0.011,0.000,0.016,-0.010,0.000,-0.015,0.031,0.000,-4.593,86.800,86.800
4.016,0.011,0.000,0.018,0.001,0.000,-0.015,-0.036,0.000,-4.594,86.800,86.800
4.029,0.011,0.000,0.017,0.006,0.000,-0.014,0.026,0.000,-4.592,86.800,86.800
4.053,0.011,0.000,0.018,0.000,0.000,-0.014,-0.053,0.000,-4.594,86.800,86.800
4.066,0.011,0.000,0.018,0.010,0.000,-0.014,-0.045,0.000,-4.592,86.800,86.800
4.079,0.011,0.000,0.017,-0.002,0.000,-0.014,-0.041,0.000,-4.594,86.800,86.800
4.092,0.011,0.000,0.018,0.001,0.000,-0.015,-0.097,0.000,-4.595,86.800,86.800
4.105,0.011,0.000,0.018,0.002,0.000,-0.012,0.079,0.000,-4.592,86.800,86.800
4.118,0.011,0.000,0.019,0.002,0.000,-0.013,-0.110,0.000,-4.593,86.800,86.800
4.145,0.011,0.000,0.018,0.002,0.000,-0.012,-0.005,0.000,-4.592,86.800,86.800
4.158,0.011,0.000,0.018,0.003,0.000,-0.012,-0.087,0.000,-4.594,86.800,86.800
4.171,0.011,0.000,0.018,0.004,0.000,-0.013,-0.038,0.000,-4.594,86.800,86.800
4.184,0.011,0.000,0.018,-0.005,0.000,-0.011,0.025,0.000,-4.593,86.800,86.800
4.197,0.011,0.000,0.019,0.003,0.000,-0.014,-0.167,0.000,-4.595,86.800,86.800
4.210,0.011,0.000,0.019,-0.002,0.000,-0.013,0.065,0.000,-4.593,86.800,86.800
4.223,0.011,0.000,0.020,-0.000,0.000,-0.012,-0.094,0.000,-4.593,86.800,86.800
4.247,0.012,0.000,0.018,0.004,0.000,-0.014,-0.045,0.000,-4.594,86.800,86.800
4.260,0.011,0.000,0.019,0.001,0.000,-0.012,-0.035,0.000,-4.594,86.800,86.800
4.273,0.011,0.000,0.017,0.015,0.000,-0.016,-0.212,0.000,-4.596,86.800,86.800
4.286,0.011,0.000,0.016,0.003,0.000,-0.014,0.106,0.000,-4.595,86.800,86.800
4.299,0.011,0.000,0.016,0.006,0.000,-0.014,-0.122,0.000,-4.596,86.800,86.800
4.312,0.011,0.000,0.014,0.019,0.000,-0.016,-0.103,0.000,-4.598,86.800,86.800
4.325,0.011,0.000,0.014,-0.002,0.000,-0.016,-0.025,0.000,-4.599,86.800,86.800
4.349,0.012,0.000,0.013,0.014,0.000,-0.018,-0.180,0.000,-4.601,86.800,86.800
4.362,0.011,0.000,0.013,-0.006,0.000,-0.016,0.069,0.000,-4.601,86.800,86.800
4.375,0.011,0.000,0.014,0.008,0.000,-0.016,-0.150,0.000,-4.602,86.800,86.800
4.388,0.011,0.000,0.012,0.017,0.000,-0.018,-0.038,0.000,-4.602,86.800,86.800
4.401,0.011,0.000,0.013,-0.007,0.000,-0.017,-0.016,0.000,-4.602,86.800,86.800
4.414,0.011,0.000,0.013,0.010,0.000,-0.016,-0.062,0.000,-4.603,86.800,86.800
4.438,0.012,0.000,0.014,-0.014,0.000,-0.017,0.033,0.000,-4.603,86.800,86.800
4.451,0.011,0.000,0.015,0.005,0.000,-0.017,-0.108,0.000,-4.603,86.800,86.800
4.464,0.011,0.000,0.014,0.001,0.000,-0.017,0.023,0.000,-4.603,86.800,86.800
4.477,0.011,0.000,0.016,-0.007,0.000,-0.016,-0.012,0.000,-4.604,86.800,86.800
4.490,0.011,0.000,0.016,0.010,0.000,-0.016,-0.059,0.000,-4.604,86.800,86.800
4.503,0.011,0.000,0.015,0.001,0.000,-0.016,-0.038,0.000,-4.604,86.800,86.800
4.516,0.011,0.000,0.018,-0.011,0.000,-0.016,-0.002,0.000,-4.605,86.800,86.800
4.540,0.012,0.000,0.018,-0.003,0.000,-0.014,0.001,0.000,-4.605,86.800,86.800
4.553,0.011,0.000,0.019,-0.004,0.000,-0.013,-0.033,0.000,-4.607,86.800,86.800
4.566,0.011,0.000,0.019,0.006,0.000,-0.012,0.008,0.000,-4.606,86.800,86.800
4.579,0.011,0.000,0.019,0.006,0.000,-0.011,-0.006,0.000,-4.606,86.800,86.800
4.592,0.011,0.000,0.019,0.001,0.000,-0.011,-0.074,0.000,-4.608,86.800,86.800
4.605,0.011,0.000,0.018,0.010,0.000,-0.011,0.016,0.000,-4.607,86.800,86.800
4.629,0.012,0.000,0.017,0.010,0.000,-0.010,-0.057,0.000,-4.608,86.800,86.800
4.642,0.011,0.000,0.016,0.009,0.000,-0.009,0.064,0.000,-4.607,86.800,86.800
4.655,0.011,0.000,0.016,0.003,0.000,-0.008,-0.068,0.000,-4.607,86.800,86.800
4.668,0.011,0.000,0.015,0.006,0.000,-0.010,-0.124,0.000,-4.609,86.800,86.800
4.681,0.011,0.000,0.015,0.008,0.000,-0.010,0.022,0.000,-4.607,86.800,86.800
4.694,0.011,0.000,0.014,-0.001,0.000,-0.010,-0.085,0.000,-4.608,86.800,86.800
4.707,0.011,0.000,0.015,0.003,0.000,-0.012,-0.078,0.000,-4.608,86.800,86.800
4.731,0.011,0.000,0.015,-0.000,0.000,-0.010,-0.109,0.000,-4.606,86.800,86.800
4.744,0.011,0.000,0.015,0.004,0.000,-0.011,-0.025,0.000,-4.607,86.800,86.800
4.757,0.011,0.000,0.016,-0.010,0.000,-0.008,0.103,0.000,-4.605,86.800,86.800
4.770,0.011,0.000,0.016,0.005,0.000,-0.007,-0.075,0.000,-4.606,86.800,86.800
4.783,0.011,0.000,0.016,0.007,0.000,-0.009,-0.098,0.000,-4.608,86.800,86.800
4.796,0.011,0.000,0.015,0.001,0.000,-0.007,0.054,0.000,-4.608,86.800,86.800
4.820,0.012,0.000,0.015,0.008,0.000,-0.010,-0.062,0.000,-4.610,86.800,86.800
4.833,0.011,0.000,0.016,-0.011,0.000,-0.007,0.061,0.000,-4.610,86.800,86.800
4.846,0.011,0.000,0.015,0.015,0.000,-0.007,-0.092,0.000,-4.612,86.800,86.800
4.859,0.011,0.000,0.014,0.005,0.000,-0.008,-0.010,0.000,-4.611,86.800,86.800
4.872,0.011,0.000,0.014,0.005,0.000,-0.005,0.100,0.000,-4.612,86.800,86.800
4.885,0.011,0.000,0.011,0.035,0.000,-0.003,-0.040,0.000,-4.615,86.800,86.800
4.898,0.011,0.000,0.005,0.044,0.000,0.001,0.237,0.000,-4.623,86.800,86.800
4.922,0.012,0.000,-0.011,0.096,0.000,0.010,0.064,0.000,-4.662,86.800,86.800
4.935,0.011,0.000,-0.021,0.065,0.000,0.014,0.106,0.000,-4.693,86.800,86.800
4.948,0.011,0.000,-0.029,0.061,0.000,0.015,0.035,0.000,-4.727,86.800,86.800
4.961,0.011,0.000,-0.034,0.040,0.000,0.015,-0.100,0.000,-4.768,86.800,86.800
4.974,0.011,0.000,-0.037,0.033,0.000,0.012,-0.084,0.000,-4.814,86.800,86.800
4.987,0.011,0.000,-0.038,0.012,0.000,0.012,-0.022,0.000,-4.862,86.800,86.800
5.000,0.011,0.000,-0.036,-0.003,0.000,0.010,-0.090,0.000,-4.909,86.800,86.800
5.024,0.011,0.000,-0.027,-0.016,0.000,0.007,-0.135,0.000,-4.986,86.800,86.800
5.037,0.011,0.000,-0.023,-0.020,0.000,0.005,-0.091,0.000,-5.021,86.800,86.800
5.050,0.011,0.000,-0.019,-0.020,0.000,0.002,-0.150,0.000,-5.050,86.800,86.800
5.063,0.011,0.000,-0.015,-0.019,0.000,0.001,-0.067,0.000,-5.073,86.800,86.800
5.076,0.011,0.000,-0.011,-0.015,0.000,-0.003,-0.179,0.000,-5.091,86.800,86.800
5.089,0.011,0.000,-0.008,-0.013,0.000,-0.004,-0.048,0.000,-5.108,86.800,86.800
5.113,0.012,0.000,-0.005,-0.005,0.000,-0.004,0.029,0.000,-5.132,86.800,86.800
5.126,0.011,0.000,-0.003,-0.002,0.000,-0.006,-0.101,0.000,-5.142,86.800,86.800
5.139,0.011,0.000,-0.005,0.027,0.000,-0.005,0.034,0.000,-5.152,86.800,86.800
5.152,0.011,0.000,-0.008,0.033,0.000,-0.004,-0.038,0.000,-5.163,86.800,86.800
5.165,0.011,0.000,-0.013,0.048,0.000,-0.002,0.134,0.000,-5.181,86.800,86.800
5.178,0.011,0.000,-0.019,0.046,0.000,-0.000,-0.031,0.000,-5.205,86.800,86.800
5.202,0.012,0.000,-0.024,0.021,0.000,-0.001,-0.168,0.000,-5.256,86.800,86.800
5.215,0.011,0.000,-0.026,0.027,0.000,-0.004,-0.104,0.000,-5.286,86.800,86.800
5.228,0.011,0.000,-0.027,0.016,0.000,-0.006,-0.186,0.000,-5.318,86.800,86.800
5.241,0.011,0.000,-0.028,0.020,0.000,-0.008,-0.039,0.000,-5.353,86.800,86.800
5.254,0.011,0.000,-0.028,0.009,0.000,-0.009,-0.067,0.000,-5.387,86.800,86.800
5.267,0.011,0.000,-0.027,0.000,0.000,-0.007,0.058,0.000,-5.421,86.800,86.800
5.280,0.011,0.000,-0.023,-0.021,0.000,-0.007,-0.125,0.000,-5.452,86.800,86.800
5.304,0.011,0.000,-0.010,-0.052,0.000,-0.009,-0.097,0.000,-5.491,86.800,86.800
5.317,0.011,0.000,-0.003,-0.027,0.000,-0.011,-0.088,0.000,-5.503,86.800,86.800
5.330,0.011,0.000,0.000,-0.009,0.000,-0.011,-0.032,0.000,-5.508,86.800,86.800
5.343,0.011,0.000,-0.001,0.021,0.000,-0.011,-0.028,0.000,-5.512,86.800,86.800
5.356,0.011,0.000,-0.003,0.020,0.000,-0.012,-0.160,0.000,-5.520,86.800,86.800
5.369,0.011,0.000,-0.005,0.022,0.000,-0.014,0.006,0.000,-5.528,86.800,86.800
5.396,0.011,0.000,-0.003,-0.022,0.000,-0.012,0.038,0.000,-5.546,86.800,86.800
5.409,0.011,0.000,0.003,-0.035,0.000,-0.009,0.003,0.000,-5.548,86.800,86.800
5.422,0.011,0.000,0.007,-0.020,0.000,-0.011,-0.122,0.000,-5.548,86.800,86.800
5.435,0.011,0.000,0.011,-0.030,0.000,-0.015,-0.204,0.000,-5.542,86.800,86.800
5.448,0.011,0.000,0.017,-0.033,0.000,-0.016,-0.065,0.000,-5.533,86.800,86.800
5.461,0.011,0.000,0.020,-0.019,0.000,-0.019,-0.238,0.000,-5.522,86.800,86.800
5.474,0.011,0.000,0.026,-0.033,0.000,-0.026,-0.294,0.000,-5.512,86.800,86.800
5.498,0.012,0.000,0.034,-0.031,0.000,-0.039,-0.421,0.000,-5.480,86.800,86.800
5.511,0.011,0.000,0.039,-0.036,0.000,-0.046,-0.359,0.000,-5.453,86.800,86.800
5.524,0.011,0.000,0.044,-0.039,0.000,-0.051,-0.258,0.000,-5.418,86.800,86.800
5.537,0.011,0.000,0.048,-0.025,0.000,-0.054,-0.246,0.000,-5.376,86.800,86.800
5.550,0.011,0.000,0.051,-0.027,0.000,-0.057,-0.186,0.000,-5.327,86.800,86.800
5.563,0.011,0.000,0.056,-0.028,0.000,-0.059,-0.193,0.000,-5.271,86.800,86.800
5.587,0.012,0.000,0.060,-0.019,0.000,-0.063,-0.193,0.000,-5.158,86.800,86.800
5.600,0.011,0.000,0.061,-0.001,0.000,-0.063,-0.056,0.000,-5.095,86.800,86.800
5.613,0.011,0.000,0.059,0.004,0.000,-0.062,-0.094,0.000,-5.030,86.800,86.800
5.626,0.011,0.000,0.058,-0.005,0.000,-0.061,-0.050,0.000,-4.967,86.800,86.800
5.639,0.011,0.000,0.059,-0.008,0.000,-0.062,-0.180,0.000,-4.902,86.667,86.800
5.652,0.011,0.000,0.059,-0.005,0.000,-0.063,-0.102,0.000,-4.834,86.431,86.800
5.665,0.011,0.000,0.058,0.002,0.000,-0.063,-0.073,0.000,-4.769,86.679,86.800
5.689,0.012,0.000,0.052,0.026,0.000,-0.057,0.018,0.000,-4.655,86.800,86.800
5.702,0.011,0.000,0.047,0.025,0.000,-0.050,0.235,0.000,-4.601,86.800,86.800
5.715,0.011,0.000,0.043,0.024,0.000,-0.043,0.175,0.000,-4.552,86.800,86.800
5.728,0.011,0.000,0.039,0.020,0.000,-0.035,0.275,0.000,-4.508,86.800,86.800
5.741,0.011,0.000,0.036,0.021,0.000,-0.031,0.050,0.000,-4.470,86.800,86.800
5.754,0.011,0.000,0.030,0.055,0.000,-0.026,0.175,0.000,-4.438,86.800,86.800
5.767,0.011,0.000,0.020,0.072,0.000,-0.021,0.095,0.000,-4.417,86.800,86.800
5.807,0.012,0.000,-0.004,0.044,0.000,-0.010,0.156,0.000,-4.404,86.800,86.800
5.820,0.011,0.000,-0.010,0.057,0.000,-0.008,-0.010,0.000,-4.414,86.800,86.800
5.833,0.011,0.000,-0.018,0.061,0.000,-0.005,0.142,0.000,-4.425,86.800,86.800
5.846,0.011,0.000,-0.027,0.064,0.000,0.001,0.178,0.000,-4.438,86.800,86.800
5.859,0.011,0.000,-0.035,0.067,0.000,0.008,0.294,0.000,-4.458,86.800,86.800
5.872,0.011,0.000,-0.044,0.068,0.000,0.016,0.287,0.000,-4.485,86.800,86.800
5.896,0.012,0.000,-0.057,0.061,0.000,0.028,0.238,0.000,-4.564,86.800,86.800
5.909,0.011,0.000,-0.062,0.050,0.000,0.034,0.268,0.000,-4.623,86.800,86.800
5.922,0.011,0.000,-0.066,0.044,0.000,0.039,0.168,0.000,-4.694,86.800,86.800
5.935,0.011,0.000,-0.070,0.053,0.000,0.041,0.063,0.000,-4.775,86.800,86.800
5.948,0.011,0.000,-0.076,0.059,0.000,0.040,-0.038,0.000,-4.862,86.800,86.800
5.961,0.011,0.000,-0.081,0.054,0.000,0.037,-0.119,0.000,-4.954,86.800,86.800
5.974,0.011,0.000,-0.084,0.030,0.000,0.031,-0.265,0.000,-5.047,86.800,86.800
5.998,0.012,0.000,-0.075,-0.033,0.000,0.016,-0.381,0.000,-5.203,86.800,86.800
6.011,0.011,0.000,-0.060,-0.107,0.000,0.005,-0.475,0.000,-5.267,86.800,86.800
6.024,0.011,0.000,-0.037,-0.146,0.000,-0.005,-0.407,0.000,-5.308,86.800,86.800
6.037,0.011,0.000,-0.015,-0.118,0.000,-0.012,-0.307,0.000,-5.328,86.800,86.800
6.050,0.011,0.000,-0.005,-0.039,0.000,-0.017,-0.209,0.000,-5.337,86.800,86.800
6.063,0.011,0.000,0.000,-0.030,0.000,-0.020,-0.189,0.000,-5.339,86.800,86.800
6.087,0.012,0.000,0.017,-0.078,0.000,-0.031,-0.454,0.000,-5.319,86.800,86.800
6.100,0.011,0.000,0.028,-0.070,0.000,-0.042,-0.483,0.000,-5.297,86.800,86.800
6.113,0.011,0.000,0.038,-0.072,0.000,-0.052,-0.535,0.000,-5.265,86.800,86.800
6.126,0.011,0.000,0.049,-0.075,0.000,-0.061,-0.414,0.000,-5.219,86.800,86.800
6.139,0.011,0.000,0.060,-0.079,0.000,-0.067,-0.313,0.000,-5.157,86.800,86.800
6.152,0.011,0.000,0.068,-0.054,0.000,-0.073,-0.376,0.000,-5.081,85.839,86.800
6.165,0.011,0.000,0.073,-0.040,0.000,-0.077,-0.237,0.000,-4.997,85.368,86.800
6.189,0.011,0.000,0.074,0.001,0.000,-0.075,0.056,0.000,-4.832,84.987,86.800
6.202,0.011,0.000,0.071,0.020,0.000,-0.070,0.131,0.000,-4.745,85.249,86.800
6.215,0.011,0.000,0.065,0.034,0.000,-0.062,0.242,0.000,-4.665,85.675,86.800
6.228,0.011,0.000,0.057,0.055,0.000,-0.053,0.285,0.000,-4.593,86.240,86.800
6.241,0.011,0.000,0.046,0.080,0.000,-0.045,0.241,0.000,-4.536,86.800,86.800
6.254,0.011,0.000,0.031,0.106,0.000,-0.035,0.292,0.000,-4.494,86.800,86.800
6.278,0.011,0.000,0.003,0.083,0.000,-0.022,0.166,0.000,-4.456,86.800,86.800
6.291,0.011,0.000,-0.004,0.048,0.000,-0.018,0.096,0.000,-4.453,86.800,86.800
6.304,0.011,0.000,-0.010,0.046,0.000,-0.013,0.198,0.000,-4.454,86.800,86.800
6.317,0.011,0.000,-0.018,0.077,0.000,-0.008,0.167,0.000,-4.464,86.800,86.800
6.330,0.011,0.000,-0.028,0.075,0.000,0.000,0.331,0.000,-4.484,86.800,86.800
6.343,0.011,0.000,-0.039,0.091,0.000,0.011,0.387,0.000,-4.507,86.800,86.800
6.356,0.011,0.000,-0.051,0.084,0.000,0.021,0.426,0.000,-4.542,86.800,86.800
6.380,0.012,0.000,-0.070,0.086,0.000,0.037,0.328,0.000,-4.649,86.800,86.800
6.393,0.011,0.000,-0.079,0.076,0.000,0.044,0.267,0.000,-4.731,86.800,86.800
6.406,0.011,0.000,-0.085,0.046,0.000,0.049,0.204,0.000,-4.824,86.800,86.800
6.419,0.011,0.000,-0.085,0.021,0.000,0.050,0.039,0.000,-4.924,86.800,86.800
6.432,0.011,0.000,-0.081,-0.023,0.000,0.048,-0.147,0.000,-5.022,86.800,86.800
6.445,0.011,0.000,-0.071,-0.054,0.000,0.039,-0.375,0.000,-5.112,86.800,86.800
6.458,0.011,0.000,-0.058,-0.069,0.000,0.029,-0.401,0.000,-5.188,86.800,86.800
6.482,0.011,0.000,-0.036,-0.066,0.000,0.008,-0.412,0.000,-5.292,86.800,86.800
6.495,0.011,0.000,-0.024,-0.069,0.000,-0.003,-0.504,0.000,-5.324,86.800,86.800
6.508,0.011,0.000,-0.014,-0.056,0.000,-0.013,-0.394,0.000,-5.339,86.800,86.800
6.521,0.011,0.000,-0.003,-0.066,0.000,-0.022,-0.401,0.000,-5.342,86.800,86.800
6.534,0.011,0.000,0.006,-0.052,0.000,-0.028,-0.322,0.000,-5.332,86.800,86.800
6.547,0.011,0.000,0.015,-0.062,0.000,-0.040,-0.654,0.000,-5.312,86.800,86.800
6.571,0.012,0.000,0.045,-0.133,0.000,-0.068,-0.753,0.000,-5.244,86.800,86.800
6.584,0.011,0.000,0.064,-0.136,0.000,-0.083,-0.661,0.000,-5.177,86.113,86.800
6.597,0.011,0.000,0.082,-0.121,0.000,-0.093,-0.527,0.000,-5.082,84.511,86.800
6.610,0.011,0.000,0.093,-0.070,0.000,-0.099,-0.305,0.000,-4.970,83.254,86.800
6.623,0.011,0.000,0.098,-0.034,0.000,-0.102,-0.281,0.000,-4.846,82.620,86.800
6.636,0.011,0.000,0.097,0.008,0.000,-0.102,-0.084,0.000,-4.717,82.195,86.800
6.663,0.011,0.000,0.083,0.056,0.000,-0.090,0.177,0.000,-4.453,82.753,86.800
6.676,0.011,0.000,0.070,0.083,0.000,-0.079,0.332,0.000,-4.347,83.858,86.800
6.689,0.011,0.000,0.052,0.126,0.000,-0.064,0.550,0.000,-4.263,85.465,86.800
6.702,0.011,0.000,0.031,0.148,0.000,-0.045,0.697,0.000,-4.206,86.800,86.800
6.715,0.011,0.000,0.011,0.126,0.000,-0.026,0.637,0.000,-4.179,86.800,86.800
6.728,0.011,0.000,-0.003,0.084,0.000,-0.016,0.258,0.000,-4.170,86.800,86.800
6.741,0.011,0.000,-0.011,0.055,0.000,-0.008,0.293,0.000,-4.171,86.800,86.800
6.765,0.012,0.000,-0.030,0.099,0.000,0.014,0.620,0.000,-4.204,86.800,86.800
6.778,0.011,0.000,-0.044,0.113,0.000,0.032,0.689,0.000,-4.244,86.800,86.800
6.791,0.011,0.000,-0.058,0.104,0.000,0.046,0.581,0.000,-4.306,86.800,86.800
6.804,0.011,0.000,-0.067,0.074,0.000,0.054,0.203,0.000,-4.386,86.800,86.800
6.817,0.011,0.000,-0.072,0.039,0.000,0.055,0.018,0.000,-4.476,86.800,86.800
6.830,0.011,0.000,-0.071,0.006,0.000,0.049,-0.277,0.000,-4.568,86.800,86.800
6.843,0.011,0.000,-0.067,-0.014,0.000,0.043,-0.173,0.000,-4.658,86.800,86.800
6.867,0.011,0.000,-0.056,-0.029,0.000,0.034,-0.108,0.000,-4.816,86.800,86.800
6.880,0.011,0.000,-0.048,-0.042,0.000,0.027,-0.347,0.000,-4.888,86.800,86.800
6.893,0.011,0.000,-0.037,-0.070,0.000,0.017,-0.427,0.000,-4.944,86.800,86.800
6.906,0.011,0.000,-0.021,-0.100,0.000,0.002,-0.670,0.000,-4.980,86.800,86.800
6.919,0.011,0.000,-0.005,-0.086,0.000,-0.009,-0.345,0.000,-4.996,86.800,86.800
6.932,0.011,0.000,0.003,-0.030,0.000,-0.017,-0.401,0.000,-5.004,86.800,86.800
6.956,0.011,0.000,0.012,-0.055,0.000,-0.033,-0.400,0.000,-4.997,86.800,86.800
6.969,0.011,0.000,0.025,-0.093,0.000,-0.043,-0.496,0.000,-4.976,86.800,86.800
6.982,0.011,0.000,0.040,-0.099,0.000,-0.058,-0.753,0.000,-4.945,86.800,86.800
6.995,0.011,0.000,0.055,-0.107,0.000,-0.073,-0.711,0.000,-4.897,86.800,86.800
7.008,0.011,0.000,0.069,-0.098,0.000,-0.087,-0.646,0.000,-4.822,85.567,86.800
7.021,0.011,0.000,0.081,-0.078,0.000,-0.094,-0.307,0.000,-4.728,84.275,86.800
7.034,0.011,0.000,0.087,-0.039,0.000,-0.093,-0.040,0.000,-4.625,83.895,86.800
7.058,0.011,0.000,0.080,0.043,0.000,-0.079,0.180,0.000,-4.442,84.423,86.800
7.071,0.011,0.000,0.067,0.088,0.000,-0.068,0.355,0.000,-4.358,85.277,86.800
7.084,0.011,0.000,0.051,0.117,0.000,-0.054,0.565,0.000,-4.291,86.688,86.800
7.097,0.011,0.000,0.033,0.116,0.000,-0.039,0.452,0.000,-4.252,86.800,86.800
7.110,0.011,0.000,0.018,0.088,0.000,-0.028,0.335,0.000,-4.233,86.800,86.800
7.123,0.011,0.000,0.009,0.054,0.000,-0.020,0.250,0.000,-4.226,86.800,86.800
7.147,0.011,0.000,-0.003,0.054,0.000,-0.006,0.349,0.000,-4.236,86.800,86.800
7.160,0.011,0.000,-0.012,0.068,0.000,0.004,0.346,0.000,-4.253,86.800,86.800
7.173,0.011,0.000,-0.021,0.069,0.000,0.014,0.425,0.000,-4.276,86.800,86.800
7.186,0.011,0.000,-0.031,0.071,0.000,0.024,0.373,0.000,-4.313,86.800,86.800
7.199,0.011,0.000,-0.038,0.049,0.000,0.034,0.306,0.000,-4.362,86.800,86.800
7.212,0.011,0.000,-0.042,0.031,0.000,0.035,0.004,0.000,-4.421,86.800,86.800
7.225,0.011,0.000,-0.043,0.018,0.000,0.035,-0.009,0.000,-4.487,86.800,86.800
7.249,0.011,0.000,-0.045,0.022,0.000,0.035,0.085,0.000,-4.618,86.800,86.800
7.262,0.011,0.000,-0.045,0.013,0.000,0.035,-0.021,0.000,-4.697,86.800,86.800
7.275,0.011,0.000,-0.042,-0.017,0.000,0.032,-0.171,0.000,-4.770,86.800,86.800
7.288,0.011,0.000,-0.031,-0.085,0.000,0.021,-0.563,0.000,-4.829,86.800,86.800
7.301,0.011,0.000,-0.012,-0.130,0.000,0.006,-0.640,0.000,-4.868,86.800,86.800
7.314,0.011,0.000,0.007,-0.106,0.000,-0.008,-0.494,0.000,-4.886,86.800,86.800
7.338,0.011,0.000,0.015,0.016,0.000,-0.021,-0.337,0.000,-4.902,86.800,86.800
7.351,0.011,0.000,0.016,-0.023,0.000,-0.026,-0.240,0.000,-4.900,86.800,86.800
7.364,0.011,0.000,0.021,-0.036,0.000,-0.029,-0.157,0.000,-4.897,86.800,86.800
7.377,0.011,0.000,0.025,-0.013,0.000,-0.031,-0.159,0.000,-4.898,86.800,86.800
7.390,0.011,0.000,0.024,0.015,0.000,-0.030,0.086,0.000,-4.896,86.800,86.800
7.403,0.011,0.000,0.024,-0.009,0.000,-0.027,-0.056,0.000,-4.896,86.800,86.800
7.416,0.011,0.000,0.025,-0.005,0.000,-0.028,-0.047,0.000,-4.897,86.800,86.800
7.440,0.011,0.000,0.025,0.014,0.000,-0.024,-0.043,0.000,-4.898,86.800,86.800
7.453,0.011,0.000,0.024,-0.002,0.000,-0.026,-0.158,0.000,-4.900,86.800,86.800
7.466,0.011,0.000,0.025,-0.006,0.000,-0.026,0.018,0.000,-4.901,86.800,86.800
7.479,0.011,0.000,0.026,0.001,0.000,-0.026,-0.205,0.000,-4.901,86.800,86.800
7.492,0.011,0.000,0.025,0.007,0.000,-0.029,-0.119,0.000,-4.901,86.800,86.800
7.505,0.011,0.000,0.025,-0.007,0.000,-0.027,0.017,0.000,-4.900,86.800,86.800
7.518,0.011,0.000,0.026,-0.001,0.000,-0.027,-0.063,0.000,-4.901,86.800,86.800
7.542,0.011,0.000,0.026,-0.008,0.000,-0.025,0.074,0.000,-4.900,86.800,86.800
7.555,0.011,0.000,0.026,0.010,0.000,-0.024,-0.098,0.000,-4.901,86.800,86.800
7.568,0.011,0.000,0.025,-0.003,0.000,-0.024,0.016,0.000,-4.902,86.800,86.800
7.581,0.011,0.000,0.027,-0.012,0.000,-0.021,0.010,0.000,-4.902,86.800,86.800
7.594,0.011,0.000,0.027,0.009,0.000,-0.024,-0.249,0.000,-4.903,86.800,86.800
7.607,0.011,0.000,0.026,0.000,0.000,-0.027,-0.095,0.000,-4.904,86.800,86.800
7.631,0.012,0.000,0.027,0.011,0.000,-0.028,-0.193,0.000,-4.905,86.800,86.800
7.644,0.011,0.000,0.026,0.000,0.000,-0.029,0.005,0.000,-4.905,86.800,86.800
7.657,0.011,0.000,0.027,-0.008,0.000,-0.028,-0.050,0.000,-4.906,86.800,86.800
7.670,0.011,0.000,0.027,0.008,0.000,-0.028,-0.063,0.000,-4.906,86.800,86.800
7.683,0.011,0.000,0.027,-0.005,0.000,-0.027,0.001,0.000,-4.907,86.800,86.800
7.696,0.011,0.000,0.027,0.001,0.000,-0.023,0.136,0.000,-4.910,86.800,86.800
7.709,0.011,0.000,0.025,0.014,0.000,-0.024,-0.153,0.000,-4.914,86.800,86.800
7.733,0.011,0.000,0.023,0.003,0.000,-0.023,-0.092,0.000,-4.917,86.800,86.800
7.746,0.011,0.000,0.021,0.010,0.000,-0.024,-0.115,0.000,-4.918,86.800,86.800
7.759,0.011,0.000,0.022,-0.009,0.000,-0.026,-0.136,0.000,-4.918,86.800,86.800
7.772,0.011,0.000,0.023,0.005,0.000,-0.026,-0.007,0.000,-4.917,86.800,86.800
7.785,0.011,0.000,0.022,0.004,0.000,-0.027,-0.184,0.000,-4.915,86.800,86.800
7.798,0.011,0.000,0.023,-0.009,0.000,-0.027,0.019,0.000,-4.916,86.800,86.800
7.822,0.011,0.000,0.024,0.006,0.000,-0.023,0.078,0.000,-4.914,86.800,86.800
7.835,0.011,0.000,0.024,-0.006,0.000,-0.021,-0.029,0.000,-4.915,86.800,86.800
7.848,0.011,0.000,0.025,-0.003,0.000,-0.020,0.014,0.000,-4.916,86.800,86.800
7.861,0.011,0.000,0.024,0.004,0.000,-0.019,-0.003,0.000,-4.913,86.800,86.800
7.874,0.011,0.000,0.024,0.001,0.000,-0.019,-0.092,0.000,-4.914,86.800,86.800
7.887,0.011,0.000,0.023,0.013,0.000,-0.020,-0.076,0.000,-4.914,86.800,86.800
7.900,0.011,0.000,0.022,-0.000,0.000,-0.019,-0.005,0.000,-4.913,86.800,86.800
7.926,0.011,0.000,0.023,0.003,0.000,-0.022,-0.067,0.000,-4.913,86.800,86.800
7.939,0.011,0.000,0.021,0.008,0.000,-0.021,-0.043,0.000,-4.912,86.800,86.800
7.952,0.011,0.000,0.022,-0.010,0.000,-0.022,-0.114,0.000,-4.914,86.800,86.800
7.965,0.011,0.000,0.024,-0.013,0.000,-0.021,0.070,0.000,-4.912,86.800,86.800
7.978,0.011,0.000,0.026,-0.005,0.000,-0.019,-0.045,0.000,-4.911,86.800,86.800
7.991,0.011,0.000,0.024,0.018,0.000,-0.021,-0.183,0.000,-4.913,86.800,86.800
8.015,0.012,0.000,0.027,-0.020,0.000,-0.021,-0.095,0.000,-4.912,86.800,86.800
8.028,0.011,0.000,0.027,0.005,0.000,-0.025,-0.234,0.000,-4.914,86.800,86.800
8.041,0.011,0.000,0.028,-0.010,0.000,-0.027,-0.098,0.000,-4.911,86.800,86.800
8.054,0.011,0.000,0.032,-0.030,0.000,-0.026,-0.028,0.000,-4.907,86.800,86.800
8.067,0.011,0.000,0.035,-0.020,0.000,-0.028,-0.162,0.000,-4.902,86.800,86.800
8.080,0.011,0.000,0.039,-0.030,0.000,-0.027,0.015,0.000,-4.895,86.800,86.800
8.093,0.011,0.000,0.046,-0.059,0.000,-0.025,0.053,0.000,-4.887,86.800,86.800
8.117,0.012,0.000,0.076,-0.140,0.000,-0.008,0.360,0.000,-4.864,86.800,86.800
8.130,0.011,0.000,0.094,-0.123,0.000,0.004,0.494,0.000,-4.845,86.800,86.800
8.143,0.011,0.000,0.108,-0.100,0.000,0.015,0.414,0.000,-4.823,86.800,86.800
8.156,0.011,0.000,0.116,-0.068,0.000,0.030,0.658,0.000,-4.804,86.800,86.800
8.169,0.011,0.000,0.120,-0.035,0.000,0.042,0.443,0.000,-4.789,86.800,86.800
8.182,0.011,0.000,0.122,-0.033,0.000,0.052,0.446,0.000,-4.776,86.800,86.800
8.206,0.012,0.000,0.128,-0.044,0.000,0.066,0.343,0.000,-4.761,86.800,86.800
8.219,0.011,0.000,0.134,-0.073,0.000,0.071,0.280,0.000,-4.755,86.800,86.800
8.232,0.011,0.000,0.143,-0.084,0.000,0.081,0.556,0.000,-4.749,86.800,86.800
8.245,0.011,0.000,0.152,-0.078,0.000,0.091,0.376,0.000,-4.742,86.800,86.800
8.258,0.011,0.000,0.159,-0.076,0.000,0.098,0.441,0.000,-4.734,86.800,86.800
8.271,0.011,0.000,0.167,-0.082,0.000,0.105,0.302,0.000,-4.727,86.800,86.800
8.284,0.011,0.000,0.174,-0.074,0.000,0.108,0.183,0.000,-4.718,86.800,86.800
8.308,0.012,0.000,0.185,-0.074,0.000,0.110,0.207,0.000,-4.699,86.800,86.800
8.321,0.011,0.000,0.189,-0.063,0.000,0.113,0.271,0.000,-4.688,86.800,86.800
8.334,0.011,0.000,0.196,-0.090,0.000,0.119,0.457,0.000,-4.676,86.800,86.800
8.347,0.011,0.000,0.205,-0.099,0.000,0.129,0.539,0.000,-4.664,86.800,86.800
8.360,0.011,0.000,0.215,-0.105,0.000,0.138,0.461,0.000,-4.650,86.800,86.800
8.373,0.011,0.000,0.223,-0.095,0.000,0.144,0.382,0.000,-4.637,86.800,86.800
8.386,0.011,0.000,0.230,-0.085,0.000,0.149,0.324,0.000,-4.624,86.800,86.800
8.410,0.011,0.000,0.234,-0.053,0.000,0.156,0.341,0.000,-4.603,86.800,86.800
8.423,0.011,0.000,0.234,-0.045,0.000,0.161,0.410,0.000,-4.596,86.800,86.800
8.436,0.011,0.000,0.239,-0.092,0.000,0.169,0.526,0.000,-4.588,86.800,86.800
8.449,0.011,0.000,0.248,-0.115,0.000,0.178,0.570,0.000,-4.582,86.800,86.800
8.462,0.011,0.000,0.259,-0.122,0.000,0.190,0.746,0.000,-4.575,86.800,86.800
8.475,0.011,0.000,0.267,-0.098,0.000,0.207,1.031,0.000,-4.566,86.800,86.800
8.499,0.012,0.000,0.273,-0.062,0.000,0.265,1.892,0.000,-4.553,86.800,86.800
8.512,0.011,0.000,0.276,-0.069,0.000,0.314,2.421,0.000,-4.544,86.800,86.800
8.525,0.011,0.000,0.274,-0.031,0.000,0.376,3.179,0.000,-4.532,86.800,86.800
8.538,0.011,0.000,0.270,-0.026,0.000,0.451,3.703,0.000,-4.522,86.800,86.800
8.551,0.011,0.000,0.265,-0.022,0.000,0.541,4.395,0.000,-4.513,86.800,86.800
8.564,0.011,0.000,0.260,-0.020,0.000,0.643,5.050,0.000,-4.505,86.800,86.800
8.577,0.011,0.000,0.259,-0.054,0.000,0.756,5.633,0.000,-4.497,86.800,86.800
8.601,0.011,0.000,0.253,-0.000,0.000,0.978,6.037,0.000,-4.485,86.800,86.800
8.614,0.011,0.000,0.244,0.021,0.000,1.096,6.150,0.000,-4.486,86.800,86.800
8.627,0.011,0.000,0.230,0.057,0.000,1.213,6.125,0.000,-4.493,86.800,86.800
8.640,0.011,0.000,0.214,0.057,0.000,1.317,5.578,0.000,-4.506,86.800,86.800
8.653,0.011,0.000,0.202,0.033,0.000,1.395,4.563,0.000,-4.521,86.800,86.800
8.666,0.011,0.000,0.192,0.022,0.000,1.437,2.978,0.000,-4.536,86.800,86.800
8.679,0.011,0.000,0.189,-0.041,0.000,1.437,1.249,0.000,-4.547,86.800,86.800
8.703,0.011,0.000,0.203,-0.115,0.000,1.346,-1.110,0.000,-4.557,86.800,86.800
8.716,0.011,0.000,0.219,-0.166,0.000,1.256,-2.345,0.000,-4.558,86.800,86.800
8.729,0.011,0.000,0.234,-0.127,0.000,1.149,-2.900,0.000,-4.561,86.800,86.800
8.742,0.011,0.000,0.239,-0.062,0.000,1.038,-3.106,0.000,-4.568,86.800,86.800
8.755,0.011,0.000,0.241,-0.061,0.000,0.929,-3.069,0.000,-4.574,86.800,86.800
8.768,0.011,0.000,0.241,-0.047,0.000,0.827,-2.864,0.000,-4.584,86.800,86.800
8.792,0.011,0.000,0.246,-0.095,0.000,0.669,-2.111,0.000,-4.613,86.800,86.800
8.805,0.011,0.000,0.253,-0.093,0.000,0.612,-1.135,0.000,-4.635,86.800,86.800
8.818,0.011,0.000,0.260,-0.110,0.000,0.582,0.044,0.000,-4.655,86.800,86.800
8.831,0.011,0.000,0.269,-0.115,0.000,0.591,1.584,0.000,-4.675,86.800,86.800
8.844,0.011,0.000,0.270,-0.031,0.000,0.644,3.528,0.000,-4.699,86.800,86.800
8.857,0.011,0.000,0.260,0.027,0.000,0.737,5.307,0.000,-4.727,86.800,86.800
8.870,0.011,0.000,0.243,0.074,0.000,0.875,7.030,0.000,-4.763,86.800,86.800
8.894,0.011,0.000,0.207,0.067,0.000,1.201,9.121,0.000,-4.848,86.800,86.800
8.907,0.011,0.000,0.192,0.056,0.000,1.394,9.511,0.000,-4.901,86.800,86.800
8.920,0.011,0.000,0.177,0.064,0.000,1.575,8.979,0.000,-4.955,86.800,86.800
8.933,0.011,0.000,0.167,0.011,0.000,1.728,7.922,0.000,-5.005,86.800,86.800
8.946,0.011,0.000,0.166,-0.038,0.000,1.840,6.137,0.000,-5.041,86.800,86.800
8.959,0.011,0.000,0.169,-0.062,0.000,1.888,3.634,0.000,-5.062,86.800,86.800
8.972,0.011,0.000,0.179,-0.126,0.000,1.864,0.469,0.000,-5.066,86.800,86.800
8.996,0.012,0.000,0.207,-0.159,0.000,1.665,-3.758,0.000,-5.042,86.800,86.800
9.009,0.011,0.000,0.229,-0.209,0.000,1.477,-6.338,0.000,-5.011,86.800,86.800
9.022,0.011,0.000,0.256,-0.243,0.000,1.244,-8.047,0.000,-4.970,86.800,86.800
9.035,0.011,0.000,0.287,-0.271,0.000,0.988,-9.089,0.000,-4.924,86.800,86.800
9.048,0.011,0.000,0.316,-0.249,0.000,0.738,-8.694,0.000,-4.876,86.800,86.800
9.061,0.011,0.000,0.323,-0.030,0.000,0.540,-6.191,0.000,-4.833,86.800,86.800
9.089,0.012,0.000,0.319,-0.110,0.000,0.355,-0.105,0.000,-4.792,86.800,86.800
9.102,0.011,0.000,0.313,0.024,0.000,0.402,3.555,0.000,-4.791,86.800,86.800
9.115,0.011,0.000,0.293,0.079,0.000,0.520,6.258,0.000,-4.797,86.800,86.800
9.128,0.011,0.000,0.269,0.118,0.000,0.691,8.192,0.000,-4.822,86.800,86.800
9.141,0.011,0.000,0.239,0.145,0.000,0.893,9.482,0.000,-4.863,86.800,86.800
9.154,0.011,0.000,0.215,0.095,0.000,1.105,9.850,0.000,-4.904,86.800,86.800
9.167,0.011,0.000,0.199,0.040,0.000,1.304,9.255,0.000,-4.934,86.800,86.800
9.191,0.012,0.000,0.194,-0.067,0.000,1.567,6.161,0.000,-4.962,86.800,86.800
9.204,0.011,0.000,0.198,-0.076,0.000,1.627,3.669,0.000,-4.966,86.800,86.800
9.217,0.011,0.000,0.205,-0.106,0.000,1.624,1.286,0.000,-4.957,86.800,86.800
9.230,0.011,0.000,0.217,-0.128,0.000,1.558,-1.440,0.000,-4.938,86.800,86.800
9.243,0.011,0.000,0.229,-0.149,0.000,1.439,-3.602,0.000,-4.911,86.800,86.800
9.256,0.011,0.000,0.248,-0.196,0.000,1.272,-5.362,0.000,-4.876,86.800,86.800
9.269,0.011,0.000,0.271,-0.201,0.000,1.079,-6.653,0.000,-4.839,86.800,86.800
9.293,0.012,0.000,0.302,-0.162,0.000,0.703,-6.923,0.000,-4.786,86.800,86.800
9.306,0.011,0.000,0.305,-0.009,0.000,0.530,-5.489,0.000,-4.768,86.800,86.800
9.319,0.011,0.000,0.285,0.092,0.000,0.409,-3.740,0.000,-4.762,86.800,86.800
9.332,0.011,0.000,0.269,0.012,0.000,0.338,-1.720,0.000,-4.767,86.800,86.800
9.345,0.011,0.000,0.266,-0.061,0.000,0.308,-0.363,0.000,-4.778,86.800,86.800
9.358,0.011,0.000,0.270,-0.091,0.000,0.309,0.735,0.000,-4.783,86.800,86.800
9.382,0.012,0.000,0.274,-0.049,0.000,0.345,1.171,0.000,-4.777,86.800,86.800
9.395,0.011,0.000,0.266,-0.005,0.000,0.349,0.330,0.000,-4.781,86.800,86.800
9.408,0.011,0.000,0.260,-0.028,0.000,0.336,-0.203,0.000,-4.780,86.800,86.800
9.421,0.011,0.000,0.255,0.008,0.000,0.306,-1.035,0.000,-4.768,86.800,86.800
9.434,0.011,0.000,0.232,0.129,0.000,0.263,-1.400,0.000,-4.755,86.800,86.800
9.447,0.011,0.000,0.200,0.156,0.000,0.223,-1.182,0.000,-4.756,86.800,86.800
9.460,0.011,0.000,0.174,0.117,0.000,0.193,-0.790,0.000,-4.767,86.800,86.800
9.484,0.011,0.000,0.152,-0.015,0.000,0.167,-0.040,0.000,-4.773,86.800,86.800
9.497,0.011,0.000,0.147,0.011,0.000,0.158,-0.196,0.000,-4.775,86.800,86.800
9.510,0.011,0.000,0.137,0.039,0.000,0.149,-0.091,0.000,-4.782,86.800,86.800
9.523,0.011,0.000,0.124,0.058,0.000,0.143,-0.061,0.000,-4.789,86.800,86.800
9.536,0.011,0.000,0.110,0.056,0.000,0.133,-0.274,0.000,-4.793,86.800,86.800
9.549,0.011,0.000,0.100,0.028,0.000,0.120,-0.327,0.000,-4.799,86.800,86.800
9.573,0.012,0.000,0.088,0.020,0.000,0.106,-0.118,0.000,-4.807,86.800,86.800
9.586,0.011,0.000,0.083,-0.006,0.000,0.101,0.020,0.000,-4.808,86.800,86.800
9.599,0.011,0.000,0.081,-0.010,0.000,0.098,-0.005,0.000,-4.810,86.800,86.800
9.612,0.011,0.000,0.077,0.003,0.000,0.094,-0.007,0.000,-4.811,86.800,86.800
9.625,0.011,0.000,0.074,-0.003,0.000,0.089,-0.053,0.000,-4.813,86.800,86.800
9.638,0.011,0.000,0.069,0.008,0.000,0.086,0.021,0.000,-4.815,86.800,86.800
9.651,0.011,0.000,0.064,0.019,0.000,0.080,-0.170,0.000,-4.817,86.800,86.800
9.675,0.012,0.000,0.054,0.011,0.000,0.071,-0.127,0.000,-4.821,86.800,86.800
9.688,0.011,0.000,0.048,0.021,0.000,0.066,-0.073,0.000,-4.822,86.800,86.800
9.701,0.011,0.000,0.044,0.006,0.000,0.061,-0.126,0.000,-4.824,86.800,86.800
9.714,0.011,0.000,0.040,0.003,0.000,0.058,0.001,0.000,-4.824,86.800,86.800
9.727,0.011,0.000,0.038,-0.005,0.000,0.054,-0.062,0.000,-4.823,86.800,86.800
9.740,0.011,0.000,0.037,-0.017,0.000,0.053,0.041,0.000,-4.825,86.800,86.800
9.753,0.011,0.000,0.038,-0.023,0.000,0.051,0.006,0.000,-4.826,86.800,86.800
9.777,0.011,0.000,0.037,-0.017,0.000,0.050,-0.044,0.000,-4.826,86.800,86.800
9.790,0.011,0.000,0.037,-0.022,0.000,0.049,0.107,0.000,-4.828,86.800,86.800
9.803,0.011,0.000,0.039,-0.030,0.000,0.051,0.124,0.000,-4.826,86.800,86.800
9.816,0.011,0.000,0.040,-0.019,0.000,0.051,0.092,0.000,-4.826,86.800,86.800
9.829,0.011,0.000,0.040,-0.016,0.000,0.050,0.053,0.000,-4.826,86.800,86.800
9.842,0.011,0.000,0.040,-0.020,0.000,0.053,0.237,0.000,-4.824,86.800,86.800
9.866,0.012,0.000,0.042,-0.024,0.000,0.052,0.125,0.000,-4.824,86.800,86.800
9.879,0.011,0.000,0.043,-0.025,0.000,0.055,0.122,0.000,-4.823,86.800,86.800
9.892,0.011,0.000,0.044,-0.019,0.000,0.053,-0.002,0.000,-4.824,86.800,86.800
9.905,0.011,0.000,0.044,-0.022,0.000,0.052,0.114,0.000,-4.823,86.800,86.800
9.918,0.011,0.000,0.045,-0.032,0.000,0.053,0.110,0.000,-4.822,86.800,86.800
9.931,0.011,0.000,0.044,-0.005,0.000,0.051,-0.017,0.000,-4.824,86.800,86.800
9.944,0.011,0.000,0.044,-0.026,0.000,0.051,0.145,0.000,-4.824,86.800,86.800
9.968,0.011,0.000,0.045,-0.014,0.000,0.051,-0.048,0.000,-4.824,86.800,86.800
9.981,0.011,0.000,0.043,-0.013,0.000,0.051,0.153,0.000,-4.824,86.800,86.800
9.994,0.011,0.000,0.044,-0.025,0.000,0.053,0.044,0.000,-4.825,86.800,86.800
10.007,0.011,0.000,0.043,-0.003,0.000,0.049,-0.081,0.000,-4.826,86.800,86.800
10.020,0.011,0.000,0.043,-0.027,0.000,0.048,0.092,0.000,-4.827,86.800,86.800
10.033,0.011,0.000,0.043,-0.010,0.000,0.048,0.033,0.000,-4.828,86.800,86.800
10.046,0.011,0.000,0.041,-0.010,0.000,0.046,-0.054,0.000,-4.828,86.800,86.800
10.070,0.011,0.000,0.043,-0.026,0.000,0.046,0.096,0.000,-4.829,86.800,86.800
10.083,0.011,0.000,0.041,0.001,0.000,0.043,-0.004,0.000,-4.828,86.800,86.800
10.096,0.011,0.000,0.041,-0.026,0.000,0.045,0.183,0.000,-4.828,86.800,86.800
10.109,0.011,0.000,0.042,-0.021,0.000,0.045,0.033,0.000,-4.828,86.800,86.800
10.122,0.011,0.000,0.041,-0.011,0.000,0.045,0.084,0.000,-4.828,86.800,86.800
10.135,0.011,0.000,0.042,-0.030,0.000,0.045,0.069,0.000,-4.828,86.800,86.800
10.159,0.012,0.000,0.042,-0.012,0.000,0.043,-0.038,0.000,-4.827,86.800,86.800
10.172,0.011,0.000,0.042,-0.029,0.000,0.044,0.118,0.000,-4.828,86.800,86.800
10.185,0.011,0.000,0.043,-0.013,0.000,0.042,-0.021,0.000,-4.827,86.800,86.800
10.198,0.011,0.000,0.041,-0.015,0.000,0.042,0.113,0.000,-4.826,86.800,86.800
10.211,0.011,0.000,0.043,-0.034,0.000,0.042,0.010,0.000,-4.827,86.800,86.800
10.224,0.011,0.000,0.043,-0.012,0.000,0.042,0.082,0.000,-4.827,86.800,86.800
10.237,0.011,0.000,0.042,-0.015,0.000,0.041,0.027,0.000,-4.827,86.800,86.800
10.261,0.012,0.000,0.043,-0.014,0.000,0.041,0.054,0.000,-4.829,86.800,86.800
10.274,0.011,0.000,0.042,-0.015,0.000,0.042,0.128,0.000,-4.828,86.800,86.800
10.287,0.011,0.000,0.042,-0.022,0.000,0.040,-0.042,0.000,-4.831,86.800,86.800
10.300,0.011,0.000,0.041,-0.013,0.000,0.039,0.084,0.000,-4.831,86.800,86.800
10.313,0.011,0.000,0.040,-0.015,0.000,0.039,0.058,0.000,-4.830,86.800,86.800
10.326,0.011,0.000,0.040,-0.015,0.000,0.037,-0.011,0.000,-4.833,86.800,86.800
10.354,0.012,0.000,0.037,-0.017,0.000,0.036,-0.010,0.000,-4.834,86.800,86.800
10.367,0.011,0.000,0.036,-0.010,0.000,0.034,-0.001,0.000,-4.835,86.800,86.800
10.380,0.011,0.000,0.036,-0.017,0.000,0.035,0.138,0.000,-4.834,86.800,86.800
10.393,0.011,0.000,0.035,-0.015,0.000,0.034,-0.036,0.000,-4.836,86.800,86.800
10.406,0.011,0.000,0.034,-0.012,0.000,0.031,-0.032,0.000,-4.838,86.800,86.800
10.419,0.011,0.000,0.034,-0.017,0.000,0.033,0.183,0.000,-4.836,86.800,86.800
10.432,0.011,0.000,0.033,-0.015,0.000,0.032,-0.006,0.000,-4.839,86.800,86.800
10.456,0.011,0.000,0.031,-0.016,0.000,0.032,0.120,0.000,-4.840,86.800,86.800
10.469,0.011,0.000,0.030,-0.004,0.000,0.030,-0.072,0.000,-4.842,86.800,86.800
10.482,0.011,0.000,0.029,-0.016,0.000,0.028,-0.016,0.000,-4.842,86.800,86.800
10.495,0.011,0.000,0.030,-0.023,0.000,0.030,0.139,0.000,-4.842,86.800,86.800
10.508,0.011,0.000,0.030,-0.009,0.000,0.028,-0.104,0.000,-4.843,86.800,86.800
10.521,0.011,0.000,0.028,-0.007,0.000,0.027,0.075,0.000,-4.843,86.800,86.800
10.549,0.012,0.000,0.026,0.002,0.000,0.026,-0.046,0.000,-4.843,86.800,86.800
10.562,0.011,0.000,0.027,-0.029,0.000,0.027,0.115,0.000,-4.842,86.800,86.800
10.575,0.011,0.000,0.028,-0.018,0.000,0.029,0.097,0.000,-4.842,86.800,86.800
10.588,0.011,0.000,0.027,-0.009,0.000,0.027,-0.078,0.000,-4.842,86.800,86.800
10.601,0.011,0.000,0.027,-0.024,0.000,0.028,0.178,0.000,-4.842,86.800,86.800
10.614,0.011,0.000,0.028,-0.016,0.000,0.028,-0.055,0.000,-4.842,86.800,86.800
10.627,0.011,0.000,0.026,-0.002,0.000,0.027,0.055,0.000,-4.842,86.800,86.800
10.651,0.011,0.000,0.027,-0.006,0.000,0.029,0.049,0.000,-4.844,86.800,86.800
10.664,0.011,0.000,0.024,-0.006,0.000,0.027,-0.036,0.000,-4.843,86.800,86.800
10.677,0.011,0.000,0.025,-0.025,0.000,0.028,0.133,0.000,-4.844,86.800,86.800
10.690,0.011,0.000,0.025,-0.011,0.000,0.028,-0.032,0.000,-4.844,86.800,86.800
10.703,0.011,0.000,0.023,-0.004,0.000,0.027,0.111,0.000,-4.844,86.800,86.800
10.716,0.011,0.000,0.025,-0.034,0.000,0.028,0.038,0.000,-4.846,86.800,86.800
10.740,0.011,0.000,0.026,-0.021,0.000,0.027,0.045,0.000,-4.846,86.800,86.800
10.753,0.011,0.000,0.028,-0.031,0.000,0.027,0.069,0.000,-4.849,86.800,86.800
10.766,0.011,0.000,0.028,-0.015,0.000,0.028,0.063,0.000,-4.850,86.800,86.800
10.779,0.011,0.000,0.028,-0.012,0.000,0.028,0.076,0.000,-4.849,86.800,86.800
10.792,0.011,0.000,0.029,-0.028,0.000,0.028,0.018,0.000,-4.852,86.800,86.800
10.805,0.011,0.000,0.028,-0.008,0.000,0.027,0.018,0.000,-4.852,86.800,86.800
10.818,0.011,0.000,0.028,-0.025,0.000,0.028,0.047,0.000,-4.851,86.800,86.800
10.842,0.011,0.000,0.030,-0.020,0.000,0.026,0.097,0.000,-4.852,86.800,86.800
10.855,0.011,0.000,0.031,-0.023,0.000,0.026,0.053,0.000,-4.851,86.800,86.800
10.868,0.011,0.000,0.031,-0.018,0.000,0.027,0.072,0.000,-4.853,86.800,86.800
10.881,0.011,0.000,0.031,-0.010,0.000,0.028,0.117,0.000,-4.851,86.800,86.800
10.894,0.011,0.000,0.031,-0.024,0.000,0.030,0.081,0.000,-4.850,86.800,86.800
10.907,0.011,0.000,0.031,-0.016,0.000,0.027,-0.071,0.000,-4.852,86.800,86.800
10.931,0.011,0.000,0.031,-0.022,0.000,0.027,-0.047,0.000,-4.851,86.800,86.800
10.944,0.011,0.000,0.030,-0.010,0.000,0.025,-0.006,0.000,-4.853,86.800,86.800
10.957,0.011,0.000,0.031,-0.026,0.000,0.025,0.047,0.000,-4.851,86.800,86.800
10.970,0.011,0.000,0.032,-0.021,0.000,0.024,0.022,0.000,-4.851,86.800,86.800
10.983,0.011,0.000,0.032,-0.016,0.000,0.022,-0.044,0.000,-4.852,86.800,82.300
10.996,0.011,0.000,0.032,-0.016,0.000,0.022,-0.044,0.000,-4.852,86.800,62.800
11.009,0.011,0.000,0.032,-0.016,0.000,0.022,-0.044,0.000,-4.852,86.800,43.300
11.033,0.012,0.000,0.032,-0.016,0.000,0.022,-0.044,0.000,-4.852,86.800,7.300
11.046,0.011,0.000,0.028,0.000,0.000,-0.004,0.000,0.000,-4.856,0.000,0.000
11.059,0.011,0.000,0.025,0.000,0.000,-0.010,0.000,0.000,-4.858,0.000,0.000
11.072,0.011,0.000,0.023,0.000,0.000,-0.009,0.000,0.000,-4.859,0.000,0.000
11.085,0.011,0.000,0.024,0.000,0.000,-0.009,0.000,0.000,-4.859,0.000,0.000
11.098,0.011,0.000,0.024,0.000,0.000,-0.010,0.000,0.000,-4.859,0.000,0.000
11.111,0.011,0.000,0.024,0.000,0.000,-0.010,0.000,0.000,-4.862,0.000,0.000
11.135,0.011,0.000,0.025,0.000,0.000,-0.009,0.000,0.000,-4.863,0.000,0.000
11.148,0.011,0.000,0.027,0.000,0.000,-0.009,0.000,0.000,-4.864,0.000,0.000
11.161,0.011,0.000,0.028,0.000,0.000,-0.009,0.000,0.000,-4.866,0.000,0.000
11.174,0.011,0.000,0.026,0.000,0.000,-0.009,0.000,0.000,-4.864,0.000,0.000
11.187,0.011,0.000,0.026,0.000,0.000,-0.009,0.000,0.000,-4.864,0.000,0.000
11.200,0.011,0.000,0.028,0.000,0.000,-0.010,0.000,0.000,-4.866,0.000,0.000
11.224,0.011,0.000,0.027,0.000,0.000,-0.009,0.000,0.000,-4.866,0.000,0.000
11.237,0.011,0.000,0.028,0.000,0.000,-0.010,0.000,0.000,-4.867,0.000,0.000
11.250,0.011,0.000,0.028,0.000,0.000,-0.010,0.000,0.000,-4.868,0.000,0.000
11.263,0.011,0.000,0.028,0.000,0.000,-0.008,0.000,0.000,-4.869,0.000,0.000
11.276,0.011,0.000,0.027,0.000,0.000,-0.009,0.000,0.000,-4.870,0.000,0.000
11.289,0.011,0.000,0.027,0.000,0.000,-0.009,0.000,0.000,-4.871,0.000,0.000
11.302,0.011,0.000,0.028,0.000,0.000,-0.008,0.000,0.000,-4.872,0.000,0.000
11.326,0.012,0.000,0.028,0.000,0.000,-0.009,0.000,0.000,-4.872,0.000,0.000
11.339,0.011,0.000,0.029,0.000,0.000,-0.008,0.000,0.000,-4.874,0.000,0.000
11.352,0.011,0.000,0.029,0.000,0.000,-0.007,0.000,0.000,-4.873,0.000,0.000
11.365,0.011,0.000,0.029,0.000,0.000,-0.008,0.000,0.000,-4.873,0.000,0.000
11.378,0.011,0.000,0.029,0.000,0.000,-0.008,0.000,0.000,-4.875,0.000,0.000
11.391,0.011,0.000,0.029,0.000,0.000,-0.007,0.000,0.000,-4.875,0.000,0.000
11.404,0.011,0.000,0.030,0.000,0.000,-0.007,0.000,0.000,-4.874,0.000,0.000
