timestamp_s,dt_s,pitch_setpoint,pitch_measurement,pitch_command,pitch_control,roll_setpoint,roll_measurement,roll_command,roll_control,yaw_setpoint,yaw_measurement,yaw_command,yaw_control,throttle
0.095,0.095,0.000,-0.016,0.000,0.000,0.005,0.000,0.000,-3.976,0.000,0.000
0.108,0.011,0.000,-0.014,0.000,0.000,0.009,0.000,0.000,-3.979,0.000,0.000
0.122,0.012,0.000,-0.013,0.000,0.000,0.008,0.000,0.000,-3.979,0.000,0.000
0.135,0.011,0.000,-0.013,0.000,0.000,0.008,0.000,0.000,-3.979,0.000,0.000
0.148,0.011,0.000,-0.013,0.000,0.000,0.007,0.000,0.000,-3.979,0.000,0.000
0.161,0.011,0.000,-0.013,0.000,0.000,0.007,0.000,0.000,-3.979,0.000,0.000
0.185,0.011,0.000,-0.013,0.000,0.000,0.008,0.000,0.000,-3.979,0.000,0.000
0.198,0.011,0.000,-0.013,0.000,0.000,0.008,0.000,0.000,-3.980,0.000,0.000
0.211,0.011,0.000,-0.014,0.000,0.000,0.009,0.000,0.000,-3.979,0.000,0.000
0.224,0.011,0.000,-0.014,0.000,0.000,0.009,0.000,0.000,-3.979,0.000,0.000
0.237,0.011,0.000,-0.015,0.000,0.000,0.009,0.000,0.000,-3.979,0.000,0.000
0.250,0.011,0.000,-0.014,0.000,0.000,0.009,0.000,0.000,-3.979,0.000,0.000
0.274,0.011,0.000,-0.015,0.000,0.000,0.008,0.000,0.000,-3.979,0.000,0.000
0.287,0.011,0.000,-0.015,0.000,0.000,0.006,0.000,0.000,-3.979,0.000,0.000
0.300,0.011,0.000,-0.014,0.000,0.000,0.006,0.000,0.000,-3.979,0.000,0.000
0.313,0.011,0.000,-0.014,0.000,0.000,0.006,0.000,0.000,-3.980,0.000,0.000
0.326,0.011,0.000,-0.014,0.000,0.000,0.007,0.000,0.000,-3.980,0.000,0.000
0.339,0.011,0.000,-0.014,0.000,0.000,0.006,0.000,0.000,-3.980,0.000,0.000
0.352,0.011,0.000,-0.014,0.000,0.000,0.006,0.000,0.000,-3.980,0.000,0.000
0.374,0.012,0.000,-0.014,0.000,0.000,0.005,0.000,0.000,-3.980,0.000,0.000
0.387,0.011,0.000,-0.014,0.000,0.000,0.005,0.000,0.000,-3.980,0.000,0.000
0.400,0.011,0.000,-0.014,0.000,0.000,0.005,0.000,0.000,-3.981,0.000,0.000
0.413,0.011,0.000,-0.013,0.000,0.000,0.005,0.000,0.000,-3.981,0.000,0.000
0.426,0.011,0.000,-0.013,0.000,0.000,0.005,0.000,0.000,-3.982,0.000,0.000
0.439,0.011,0.000,-0.012,0.000,0.000,0.005,0.000,0.000,-3.982,0.000,0.000
0.452,0.011,0.000,-0.012,0.000,0.000,0.005,0.000,0.000,-3.982,0.000,0.000
0.476,0.012,0.000,-0.012,0.000,0.000,0.006,0.000,0.000,-3.983,0.000,0.000
0.489,0.011,0.000,-0.012,0.000,0.000,0.007,0.000,0.000,-3.982,0.000,0.000
0.502,0.011,0.000,-0.013,0.000,0.000,0.008,0.000,0.000,-3.982,0.000,0.000
0.515,0.011,0.000,-0.013,0.000,0.000,0.009,0.000,0.000,-3.982,0.000,0.000
0.528,0.011,0.000,-0.013,0.000,0.000,0.009,0.000,0.000,-3.982,0.000,0.000
0.541,0.011,0.000,-0.013,0.000,0.000,0.009,0.000,0.000,-3.981,0.000,0.000
0.554,0.011,0.000,-0.013,0.000,0.000,0.009,0.000,0.000,-3.981,0.000,0.000
0.578,0.012,0.000,-0.014,0.000,0.000,0.010,0.000,0.000,-3.982,0.000,0.000
0.591,0.011,0.000,-0.014,0.000,0.000,0.009,0.000,0.000,-3.982,0.000,0.000
0.604,0.011,0.000,-0.015,0.000,0.000,0.010,0.000,0.000,-3.982,0.000,0.000
0.617,0.011,0.000,-0.015,0.000,0.000,0.010,0.000,0.000,-3.983,0.000,0.000
0.630,0.011,0.000,-0.015,0.000,0.000,0.010,0.000,0.000,-3.983,0.000,0.000
0.643,0.011,0.000,-0.015,0.000,0.000,0.010,0.000,0.000,-3.982,0.000,0.000
0.656,0.011,0.000,-0.015,0.000,0.000,0.010,0.000,0.000,-3.982,0.000,0.000
0.683,0.011,0.000,-0.014,0.000,0.000,0.010,0.000,0.000,-3.981,0.000,0.000
0.696,0.011,0.000,-0.013,0.000,0.000,0.010,0.000,0.000,-3.981,0.000,0.000
0.709,0.011,0.000,-0.014,0.000,0.000,0.010,0.000,0.000,-3.981,0.000,0.000
0.722,0.011,0.000,-0.015,0.000,0.000,0.011,0.000,0.000,-3.981,0.000,0.000
0.735,0.011,0.000,-0.015,0.000,0.000,0.011,0.000,0.000,-3.980,0.000,0.000
0.748,0.011,0.000,-0.015,0.000,0.000,0.010,0.000,0.000,-3.980,0.000,0.000
0.761,0.011,0.000,-0.015,0.000,0.000,0.010,0.000,0.000,-3.980,0.000,0.000
0.785,0.011,0.000,-0.015,0.000,0.000,0.009,0.000,0.000,-3.980,0.000,0.000
0.798,0.011,0.000,-0.016,0.000,0.000,0.009,0.000,0.000,-3.981,0.000,0.000
0.811,0.011,0.000,-0.015,0.000,0.000,0.009,0.000,0.000,-3.981,0.000,0.000
0.824,0.011,0.000,-0.015,0.000,0.000,0.009,0.000,0.000,-3.981,0.000,0.000
0.837,0.011,0.000,-0.016,0.000,0.000,0.008,0.000,0.000,-3.981,0.000,0.000
0.850,0.011,0.000,-0.017,0.000,0.000,0.008,0.000,0.000,-3.981,0.000,0.000
0.877,0.011,0.000,-0.017,0.000,0.000,0.008,0.000,0.000,-3.981,0.000,0.000
0.890,0.011,0.000,-0.016,0.000,0.000,0.008,0.000,0.000,-3.982,0.000,0.000
0.903,0.011,0.000,-0.015,0.000,0.000,0.008,0.000,0.000,-3.982,0.000,0.000
0.916,0.011,0.000,-0.015,0.000,0.000,0.008,0.000,0.000,-3.983,0.000,0.000
0.929,0.011,0.000,-0.014,0.000,0.000,0.008,0.000,0.000,-3.983,0.000,0.000
0.942,0.011,0.000,-0.014,0.000,0.000,0.008,0.000,0.000,-3.983,0.000,0.000
0.955,0.011,0.000,-0.014,0.000,0.000,0.007,0.000,0.000,-3.983,0.000,0.000
0.979,0.012,0.000,-0.014,0.000,0.000,0.008,0.000,0.000,-3.984,0.000,0.000
0.992,0.011,0.000,-0.015,0.000,0.000,0.007,0.000,0.000,-3.984,0.000,0.000
1.005,0.011,0.000,-0.015,0.000,0.000,0.007,0.000,0.000,-3.985,0.000,0.000
1.018,0.011,0.000,-0.016,0.000,0.000,0.006,0.000,0.000,-3.985,0.000,0.000
1.031,0.011,0.000,-0.016,0.000,0.000,0.006,0.000,0.000,-3.985,0.000,0.000
1.044,0.011,0.000,-0.016,0.000,0.000,0.006,0.000,0.000,-3.985,0.000,0.000
1.057,0.011,0.000,-0.016,0.000,0.000,0.005,0.000,0.000,-3.985,0.000,0.000
1.081,0.012,0.000,-0.016,0.000,0.000,0.005,0.000,0.000,-3.986,0.000,0.000
1.094,0.011,0.000,-0.015,0.000,0.000,0.004,0.000,0.000,-3.987,0.000,0.000
1.107,0.011,0.000,-0.015,0.000,0.000,0.004,0.000,0.000,-3.987,0.000,0.000
1.120,0.011,0.000,-0.015,0.000,0.000,0.004,0.000,0.000,-3.988,0.000,0.000
1.133,0.011,0.000,-0.015,0.000,0.000,0.003,0.000,0.000,-3.988,0.000,0.000
1.146,0.011,0.000,-0.015,0.000,0.000,0.003,0.000,0.000,-3.988,0.000,0.000
1.159,0.011,0.000,-0.015,0.000,0.000,0.003,0.000,0.000,-3.987,0.000,0.000
1.183,0.011,0.000,-0.014,0.000,0.000,0.003,0.000,0.000,-3.987,0.000,0.000
1.196,0.011,0.000,-0.014,0.000,0.000,0.003,0.000,0.000,-3.987,0.000,0.000
1.209,0.011,0.000,-0.014,0.000,0.000,0.003,0.000,0.000,-3.987,0.000,0.000
1.222,0.011,0.000,-0.015,0.000,0.000,0.003,0.000,0.000,-3.987,0.000,0.000
1.235,0.011,0.000,-0.016,0.000,0.000,0.004,0.000,0.000,-3.988,0.000,0.000
1.248,0.011,0.000,-0.016,0.000,0.000,0.004,0.000,0.000,-3.988,0.000,0.000
1.261,0.011,0.000,-0.016,0.000,0.000,0.005,0.000,0.000,-3.988,0.000,0.000
1.285,0.011,0.000,-0.016,0.000,0.000,0.004,0.000,0.000,-3.989,0.000,0.000
1.298,0.011,0.000,-0.017,0.000,0.000,0.004,0.000,0.000,-3.990,0.000,0.000
1.311,0.011,0.000,-0.017,0.000,0.000,0.004,0.000,0.000,-3.992,0.000,0.000
1.324,0.011,0.000,-0.017,0.000,0.000,0.005,0.000,0.000,-3.993,0.000,0.000
1.337,0.011,0.000,-0.017,0.000,0.000,0.005,0.000,0.000,-3.995,0.000,0.000
1.350,0.011,0.000,-0.017,0.000,0.000,0.004,0.000,0.000,-3.997,0.000,0.000
1.363,0.011,0.000,-0.013,0.000,0.000,0.005,0.000,0.000,-3.997,0.000,0.000
1.387,0.011,0.000,-0.007,0.000,0.000,0.003,0.000,0.000,-3.991,0.000,0.000
1.400,0.011,0.000,-0.008,0.000,0.000,0.002,0.000,0.000,-3.989,0.000,0.000
1.413,0.011,0.000,-0.008,0.000,0.000,0.002,0.000,0.000,-3.988,0.000,0.000
1.426,0.011,0.000,-0.006,0.000,0.000,0.002,0.000,0.000,-3.987,0.000,0.000
1.439,0.011,0.000,-0.004,0.000,0.000,0.002,0.000,0.000,-3.986,0.000,0.000
1.452,0.011,0.000,-0.005,0.000,0.000,0.002,0.000,0.000,-3.986,0.000,0.000
1.476,0.011,0.000,-0.006,0.000,0.000,0.003,0.000,0.000,-3.987,0.000,0.000
1.489,0.011,0.000,-0.001,0.000,0.000,0.007,0.000,0.000,-3.987,0.000,0.000
1.502,0.011,0.000,0.006,0.000,0.000,0.011,0.000,0.000,-3.985,0.000,0.000
1.515,0.011,0.000,0.011,0.000,0.000,0.014,0.000,0.000,-3.982,0.000,0.000
1.528,0.011,0.000,0.015,0.000,0.000,0.016,0.000,0.000,-3.980,0.000,0.000
1.541,0.011,0.000,0.020,0.000,0.000,0.019,0.000,0.000,-3.978,0.000,0.000
1.554,0.011,0.000,0.028,0.000,0.000,0.024,0.000,0.000,-3.976,0.000,0.000
1.578,0.011,0.000,0.060,0.000,0.000,0.046,0.000,0.000,-3.969,0.000,0.000
1.591,0.011,0.000,0.083,0.000,0.000,0.067,0.000,0.000,-3.959,0.000,0.000
1.604,0.011,0.000,0.110,0.000,0.000,0.090,0.000,0.000,-3.944,0.000,0.000
1.617,0.011,0.000,0.141,0.000,0.000,0.114,0.000,0.000,-3.929,0.000,0.000
1.630,0.011,0.000,0.175,0.000,0.000,0.138,0.000,0.000,-3.912,0.000,0.000
1.643,0.011,0.000,0.206,0.000,0.000,0.162,0.000,0.000,-3.895,0.000,0.000
1.656,0.011,0.000,0.232,0.000,0.000,0.183,0.000,0.000,-3.879,0.000,0.000
1.680,0.012,0.000,0.268,0.000,0.000,0.208,0.000,0.000,-3.855,0.000,0.000
1.693,0.011,0.000,0.288,0.000,0.000,0.218,0.000,0.000,-3.846,0.000,0.000
1.706,0.011,0.000,0.316,0.000,0.000,0.231,0.000,0.000,-3.844,0.000,0.000
1.719,0.011,0.000,0.359,0.000,0.000,0.245,0.000,0.000,-3.850,0.000,0.000
1.732,0.011,0.000,0.424,0.000,0.000,0.259,0.000,0.000,-3.865,0.000,0.000
1.745,0.011,0.000,0.520,0.000,0.000,0.275,0.000,0.000,-3.890,0.000,0.000
1.758,0.011,0.000,0.649,0.000,0.000,0.291,0.000,0.000,-3.922,0.000,0.000
1.780,0.012,0.000,0.957,0.000,0.000,0.306,0.000,0.000,-3.993,0.000,0.000
1.793,0.011,0.000,1.200,0.000,0.000,0.309,0.000,0.000,-4.042,0.000,0.000
1.806,0.011,0.000,1.487,0.000,0.000,0.314,0.000,0.000,-4.094,0.000,0.000
1.819,0.011,0.000,1.817,0.000,0.000,0.323,0.000,0.000,-4.150,0.000,0.000
1.832,0.011,0.000,2.185,0.000,0.000,0.329,0.000,0.000,-4.206,0.000,0.000
1.845,0.011,0.000,2.576,0.000,0.000,0.329,0.000,0.000,-4.257,0.000,0.000
1.858,0.011,0.000,2.979,0.000,0.000,0.323,0.000,0.000,-4.298,0.000,0.000
1.882,0.011,0.000,3.735,0.000,0.000,0.309,0.000,0.000,-4.343,0.000,0.000
1.895,0.011,0.000,4.143,0.000,0.000,0.305,0.000,0.000,-4.354,0.000,0.000
1.908,0.011,0.000,4.538,0.000,0.000,0.305,0.000,0.000,-4.362,0.000,0.000
1.921,0.011,0.000,4.911,0.000,0.000,0.309,0.000,0.000,-4.366,0.000,0.000
1.934,0.011,0.000,5.257,0.000,0.000,0.315,0.000,0.000,-4.364,0.000,0.000
1.947,0.011,0.000,5.574,0.000,0.000,0.320,0.000,0.000,-4.359,0.000,0.000
1.960,0.011,0.000,5.863,0.000,0.000,0.327,0.000,0.000,-4.355,0.000,0.000
1.986,0.011,0.000,6.382,0.000,0.000,0.349,0.000,0.000,-4.357,0.000,0.000
1.999,0.011,0.000,6.612,0.000,0.000,0.362,0.000,0.000,-4.363,0.000,0.000
2.012,0.011,0.000,6.823,0.000,0.000,0.372,0.000,0.000,-4.373,0.000,0.000
2.025,0.011,0.000,7.019,0.000,0.000,0.378,0.000,0.000,-4.384,0.000,0.000
2.038,0.011,0.000,7.202,0.000,0.000,0.384,0.000,0.000,-4.397,0.000,0.000
2.051,0.011,0.000,7.379,0.000,0.000,0.392,0.000,0.000,-4.415,0.000,0.000
2.064,0.011,0.000,7.554,0.000,0.000,0.403,0.000,0.000,-4.439,0.000,0.000
2.088,0.012,0.000,7.893,0.000,0.000,0.424,0.000,0.000,-4.499,0.000,0.000
2.101,0.011,0.000,8.095,0.000,0.000,0.431,0.000,0.000,-4.530,0.000,0.000
2.114,0.011,0.000,8.316,0.000,0.000,0.436,0.000,0.000,-4.556,0.000,0.000
2.127,0.011,0.000,8.565,0.000,0.000,0.438,0.000,0.000,-4.577,0.000,0.000
2.140,0.011,0.000,8.842,0.000,0.000,0.438,0.000,0.000,-4.596,0.000,0.000
2.153,0.011,0.000,9.146,0.000,0.000,0.437,0.000,0.000,-4.615,0.000,0.000
2.166,0.011,0.000,9.471,0.000,0.000,0.437,0.000,0.000,-4.631,0.000,0.000
2.190,0.012,0.000,10.115,0.000,0.000,0.440,0.000,0.000,-4.643,0.000,0.000
2.203,0.011,0.000,10.485,0.000,0.000,0.441,0.000,0.000,-4.640,0.000,0.000
2.216,0.011,0.000,10.867,0.000,0.000,0.441,0.000,0.000,-4.632,0.000,0.000
2.229,0.011,0.000,11.255,0.000,0.000,0.442,0.000,0.000,-4.619,0.000,0.000
2.242,0.011,0.000,11.647,0.000,0.000,0.444,0.000,0.000,-4.601,0.000,0.000
2.255,0.011,0.000,12.037,0.000,0.000,0.449,0.000,0.000,-4.579,0.000,0.000
2.268,0.011,0.000,12.424,0.000,0.000,0.456,0.000,0.000,-4.557,0.000,0.000
2.292,0.012,0.000,13.117,0.000,0.000,0.473,0.000,0.000,-4.516,0.000,0.000
2.305,0.011,0.000,13.473,0.000,0.000,0.482,0.000,0.000,-4.493,0.000,0.000
2.318,0.011,0.000,13.811,0.000,0.000,0.488,0.000,0.000,-4.471,0.000,0.000
2.331,0.011,0.000,14.133,0.000,0.000,0.493,0.000,0.000,-4.451,0.000,0.000
2.344,0.011,0.000,14.437,0.000,0.000,0.499,0.000,0.000,-4.434,0.000,0.000
2.357,0.011,0.000,14.720,0.000,0.000,0.504,0.000,0.000,-4.419,0.000,0.000
2.381,0.012,0.000,15.189,0.000,0.000,0.512,0.000,0.000,-4.392,0.000,0.000
2.394,0.011,0.000,15.408,0.000,0.000,0.514,0.000,0.000,-4.376,0.000,0.000
2.407,0.011,0.000,15.601,0.000,0.000,0.519,0.000,0.000,-4.359,0.000,0.000
2.420,0.011,0.000,15.769,0.000,0.000,0.524,0.000,0.000,-4.340,0.000,0.000
2.433,0.011,0.000,15.911,0.000,0.000,0.528,0.000,0.000,-4.321,0.000,0.000
2.446,0.011,0.000,16.023,0.000,0.000,0.529,0.000,0.000,-4.301,0.000,0.000
2.459,0.011,0.000,16.103,0.000,0.000,0.530,0.000,0.000,-4.280,0.000,0.000
2.519,0.011,0.000,16.208,0.000,0.000,0.550,0.000,0.000,-4.179,0.000,0.000
2.532,0.011,0.000,16.180,0.000,0.000,0.553,0.000,0.000,-4.161,0.000,0.000
2.545,0.011,0.000,16.140,0.000,0.000,0.555,0.000,0.000,-4.145,0.000,0.000
2.558,0.011,0.000,16.092,0.000,0.000,0.555,0.000,0.000,-4.132,0.000,0.000
2.571,0.011,0.000,16.037,0.000,0.000,0.552,0.000,0.000,-4.124,0.000,0.000
2.584,0.011,0.000,15.969,0.000,0.000,0.549,0.000,0.000,-4.118,0.000,0.000
2.597,0.011,0.000,15.887,0.000,0.000,0.543,0.000,0.000,-4.112,0.000,0.000
2.621,0.012,0.000,15.685,0.000,0.000,0.532,0.000,0.000,-4.098,0.000,0.000
2.634,0.011,0.000,15.542,0.000,0.000,0.529,0.000,0.000,-4.090,0.000,0.000
2.647,0.011,0.000,15.377,0.000,0.000,0.527,0.000,0.000,-4.084,0.000,0.000
2.660,0.011,0.000,15.186,0.000,0.000,0.526,0.000,0.000,-4.079,0.000,0.000
2.673,0.011,0.000,14.970,0.000,0.000,0.522,0.000,0.000,-4.074,0.000,0.000
2.686,0.011,0.000,14.731,0.000,0.000,0.518,0.000,0.000,-4.066,0.000,0.000
2.699,0.011,0.000,14.473,0.000,0.000,0.514,0.000,0.000,-4.058,0.000,0.000
2.723,0.011,0.000,13.965,0.000,0.000,0.507,0.000,0.000,-4.048,0.000,0.000
2.736,0.011,0.000,13.675,0.000,0.000,0.505,0.000,0.000,-4.049,0.000,0.000
2.749,0.011,0.000,13.376,0.000,0.000,0.501,0.000,0.000,-4.052,0.000,0.000
2.762,0.011,0.000,13.074,0.000,0.000,0.496,0.000,0.000,-4.053,0.000,0.000
2.775,0.011,0.000,12.771,0.000,0.000,0.489,0.000,0.000,-4.052,0.000,0.000
2.788,0.011,0.000,12.470,0.000,0.000,0.482,0.000,0.000,-4.052,0.000,0.000
2.801,0.011,0.000,12.172,0.000,0.000,0.474,0.000,0.000,-4.053,0.000,0.000
2.825,0.011,0.000,11.620,0.000,0.000,0.457,0.000,0.000,-4.049,0.000,0.000
2.838,0.011,0.000,11.313,0.000,0.000,0.448,0.000,0.000,-4.043,0.000,0.000
2.851,0.011,0.000,11.000,0.000,0.000,0.438,0.000,0.000,-4.037,0.000,0.000
2.864,0.011,0.000,10.683,0.000,0.000,0.430,0.000,0.000,-4.034,0.000,0.000
2.877,0.011,0.000,10.362,0.000,0.000,0.423,0.000,0.000,-4.033,0.000,0.000
2.890,0.011,0.000,10.034,0.000,0.000,0.420,0.000,0.000,-4.033,0.000,0.000
2.903,0.011,0.000,9.702,0.000,0.000,0.418,0.000,0.000,-4.032,0.000,0.000
2.927,0.011,0.000,9.087,0.000,0.000,0.408,0.000,0.000,-4.029,0.000,0.000
2.940,0.011,0.000,8.755,0.000,0.000,0.400,0.000,0.000,-4.031,0.000,0.000
2.953,0.011,0.000,8.422,0.000,0.000,0.393,0.000,0.000,-4.031,0.000,0.000
2.966,0.011,0.000,8.086,0.000,0.000,0.387,0.000,0.000,-4.031,0.000,0.000
2.979,0.011,0.000,7.746,0.000,0.000,0.381,0.000,0.000,-4.033,0.000,0.000
2.992,0.011,0.000,7.407,0.000,0.000,0.376,0.000,0.000,-4.036,0.000,0.000
3.013,0.011,0.000,6.862,0.000,0.000,0.368,0.000,0.000,-4.041,0.000,0.000
3.026,0.011,0.000,6.529,0.000,0.000,0.362,0.000,0.000,-4.043,0.000,0.000
3.039,0.011,0.000,6.202,0.000,0.000,0.353,0.000,0.000,-4.045,0.000,0.000
3.052,0.011,0.000,5.882,0.000,0.000,0.342,0.000,0.000,-4.044,0.000,0.000
3.065,0.011,0.000,5.566,0.000,0.000,0.333,0.000,0.000,-4.042,0.000,0.000
3.078,0.011,0.000,5.256,0.000,0.000,0.326,0.000,0.000,-4.038,0.000,0.000
3.091,0.011,0.000,4.952,0.000,0.000,0.321,0.000,0.000,-4.036,0.000,0.000
3.118,0.011,0.000,4.336,0.000,0.000,0.310,0.000,0.000,-4.035,0.000,0.000
3.131,0.011,0.000,4.048,0.000,0.000,0.304,0.000,0.000,-4.034,0.000,0.000
3.144,0.011,0.000,3.767,0.000,0.000,0.299,0.000,0.000,-4.030,0.000,0.000
3.157,0.011,0.000,3.494,0.000,0.000,0.292,0.000,0.000,-4.026,0.000,0.000
3.170,0.011,0.000,3.225,0.000,0.000,0.285,0.000,0.000,-4.023,0.000,0.000
3.183,0.011,0.000,2.957,0.000,0.000,0.279,0.000,0.000,-4.022,0.000,0.000
3.196,0.011,0.000,2.688,0.000,0.000,0.275,0.000,0.000,-4.022,0.000,0.000
3.220,0.012,0.000,2.189,0.000,0.000,0.262,0.000,0.000,-4.022,0.000,0.000
3.233,0.011,0.000,1.925,0.000,0.000,0.254,0.000,0.000,-4.023,0.000,0.000
3.246,0.011,0.000,1.673,0.000,0.000,0.248,0.000,0.000,-4.028,0.000,0.000
3.259,0.011,0.000,1.431,0.000,0.000,0.243,0.000,0.000,-4.037,0.000,0.000
3.272,0.011,0.000,1.195,0.000,0.000,0.237,0.000,0.000,-4.046,0.000,0.000
3.285,0.011,0.000,0.963,0.000,0.000,0.230,0.000,0.000,-4.053,0.000,0.000
3.298,0.011,0.000,0.739,0.000,0.000,0.223,0.000,0.000,-4.058,0.000,0.000
3.340,0.012,0.000,0.193,0.000,0.000,0.155,0.000,0.000,-4.085,0.000,0.000
3.353,0.011,0.000,0.139,0.000,0.000,0.152,0.000,0.000,-4.088,0.000,0.000
3.366,0.011,0.000,0.137,0.000,0.000,0.164,0.000,0.000,-4.085,0.000,0.000
3.379,0.011,0.000,0.159,0.000,0.000,0.175,0.000,0.000,-4.077,0.000,0.000
3.392,0.011,0.000,0.184,0.000,0.000,0.174,0.000,0.000,-4.065,0.000,0.000
3.405,0.011,0.000,0.193,0.000,0.000,0.167,0.000,0.000,-4.051,0.000,0.000
3.418,0.011,0.000,0.181,0.000,0.000,0.156,0.000,0.000,-4.035,0.000,0.000
3.442,0.012,0.000,0.127,0.000,0.000,0.129,0.000,0.000,-4.007,0.000,0.000
3.455,0.011,0.000,0.101,0.000,0.000,0.119,0.000,0.000,-3.996,0.000,0.000
3.468,0.011,0.000,0.087,0.000,0.000,0.113,0.000,0.000,-3.990,0.000,0.000
3.481,0.011,0.000,0.081,0.000,0.000,0.109,0.000,0.000,-3.986,0.000,0.000
3.494,0.011,0.000,0.073,0.000,0.000,0.101,0.000,0.000,-3.982,0.000,0.000
3.507,0.011,0.000,0.059,0.000,0.000,0.089,0.000,0.000,-3.979,0.000,0.000
3.520,0.011,0.000,0.041,0.000,0.000,0.075,0.000,0.000,-3.976,0.000,0.000
3.544,0.012,0.000,0.013,0.000,0.000,0.050,0.000,0.000,-3.972,0.000,0.000
3.557,0.011,0.000,-0.003,0.000,0.000,0.035,0.000,0.000,-3.969,0.000,0.000
3.570,0.011,0.000,-0.016,0.000,0.000,0.023,0.000,0.000,-3.963,0.000,0.000
3.583,0.011,0.000,-0.024,0.000,0.000,0.018,0.000,0.000,-3.957,0.000,0.000
3.596,0.011,0.000,-0.028,0.000,0.000,0.015,0.000,0.000,-3.953,0.000,0.000
3.609,0.011,0.000,-0.028,0.000,0.000,0.013,0.000,0.000,-3.949,0.000,0.000
3.622,0.011,0.000,-0.028,0.000,0.000,0.011,0.000,0.000,-3.945,0.000,0.000
3.646,0.012,0.000,-0.029,0.000,0.000,0.009,0.000,0.000,-3.935,0.000,0.000
3.659,0.011,0.000,-0.029,0.000,0.000,0.009,0.000,0.000,-3.932,0.000,0.000
3.672,0.011,0.000,-0.030,0.000,0.000,0.010,0.000,0.000,-3.929,0.000,0.000
3.685,0.011,0.000,-0.029,0.000,0.000,0.011,0.000,0.000,-3.927,0.000,0.000
3.698,0.011,0.000,-0.029,0.000,0.000,0.011,0.000,0.000,-3.926,0.000,0.000
3.711,0.011,0.000,-0.029,0.000,0.000,0.012,0.000,0.000,-3.925,0.000,0.000
3.724,0.011,0.000,-0.029,0.000,0.000,0.012,0.000,0.000,-3.925,0.000,0.000
3.748,0.011,0.000,-0.029,0.000,0.000,0.011,0.000,0.000,-3.922,0.000,0.000
3.761,0.011,0.000,-0.029,0.000,0.000,0.010,0.000,0.000,-3.923,0.000,0.000
3.774,0.011,0.000,-0.029,0.000,0.000,0.009,0.000,0.000,-3.923,0.000,0.000
3.787,0.011,0.000,-0.031,0.000,0.000,0.009,0.000,0.000,-3.924,0.000,0.000
3.800,0.011,0.000,-0.033,0.000,0.000,0.010,0.000,0.000,-3.928,0.000,0.000
3.813,0.011,0.000,-0.035,0.000,0.000,0.011,0.000,0.000,-3.932,0.000,0.000
3.826,0.011,0.000,-0.038,0.000,0.000,0.011,0.000,0.000,-3.934,0.000,0.000
3.850,0.011,0.000,-0.041,0.000,0.000,0.011,0.000,0.000,-3.937,0.000,0.000
3.863,0.011,0.000,-0.040,0.000,0.000,0.011,0.000,0.000,-3.938,0.000,0.000
3.876,0.011,0.000,-0.040,0.000,0.000,0.011,0.000,0.000,-3.937,0.000,0.000
3.889,0.011,0.000,-0.041,0.000,0.000,0.011,0.000,0.000,-3.938,0.000,0.000
3.902,0.011,0.000,-0.041,0.000,0.000,0.010,0.000,0.000,-3.938,0.000,0.000
3.915,0.011,0.000,-0.041,0.000,0.000,0.009,0.000,0.000,-3.938,0.000,0.000
3.939,0.012,0.000,-0.041,0.000,0.000,0.008,0.000,0.000,-3.938,0.000,0.000
3.952,0.011,0.000,-0.040,0.000,0.000,0.007,0.000,0.000,-3.938,0.000,0.000
3.965,0.011,0.000,-0.040,0.000,0.000,0.007,0.000,0.000,-3.937,0.000,0.000
3.978,0.011,0.000,-0.040,0.000,0.000,0.007,0.000,0.000,-3.937,0.000,0.000
3.991,0.011,0.000,-0.040,0.000,0.000,0.006,0.000,0.000,-3.937,0.000,0.000
4.004,0.011,0.000,-0.040,0.000,0.000,0.006,0.000,0.000,-3.937,0.000,0.000
4.017,0.011,0.000,-0.039,0.000,0.000,0.005,0.000,0.000,-3.937,0.000,0.000
4.041,0.011,0.000,-0.039,0.000,0.000,0.003,0.000,0.000,-3.936,0.000,0.000
4.054,0.011,0.000,-0.038,0.000,0.000,0.003,0.000,0.000,-3.935,0.000,0.000
4.067,0.011,0.000,-0.038,0.000,0.000,0.002,0.000,0.000,-3.935,0.000,0.000
4.080,0.011,0.000,-0.038,0.000,0.000,0.002,0.000,0.000,-3.935,0.000,0.000
4.093,0.011,0.000,-0.037,0.000,0.000,0.001,0.000,0.000,-3.936,0.000,0.000
4.106,0.011,0.000,-0.037,0.000,0.000,0.001,0.000,0.000,-3.936,0.000,0.000
4.119,0.011,0.000,-0.035,0.000,0.000,0.000,0.000,0.000,-3.936,0.000,0.000
4.143,0.011,0.000,-0.033,0.000,0.000,0.000,0.000,0.000,-3.937,0.000,0.000
4.156,0.011,0.000,-0.033,0.000,0.000,-0.000,0.000,0.000,-3.937,0.000,0.000
4.169,0.011,0.000,-0.033,0.000,0.000,-0.000,0.000,0.000,-3.937,0.000,0.000
4.182,0.011,0.000,-0.034,0.000,0.000,-0.000,0.000,0.000,-3.937,0.000,0.000
4.195,0.011,0.000,-0.034,0.000,0.000,-0.001,0.000,0.000,-3.937,0.000,0.000
4.208,0.011,0.000,-0.033,0.000,0.000,-0.002,0.000,0.000,-3.938,0.000,0.000
4.221,0.011,0.000,-0.033,0.000,0.000,-0.003,0.000,0.000,-3.938,0.000,0.000
4.245,0.011,0.000,-0.033,0.000,0.000,-0.002,0.000,0.000,-3.938,0.000,0.000
4.258,0.011,0.000,-0.033,0.000,0.000,-0.002,0.000,0.000,-3.939,0.000,0.000
4.271,0.011,0.000,-0.033,0.000,0.000,-0.002,0.000,0.000,-3.939,0.000,0.000
4.284,0.011,0.000,-0.033,0.000,0.000,-0.002,0.000,0.000,-3.940,0.000,0.000
4.297,0.011,0.000,-0.032,0.000,0.000,-0.002,0.000,0.000,-3.940,0.000,0.000
4.310,0.011,0.000,-0.032,0.000,0.000,-0.002,0.000,0.000,-3.941,0.000,0.000
4.323,0.011,0.000,-0.031,0.000,0.000,-0.003,0.000,0.000,-3.942,0.000,0.000
4.350,0.011,0.000,-0.030,0.000,0.000,-0.004,0.000,0.000,-3.943,0.000,0.000
4.363,0.011,0.000,-0.030,0.000,0.000,-0.004,0.000,0.000,-3.943,0.000,0.000
4.376,0.011,0.000,-0.030,0.000,0.000,-0.004,0.000,0.000,-3.944,0.000,0.000
4.389,0.011,0.000,-0.030,0.000,0.000,-0.003,0.000,0.000,-3.944,0.000,0.000
4.402,0.011,0.000,-0.030,0.000,0.000,-0.003,0.000,0.000,-3.944,0.000,0.000
4.415,0.011,0.000,-0.030,0.000,0.000,-0.002,0.000,0.000,-3.944,0.000,0.000
4.439,0.011,0.000,-0.030,0.000,0.000,-0.001,0.000,0.000,-3.944,0.000,0.000
4.452,0.011,0.000,-0.030,0.000,0.000,-0.000,0.000,0.000,-3.943,0.000,0.000
4.465,0.011,0.000,-0.030,0.000,0.000,-0.000,0.000,0.000,-3.943,0.000,0.000
4.478,0.011,0.000,-0.029,0.000,0.000,-0.001,0.000,0.000,-3.942,0.000,0.000
4.491,0.011,0.000,-0.029,0.000,0.000,-0.002,0.000,0.000,-3.942,0.000,0.000
4.504,0.011,0.000,-0.029,0.000,0.000,-0.002,0.000,0.000,-3.942,0.000,0.000
4.517,0.011,0.000,-0.028,0.000,0.000,-0.002,0.000,0.000,-3.942,0.000,0.000
4.541,0.011,0.000,-0.026,0.000,0.000,-0.002,0.000,0.000,-3.942,0.000,0.000
4.554,0.011,0.000,-0.025,0.000,0.000,-0.002,0.000,0.000,-3.942,0.000,0.000
4.567,0.011,0.000,-0.025,0.000,0.000,-0.001,0.000,0.000,-3.942,0.000,0.000
4.580,0.011,0.000,-0.024,0.000,0.000,-0.001,0.000,0.000,-3.942,0.000,0.000
4.593,0.011,0.000,-0.024,0.000,0.000,-0.001,0.000,0.000,-3.942,0.000,0.000
4.606,0.011,0.000,-0.023,0.000,0.000,-0.001,0.000,0.000,-3.942,0.000,0.000
4.619,0.011,0.000,-0.023,0.000,0.000,-0.001,0.000,0.000,-3.942,0.000,0.000
4.645,0.011,0.000,-0.023,0.000,0.000,-0.002,0.000,0.000,-3.943,0.000,0.000
4.658,0.011,0.000,-0.023,0.000,0.000,-0.002,0.000,0.000,-3.943,0.000,0.000
4.671,0.011,0.000,-0.024,0.000,0.000,-0.002,0.000,0.000,-3.944,0.000,0.000
4.684,0.011,0.000,-0.024,0.000,0.000,-0.002,0.000,0.000,-3.945,0.000,0.000
4.697,0.011,0.000,-0.024,0.000,0.000,-0.002,0.000,0.000,-3.945,0.000,0.000
4.710,0.011,0.000,-0.024,0.000,0.000,-0.002,0.000,0.000,-3.945,0.000,0.000
4.734,0.012,0.000,-0.024,0.000,0.000,-0.002,0.000,0.000,-3.946,0.000,0.000
4.747,0.011,0.000,-0.024,0.000,0.000,-0.003,0.000,0.000,-3.945,0.000,0.000
4.760,0.011,0.000,-0.023,0.000,0.000,-0.004,0.000,0.000,-3.945,0.000,0.000
4.773,0.011,0.000,-0.023,0.000,0.000,-0.004,0.000,0.000,-3.945,0.000,0.000
4.786,0.011,0.000,-0.023,0.000,0.000,-0.004,0.000,0.000,-3.945,0.000,0.000
4.799,0.011,0.000,-0.024,0.000,0.000,-0.003,0.000,0.000,-3.945,0.000,0.000
4.812,0.011,0.000,-0.024,0.000,0.000,-0.003,0.000,0.000,-3.945,0.000,0.000
4.836,0.011,0.000,-0.024,0.000,0.000,-0.004,0.000,0.000,-3.945,0.000,0.000
4.849,0.011,0.000,-0.024,0.000,0.000,-0.006,0.000,0.000,-3.945,0.000,0.000
4.862,0.011,0.000,-0.023,0.000,0.000,-0.007,0.000,0.000,-3.945,0.000,0.000
4.875,0.011,0.000,-0.022,0.000,0.000,-0.009,0.000,0.000,-3.945,0.000,0.000
4.888,0.011,0.000,-0.021,0.000,0.000,-0.010,0.000,0.000,-3.945,0.000,0.000
4.901,0.011,0.000,-0.020,0.000,0.000,-0.011,0.000,0.000,-3.945,0.000,0.000
4.914,0.011,0.000,-0.020,0.000,0.000,-0.012,0.000,0.000,-3.946,0.000,0.000
4.938,0.011,0.000,-0.020,-0.031,0.000,-0.012,0.002,0.000,-3.946,1.943,3.200
4.951,0.011,0.000,-0.021,-0.088,0.000,-0.011,0.004,0.000,-3.947,5.555,8.400
4.964,0.011,0.000,-0.021,-0.146,0.000,-0.010,0.010,0.000,-3.948,9.179,13.600
4.977,0.011,0.000,-0.021,-0.186,0.000,-0.010,0.011,0.000,-3.948,11.684,16.800
4.990,0.011,0.000,-0.021,-0.186,0.000,-0.010,0.007,0.000,-3.948,11.695,16.800
5.003,0.011,0.000,-0.021,-0.243,0.000,-0.010,0.006,0.000,-3.948,15.330,22.400
5.016,0.011,0.000,-0.020,-0.302,0.000,-0.011,0.006,0.000,-3.948,18.969,27.600
5.040,0.011,0.000,-0.020,-0.405,0.000,-0.013,-0.008,0.000,-3.947,25.715,37.200
5.053,0.011,0.000,-0.020,-0.465,0.000,-0.015,0.000,0.000,-3.947,29.382,42.400
5.066,0.011,0.000,-0.020,-0.491,0.000,-0.016,0.000,0.000,-3.946,31.086,44.400
5.079,0.011,0.000,-0.020,-0.490,0.000,-0.017,0.006,0.000,-3.946,31.127,44.400
5.092,0.011,0.000,-0.021,-0.490,0.000,-0.018,0.005,0.000,-3.946,31.162,44.400
5.105,0.011,0.000,-0.021,-0.490,0.000,-0.018,0.012,0.000,-3.945,31.201,44.400
5.129,0.011,0.000,-0.023,-0.489,0.000,-0.019,0.002,0.000,-3.946,31.263,44.400
5.142,0.011,0.000,-0.024,-0.488,0.000,-0.020,-0.004,0.000,-3.946,31.302,44.400
5.155,0.011,0.000,-0.024,-0.489,0.000,-0.021,-0.008,0.000,-3.947,31.340,44.400
5.168,0.011,0.000,-0.025,-0.488,0.000,-0.022,0.005,0.000,-3.947,31.342,44.400
5.181,0.011,0.000,-0.026,-0.490,0.000,-0.022,0.005,0.000,-3.946,31.339,44.400
5.194,0.011,0.000,-0.026,-0.491,0.000,-0.024,-0.025,0.000,-3.944,31.386,44.400
5.218,0.011,0.000,-0.027,-0.489,0.000,-0.026,0.018,0.000,-3.946,31.456,44.400
5.231,0.011,0.000,-0.026,-0.492,0.000,-0.025,0.018,0.000,-3.945,31.464,44.400
5.244,0.011,0.000,-0.026,-0.490,0.000,-0.025,0.006,0.000,-3.944,31.519,44.400
5.257,0.011,0.000,-0.027,-0.489,0.000,-0.024,0.021,0.000,-3.945,31.571,44.400
5.270,0.011,0.000,-0.026,-0.491,0.000,-0.023,0.022,0.000,-3.945,31.569,44.400
5.283,0.011,0.000,-0.026,-0.491,0.000,-0.023,0.007,0.000,-3.944,31.600,44.400
5.296,0.011,0.000,-0.026,-0.490,0.000,-0.024,0.002,0.000,-3.944,31.652,44.400
5.320,0.011,0.000,-0.026,-0.491,0.000,-0.024,0.009,0.000,-3.943,31.677,44.400
5.333,0.011,0.000,-0.025,-0.492,0.000,-0.024,0.006,0.000,-3.943,31.728,44.400
5.346,0.011,0.000,-0.024,-0.491,0.000,-0.025,-0.000,0.000,-3.944,31.777,44.400
5.359,0.011,0.000,-0.025,-0.488,0.000,-0.025,0.015,0.000,-3.944,31.782,44.400
5.372,0.011,0.000,-0.026,-0.490,0.000,-0.024,0.017,0.000,-3.943,31.792,44.400
5.385,0.011,0.000,-0.025,-0.494,0.000,-0.025,-0.000,0.000,-3.943,31.851,44.400
5.409,0.011,0.000,-0.025,-0.487,0.000,-0.024,0.025,0.000,-3.943,31.890,44.400
5.422,0.011,0.000,-0.026,-0.491,0.000,-0.024,0.017,0.000,-3.943,31.921,44.400
5.435,0.011,0.000,-0.025,-0.492,0.000,-0.023,0.017,0.000,-3.944,31.990,44.400
5.448,0.011,0.000,-0.025,-0.490,0.000,-0.023,0.016,0.000,-3.944,31.995,44.400
5.461,0.011,0.000,-0.026,-0.488,0.000,-0.023,0.009,0.000,-3.944,32.006,44.400
5.474,0.011,0.000,-0.026,-0.490,0.000,-0.023,-0.004,0.000,-3.943,32.040,44.400
5.487,0.011,0.000,-0.026,-0.491,0.000,-0.025,-0.012,0.000,-3.943,32.075,44.400
5.509,0.011,0.000,-0.026,-0.488,0.000,-0.026,-0.004,0.000,-3.942,32.103,44.400
5.522,0.011,0.000,-0.027,-0.490,0.000,-0.027,-0.006,0.000,-3.942,32.131,44.400
5.535,0.011,0.000,-0.027,-0.491,0.000,-0.027,0.006,0.000,-3.942,32.173,44.400
5.548,0.011,0.000,-0.027,-0.490,0.000,-0.027,0.011,0.000,-3.942,32.177,44.400
5.561,0.011,0.000,-0.026,-0.491,0.000,-0.027,0.015,0.000,-3.941,32.198,44.400
5.574,0.011,0.000,-0.026,-0.492,0.000,-0.026,0.019,0.000,-3.941,32.263,44.400
5.602,0.012,0.000,-0.025,-0.490,0.000,-0.026,0.004,0.000,-3.942,32.333,44.400
5.615,0.011,0.000,-0.026,-0.489,0.000,-0.027,-0.001,0.000,-3.943,32.358,44.400
5.628,0.011,0.000,-0.027,-0.488,0.000,-0.027,0.010,0.000,-3.944,32.386,44.400
5.641,0.011,0.000,-0.027,-0.490,0.000,-0.026,0.014,0.000,-3.945,32.398,44.400
5.654,0.011,0.000,-0.027,-0.490,0.000,-0.026,0.009,0.000,-3.945,32.419,44.400
5.667,0.011,0.000,-0.027,-0.489,0.000,-0.026,-0.001,0.000,-3.945,32.478,44.400
5.680,0.011,0.000,-0.027,-0.489,0.000,-0.026,0.013,0.000,-3.946,32.482,44.400
5.704,0.012,0.000,-0.028,-0.577,0.000,-0.025,0.019,0.000,-3.945,38.393,52.400
5.717,0.011,0.000,-0.028,-0.635,0.000,-0.025,0.019,0.000,-3.945,42.235,58.000
5.730,0.011,0.000,-0.028,-0.692,0.000,-0.024,0.027,0.000,-3.944,46.077,63.200
5.743,0.011,0.000,-0.028,-0.750,0.000,-0.023,0.018,0.000,-3.943,49.951,68.000
5.756,0.011,0.000,-0.027,-0.755,0.000,-0.023,0.019,0.000,-3.943,50.298,68.400
5.769,0.011,0.000,-0.027,-0.755,0.000,-0.022,0.041,0.000,-3.943,50.373,68.400
5.793,0.012,0.000,-0.028,-0.752,0.000,-0.023,0.002,0.000,-3.944,50.459,68.400
5.806,0.011,0.000,-0.028,-0.754,0.000,-0.024,0.012,0.000,-3.944,50.509,68.400
5.819,0.011,0.000,-0.029,-0.754,0.000,-0.024,0.018,0.000,-3.945,50.600,68.400
5.832,0.011,0.000,-0.028,-0.755,0.000,-0.023,0.022,0.000,-3.946,50.602,68.400
5.845,0.011,0.000,-0.029,-0.749,0.000,-0.023,0.021,0.000,-3.946,50.629,68.400
5.858,0.011,0.000,-0.030,-0.750,0.000,-0.023,-0.005,0.000,-3.946,50.651,68.400
5.871,0.011,0.000,-0.031,-0.752,0.000,-0.024,0.008,0.000,-3.946,50.721,68.400
5.895,0.011,0.000,-0.031,-0.752,0.000,-0.024,0.018,0.000,-3.945,50.796,68.400
5.908,0.011,0.000,-0.032,-0.748,0.000,-0.024,0.015,0.000,-3.944,50.802,68.400
5.921,0.011,0.000,-0.033,-0.752,0.000,-0.024,-0.006,0.000,-3.944,50.897,68.400
5.934,0.011,0.000,-0.033,-0.755,0.000,-0.025,-0.002,0.000,-3.944,50.988,68.400
5.947,0.011,0.000,-0.032,-0.754,0.000,-0.025,0.011,0.000,-3.945,51.032,68.400
5.960,0.011,0.000,-0.032,-0.751,0.000,-0.025,0.025,0.000,-3.945,51.050,68.400
5.984,0.012,0.000,-0.034,-0.753,0.000,-0.025,0.005,0.000,-3.946,51.162,68.400
5.997,0.011,0.000,-0.034,-0.754,0.000,-0.026,0.008,0.000,-3.947,51.216,68.400
6.010,0.011,0.000,-0.034,-0.752,0.000,-0.026,0.013,0.000,-3.947,51.250,68.400
6.023,0.011,0.000,-0.035,-0.745,0.000,-0.025,0.018,0.000,-3.947,51.241,68.400
6.036,0.011,0.000,-0.037,-0.744,0.000,-0.025,0.015,0.000,-3.946,51.289,68.400
6.049,0.011,0.000,-0.038,-0.751,0.000,-0.025,0.022,0.000,-3.946,51.384,68.400
6.062,0.011,0.000,-0.038,-0.751,0.000,-0.024,0.027,0.000,-3.947,51.460,68.400
6.086,0.012,0.000,-0.039,-0.751,0.000,-0.023,0.021,0.000,-3.947,51.473,68.400
6.099,0.011,0.000,-0.039,-0.751,0.000,-0.023,0.015,0.000,-3.946,51.510,68.400
6.112,0.011,0.000,-0.039,-0.752,0.000,-0.022,0.021,0.000,-3.946,51.611,68.400
6.125,0.011,0.000,-0.039,-0.751,0.000,-0.022,0.015,0.000,-3.947,51.670,68.400
6.138,0.011,0.000,-0.039,-0.752,0.000,-0.022,0.021,0.000,-3.948,51.693,68.400
6.151,0.011,0.000,-0.039,-0.752,0.000,-0.022,0.012,0.000,-3.947,51.673,68.400
6.175,0.012,0.000,-0.039,-0.751,0.000,-0.023,0.000,0.000,-3.946,51.816,68.400
6.188,0.011,0.000,-0.040,-0.751,0.000,-0.023,0.015,0.000,-3.946,51.870,68.400
6.201,0.011,0.000,-0.040,-0.754,0.000,-0.023,0.014,0.000,-3.946,51.893,68.400
6.214,0.011,0.000,-0.039,-0.754,0.000,-0.023,0.007,0.000,-3.946,51.946,68.400
6.227,0.011,0.000,-0.039,-0.751,0.000,-0.024,0.002,0.000,-3.946,52.016,68.400
6.240,0.011,0.000,-0.039,-0.750,0.000,-0.024,0.007,0.000,-3.947,52.086,68.400
6.253,0.011,0.000,-0.039,-0.753,0.000,-0.025,0.010,0.000,-3.948,52.104,68.400
6.277,0.011,0.000,-0.038,-0.755,0.000,-0.024,0.016,0.000,-3.947,52.147,68.400
6.290,0.011,0.000,-0.038,-0.752,0.000,-0.025,-0.004,0.000,-3.947,52.253,68.400
6.303,0.011,0.000,-0.038,-0.751,0.000,-0.025,0.001,0.000,-3.948,52.276,68.400
6.316,0.011,0.000,-0.038,-0.753,0.000,-0.026,-0.001,0.000,-3.948,52.304,68.400
6.329,0.011,0.000,-0.037,-0.753,0.000,-0.027,0.008,0.000,-3.948,52.342,68.400
6.342,0.011,0.000,-0.037,-0.750,0.000,-0.027,-0.001,0.000,-3.947,52.416,68.400
6.366,0.012,0.000,-0.039,-0.749,0.000,-0.028,0.008,0.000,-3.949,52.503,68.400
6.379,0.011,0.000,-0.039,-0.753,0.000,-0.027,0.011,0.000,-3.948,52.505,68.400
6.392,0.011,0.000,-0.038,-0.753,0.000,-0.027,0.009,0.000,-3.947,52.511,68.400
6.405,0.011,0.000,-0.039,-0.748,0.000,-0.028,0.002,0.000,-3.946,52.579,68.400
6.418,0.011,0.000,-0.039,-0.748,0.000,-0.028,0.001,0.000,-3.946,52.675,68.400
6.431,0.011,0.000,-0.039,-0.758,0.000,-0.028,0.022,0.000,-3.946,52.729,68.400
6.444,0.011,0.000,-0.037,-0.755,0.000,-0.028,0.025,0.000,-3.946,52.767,68.400
6.468,0.011,0.000,-0.037,-0.751,0.000,-0.025,0.030,0.000,-3.946,52.832,68.400
6.481,0.011,0.000,-0.037,-0.750,0.000,-0.025,0.021,0.000,-3.945,52.885,68.400
6.494,0.011,0.000,-0.037,-0.756,0.000,-0.024,0.027,0.000,-3.945,52.913,68.400
6.507,0.011,0.000,-0.036,-0.753,0.000,-0.024,0.020,0.000,-3.944,52.966,68.400
6.520,0.011,0.000,-0.037,-0.748,0.000,-0.024,0.006,0.000,-3.943,53.024,68.400
6.533,0.011,0.000,-0.038,-0.744,0.000,-0.025,-0.003,0.000,-3.943,53.094,68.400
6.557,0.011,0.000,-0.039,-0.752,0.000,-0.026,0.009,0.000,-3.943,53.164,68.400
6.570,0.011,0.000,-0.039,-0.749,0.000,-0.025,0.016,0.000,-3.943,53.218,68.400
6.583,0.011,0.000,-0.041,-0.741,0.000,-0.025,0.015,0.000,-3.943,53.245,68.400
6.596,0.011,0.000,-0.042,-0.748,0.000,-0.025,0.015,0.000,-3.943,53.325,68.400
6.609,0.011,0.000,-0.041,-0.754,0.000,-0.025,0.008,0.000,-3.943,53.358,68.400
6.622,0.011,0.000,-0.040,-0.753,0.000,-0.025,0.030,0.000,-3.943,53.407,68.400
6.646,0.011,0.000,-0.041,-0.746,0.000,-0.024,0.017,0.000,-3.942,53.440,68.400
6.659,0.011,0.000,-0.041,-0.753,0.000,-0.024,0.011,0.000,-3.942,53.509,68.400
6.672,0.011,0.000,-0.040,-0.759,0.000,-0.024,0.033,0.000,-3.942,53.599,68.400
6.685,0.011,0.000,-0.039,-0.753,0.000,-0.023,0.022,0.000,-3.942,53.617,68.400
6.698,0.011,0.000,-0.039,-0.748,0.000,-0.023,0.016,0.000,-3.942,53.681,68.400
6.711,0.011,0.000,-0.040,-0.749,0.000,-0.023,0.010,0.000,-3.943,53.745,68.400
6.724,0.011,0.000,-0.040,-0.753,0.000,-0.023,0.012,0.000,-3.944,53.827,68.400
6.748,0.011,0.000,-0.039,-0.750,0.000,-0.023,0.022,0.000,-3.946,53.867,68.400
6.761,0.011,0.000,-0.039,-0.750,0.000,-0.022,0.031,0.000,-3.946,53.900,68.400
6.774,0.011,0.000,-0.039,-0.754,0.000,-0.021,0.024,0.000,-3.946,53.970,68.400
6.787,0.011,0.000,-0.037,-0.754,0.000,-0.021,0.017,0.000,-3.947,54.061,68.400
6.800,0.011,0.000,-0.037,-0.751,0.000,-0.021,0.016,0.000,-3.948,54.105,68.400
6.813,0.011,0.000,-0.037,-0.747,0.000,-0.021,0.022,0.000,-3.948,54.112,68.400
6.834,0.011,0.000,-0.037,-0.759,0.000,-0.020,0.017,0.000,-3.948,54.219,68.400
6.847,0.011,0.000,-0.035,-0.760,0.000,-0.021,0.014,0.000,-3.949,54.263,68.400
6.860,0.011,0.000,-0.034,-0.753,0.000,-0.021,0.019,0.000,-3.949,54.264,68.400
6.873,0.011,0.000,-0.034,-0.752,0.000,-0.020,0.018,0.000,-3.949,54.302,68.400
6.886,0.011,0.000,-0.033,-0.754,0.000,-0.020,0.011,0.000,-3.948,54.371,68.400
6.899,0.011,0.000,-0.033,-0.750,0.000,-0.021,0.020,0.000,-3.949,54.446,68.400
6.912,0.011,0.000,-0.034,-0.749,0.000,-0.020,0.033,0.000,-3.950,54.469,68.400
6.939,0.011,0.000,-0.035,-0.753,0.000,-0.019,0.039,0.000,-3.948,54.518,68.400
6.952,0.011,0.000,-0.035,-0.750,0.000,-0.018,0.032,0.000,-3.949,54.619,68.400
6.965,0.011,0.000,-0.036,-0.745,0.000,-0.017,0.040,0.000,-3.949,54.658,68.400
6.978,0.011,0.000,-0.037,-0.749,0.000,-0.017,0.033,0.000,-3.949,54.680,68.400
6.991,0.011,0.000,-0.037,-0.751,0.000,-0.016,0.028,0.000,-3.948,54.717,68.400
7.004,0.011,0.000,-0.037,-0.749,0.000,-0.016,0.029,0.000,-3.948,54.813,68.400
7.028,0.012,0.000,-0.039,-0.748,0.000,-0.015,0.030,0.000,-3.950,54.901,68.400
7.041,0.011,0.000,-0.039,-0.752,0.000,-0.015,0.041,0.000,-3.950,54.939,68.400
7.054,0.011,0.000,-0.038,-0.751,0.000,-0.014,0.041,0.000,-3.950,54.983,68.400
7.067,0.011,0.000,-0.039,-0.748,0.000,-0.013,0.050,0.000,-3.951,55.099,68.400
7.080,0.011,0.000,-0.040,-0.748,0.000,-0.012,0.059,0.000,-3.952,55.154,68.400
7.093,0.011,0.000,-0.039,-0.754,0.000,-0.011,0.038,0.000,-3.953,55.152,68.400
7.106,0.011,0.000,-0.038,-0.753,0.000,-0.010,0.038,0.000,-3.953,55.185,68.400
7.130,0.012,0.000,-0.038,-0.748,0.000,-0.010,0.024,0.000,-3.954,55.308,68.400
7.143,0.011,0.000,-0.038,-0.755,0.000,-0.010,0.024,0.000,-3.954,55.315,68.400
7.156,0.011,0.000,-0.036,-0.756,0.000,-0.010,0.041,0.000,-3.953,55.358,68.400
7.169,0.011,0.000,-0.035,-0.752,0.000,-0.009,0.036,0.000,-3.953,55.433,68.400
7.182,0.011,0.000,-0.035,-0.747,0.000,-0.009,0.041,0.000,-3.953,55.482,68.400
7.195,0.011,0.000,-0.036,-0.750,0.000,-0.009,0.019,-0.070,-3.953,55.480,68.400
7.219,0.011,0.000,-0.035,-0.752,0.000,-0.010,0.026,-0.185,-3.953,55.471,68.400
7.232,0.011,0.000,-0.035,-0.748,0.000,-0.010,0.043,-0.255,-3.952,55.452,68.400
7.245,0.011,0.000,-0.035,-0.747,0.000,-0.010,0.025,-0.320,-3.952,55.457,68.400
7.258,0.011,0.000,-0.035,-0.753,0.000,-0.010,0.015,-0.380,-3.952,55.476,68.400
7.271,0.011,0.000,-0.033,-0.758,0.000,-0.010,0.029,-0.450,-3.952,55.477,68.400
7.284,0.011,0.000,-0.032,-0.752,0.000,-0.010,0.024,-0.515,-3.951,55.470,68.400
7.297,0.011,0.000,-0.033,-0.742,0.000,-0.011,0.014,-0.575,-3.951,55.457,68.400
7.321,0.011,0.000,-0.033,-0.755,0.000,-0.011,0.019,-0.575,-3.952,55.564,68.400
7.334,0.011,0.000,-0.032,-0.756,0.000,-0.011,0.057,-0.625,-3.952,55.528,68.400
7.347,0.011,0.000,-0.033,-0.747,0.000,-0.010,0.045,-0.685,-3.951,55.523,68.400
7.360,0.011,0.000,-0.034,-0.747,0.000,-0.009,0.033,-0.755,-3.951,55.538,68.400
7.373,0.011,0.000,-0.034,-0.753,0.000,-0.009,0.029,-0.820,-3.952,55.551,68.400
7.386,0.011,0.000,-0.033,-0.752,0.000,-0.009,0.026,-0.885,-3.953,55.535,68.400
7.410,0.012,0.000,-0.034,-0.748,0.000,-0.009,0.021,-0.990,-3.952,55.483,68.400
7.423,0.011,0.000,-0.034,-0.753,0.000,-0.010,0.014,-1.055,-3.951,55.495,68.400
7.436,0.011,0.000,-0.033,-0.756,0.000,-0.010,0.022,-1.120,-3.952,55.505,68.400
7.449,0.011,0.000,-0.032,-0.752,0.000,-0.010,0.035,-1.185,-3.952,55.475,68.400
7.462,0.011,0.000,-0.032,-0.748,0.000,-0.010,0.025,-1.220,-3.951,55.452,68.400
7.475,0.011,0.000,-0.033,-0.751,0.000,-0.010,0.013,-1.285,-3.950,55.450,68.400
7.488,0.011,0.000,-0.032,-0.754,0.000,-0.011,0.016,-1.345,-3.950,55.478,68.400
7.512,0.011,0.000,-0.032,-0.749,0.000,-0.011,0.030,-1.470,-3.951,55.414,68.400
7.525,0.011,0.000,-0.032,-0.750,0.000,-0.010,0.033,-1.535,-3.950,55.380,68.400
7.538,0.011,0.000,-0.032,-0.751,0.000,-0.010,0.028,-1.600,-3.949,55.392,68.400
7.551,0.011,0.000,-0.032,-0.752,0.000,-0.009,0.039,-1.660,-3.950,55.395,68.400
7.564,0.011,0.000,-0.032,-0.751,0.000,-0.009,0.033,-1.730,-3.950,55.342,68.400
7.577,0.011,0.000,-0.032,-0.750,0.000,-0.008,0.040,-1.795,-3.948,55.308,68.400
7.601,0.011,0.000,-0.031,-0.751,0.000,-0.009,0.007,-1.905,-3.948,55.356,68.400
7.614,0.011,0.000,-0.032,-0.748,0.000,-0.009,0.019,-1.970,-3.949,55.326,68.400
7.627,0.011,0.000,-0.032,-0.749,0.000,-0.009,0.032,-2.035,-3.949,55.260,68.400
7.640,0.011,0.000,-0.032,-0.750,0.000,-0.009,0.027,-2.100,-3.948,55.214,68.400
7.653,0.011,0.000,-0.033,-0.748,0.000,-0.009,0.033,-2.165,-3.948,55.237,68.400
7.666,0.011,0.000,-0.034,-0.746,0.000,-0.008,0.036,-2.205,-3.949,55.253,68.400
7.690,0.011,0.000,-0.036,-0.751,0.000,-0.008,0.022,-2.320,-3.950,55.159,68.400
7.703,0.011,0.000,-0.036,-0.750,0.000,-0.009,0.009,-2.385,-3.949,55.131,68.400
7.716,0.011,0.000,-0.036,-0.746,0.000,-0.009,0.020,-2.410,-3.950,55.161,68.400
7.729,0.011,0.000,-0.038,-0.746,0.000,-0.009,0.023,-2.410,-3.951,55.181,68.400
7.742,0.011,0.000,-0.038,-0.750,0.000,-0.010,0.010,-2.440,-3.951,55.151,68.400
7.756,0.012,0.000,-0.037,-0.753,0.000,-0.010,0.009,-2.505,-3.950,55.085,68.400
7.769,0.011,0.000,-0.038,-0.746,0.000,-0.011,0.019,-2.575,-3.949,55.134,68.400
7.793,0.011,0.000,-0.038,-0.752,0.000,-0.011,0.029,-2.695,-3.951,55.060,68.400
7.806,0.011,0.000,-0.037,-0.754,0.000,-0.010,0.037,-2.740,-3.950,55.018,68.400
7.819,0.011,0.000,-0.036,-0.749,0.000,-0.009,0.042,-2.740,-3.949,55.028,68.400
7.832,0.011,0.000,-0.037,-0.741,0.000,-0.009,0.025,-2.760,-3.949,55.051,68.400
7.845,0.011,0.000,-0.038,-0.748,0.000,-0.010,0.003,-2.830,-3.949,55.037,68.400
7.858,0.011,0.000,-0.037,-0.753,0.000,-0.010,0.012,-2.895,-3.950,55.001,68.400
7.882,0.012,0.000,-0.036,-0.745,0.000,-0.010,0.031,-2.970,-3.950,54.940,68.400
7.895,0.011,0.000,-0.038,-0.742,0.000,-0.011,0.015,-3.035,-3.950,54.914,68.400
7.909,0.012,0.000,-0.038,-0.751,0.000,-0.012,0.011,-3.105,-3.950,54.893,68.400
7.922,0.011,0.000,-0.037,-0.754,0.000,-0.012,0.028,-3.170,-3.950,54.850,68.400
7.935,0.011,0.000,-0.036,-0.750,0.000,-0.012,0.030,-3.235,-3.950,54.816,68.400
7.948,0.011,0.000,-0.036,-0.748,0.000,-0.011,0.032,-3.300,-3.950,54.774,68.400
7.961,0.011,0.000,-0.036,-0.751,0.000,-0.011,0.027,-3.365,-3.950,54.757,68.400
7.985,0.011,0.000,-0.034,-0.750,0.000,-0.011,0.031,-3.485,-3.951,54.670,68.400
7.998,0.011,0.000,-0.035,-0.746,0.000,-0.011,0.029,-3.550,-3.950,54.611,68.400
8.011,0.011,0.000,-0.036,-0.743,0.000,-0.011,0.017,-3.575,-3.949,54.590,68.400
8.024,0.011,0.000,-0.036,-0.751,0.000,-0.011,0.023,-3.575,-3.949,54.616,68.400
8.037,0.011,0.000,-0.035,-0.755,0.000,-0.011,0.038,-3.595,-3.949,54.619,68.400
8.050,0.011,0.000,-0.035,-0.748,0.000,-0.011,0.026,-3.665,-3.949,54.544,68.400
8.072,0.011,0.000,-0.037,-0.746,0.000,-0.011,0.013,-3.775,-3.947,54.472,68.400
8.085,0.011,0.000,-0.037,-0.753,0.000,-0.012,-0.001,-3.830,-3.947,54.493,68.400
8.098,0.011,0.000,-0.036,-0.751,0.000,-0.012,0.021,-3.890,-3.948,54.428,68.400
8.111,0.011,0.000,-0.036,-0.748,0.000,-0.013,0.017,-3.960,-3.947,54.348,68.400
8.124,0.011,0.000,-0.037,-0.748,0.000,-0.013,0.014,-4.025,-3.946,54.303,68.400
8.137,0.011,0.000,-0.036,-0.752,0.000,-0.014,0.010,-4.085,-3.947,54.309,68.400
8.164,0.011,0.000,-0.034,-0.746,0.000,-0.014,0.035,-4.210,-3.949,54.198,68.400
8.177,0.011,0.000,-0.035,-0.744,0.000,-0.014,0.033,-4.275,-3.948,54.124,68.400
8.190,0.011,0.000,-0.035,-0.750,0.000,-0.014,0.019,-4.340,-3.948,54.121,68.400
8.203,0.011,0.000,-0.034,-0.753,0.000,-0.014,0.020,-4.405,-3.949,54.082,68.400
8.216,0.011,0.000,-0.034,-0.750,0.000,-0.014,0.026,-4.415,-3.950,54.042,68.400
8.229,0.011,0.000,-0.035,-0.743,0.000,-0.013,0.035,-4.415,-3.949,53.978,68.400
8.242,0.011,0.000,-0.036,-0.747,0.000,-0.014,0.000,-4.435,-3.949,54.013,68.400
8.266,0.011,0.000,-0.036,-0.747,0.000,-0.015,0.016,-4.560,-3.951,53.945,68.400
8.279,0.011,0.000,-0.037,-0.744,0.000,-0.015,0.014,-4.625,-3.951,53.831,68.400
8.292,0.011,0.000,-0.037,-0.748,0.000,-0.015,0.019,-4.690,-3.950,53.784,68.400
8.305,0.011,0.000,-0.037,-0.748,0.000,-0.015,0.013,-4.750,-3.949,53.755,68.400
8.318,0.011,0.000,-0.038,-0.745,0.000,-0.016,0.016,-4.820,-3.949,53.738,68.400
8.331,0.011,0.000,-0.038,-0.747,0.000,-0.016,0.026,-4.885,-3.950,53.651,68.400
8.355,0.012,0.000,-0.038,-0.751,0.000,-0.015,0.035,-4.980,-3.948,53.545,68.400
8.368,0.011,0.000,-0.038,-0.748,0.000,-0.015,0.022,-5.050,-3.949,53.545,68.400
8.381,0.011,0.000,-0.039,-0.747,0.000,-0.015,0.015,-5.115,-3.950,53.479,68.400
8.394,0.011,0.000,-0.038,-0.750,0.000,-0.016,0.014,-5.180,-3.950,53.392,68.400
8.407,0.011,0.000,-0.038,-0.752,0.000,-0.016,0.015,-5.245,-3.950,53.318,68.400
8.420,0.011,0.000,-0.037,-0.749,0.000,-0.016,0.028,-5.275,-3.950,53.316,68.400
8.433,0.011,0.000,-0.037,-0.748,0.000,-0.016,0.027,-5.305,-3.951,53.287,68.400
8.457,0.011,0.000,-0.037,-0.752,0.000,-0.015,0.026,-5.425,-3.952,53.150,68.400
8.470,0.011,0.000,-0.035,-0.751,0.000,-0.015,0.022,-5.490,-3.952,53.090,68.400
8.483,0.011,0.000,-0.036,-0.746,0.000,-0.016,0.010,-5.525,-3.952,53.047,68.400
8.496,0.011,0.000,-0.037,-0.742,0.000,-0.017,-0.012,-5.560,-3.953,53.041,68.400
8.509,0.011,0.000,-0.037,-0.750,0.000,-0.017,0.023,-5.620,-3.953,52.943,68.400
8.522,0.011,0.000,-0.036,-0.752,0.000,-0.017,0.039,-5.690,-3.953,52.848,68.400
8.546,0.011,0.000,-0.037,-0.746,0.000,-0.016,0.020,-5.810,-3.953,52.744,68.400
8.559,0.011,0.000,-0.037,-0.750,0.000,-0.016,0.016,-5.870,-3.953,52.700,68.400
8.572,0.011,0.000,-0.035,-0.753,0.000,-0.016,0.024,-5.940,-3.954,52.627,68.400
8.586,0.012,0.000,-0.034,-0.749,0.000,-0.016,0.024,-6.010,-3.954,52.546,68.400
8.599,0.011,0.000,-0.036,-0.744,0.000,-0.016,0.017,-6.075,-3.954,52.482,68.400
8.612,0.011,0.000,-0.037,-0.741,0.000,-0.016,0.000,-6.140,-3.954,52.401,68.400
8.636,0.011,0.000,-0.037,-0.751,0.000,-0.018,0.001,-6.180,-3.954,52.326,68.400
8.649,0.011,0.000,-0.036,-0.748,0.000,-0.019,0.006,-6.240,-3.954,52.252,68.400
8.662,0.011,0.000,-0.037,-0.746,0.000,-0.020,-0.006,-6.310,-3.953,52.189,68.400
8.675,0.011,0.000,-0.038,-0.748,0.000,-0.021,0.001,-6.375,-3.954,52.137,68.400
8.688,0.011,0.000,-0.037,-0.751,0.000,-0.021,0.014,-6.435,-3.954,52.074,68.400
8.701,0.011,0.000,-0.036,-0.748,0.000,-0.021,0.040,-6.470,-3.954,52.012,68.400
8.714,0.011,0.000,-0.037,-0.746,0.000,-0.020,0.029,-6.530,-3.954,51.929,68.400
8.738,0.011,0.000,-0.038,-0.748,0.000,-0.019,0.022,-6.655,-3.954,51.821,68.400
8.751,0.011,0.000,-0.037,-0.749,0.000,-0.019,0.024,-6.720,-3.955,51.743,68.400
8.764,0.011,0.000,-0.037,-0.747,0.000,-0.018,0.044,-6.785,-3.955,51.632,68.400
8.777,0.011,0.000,-0.038,-0.747,0.000,-0.017,0.021,-6.850,-3.955,51.544,68.400
8.790,0.011,0.000,-0.038,-0.750,0.000,-0.018,0.015,-6.915,-3.954,51.473,68.400
8.804,0.012,0.000,-0.036,-0.754,0.000,-0.018,0.020,-6.985,-3.954,51.404,68.400
8.828,0.012,0.000,-0.035,-0.748,0.000,-0.017,0.028,-7.080,-3.954,51.250,68.400
8.841,0.011,0.000,-0.035,-0.747,0.000,-0.017,0.020,-7.080,-3.954,51.212,68.400
8.854,0.011,0.000,-0.035,-0.749,0.000,-0.017,0.011,-7.145,-3.954,51.145,68.400
8.867,0.011,0.000,-0.034,-0.751,0.000,-0.017,0.023,-7.215,-3.955,51.087,68.400
8.880,0.011,0.000,-0.033,-0.750,0.000,-0.017,0.029,-7.280,-3.956,50.988,68.400
8.893,0.011,0.000,-0.033,-0.751,0.000,-0.016,0.033,-7.345,-3.956,50.860,68.400
8.906,0.011,0.000,-0.032,-0.750,0.000,-0.016,0.011,-7.345,-3.955,50.840,68.400
8.930,0.011,0.000,-0.032,-0.749,0.000,-0.017,0.013,-7.465,-3.957,50.721,68.400
8.943,0.011,0.000,-0.032,-0.747,0.000,-0.018,0.015,-7.530,-3.957,50.602,68.400
8.956,0.011,0.000,-0.032,-0.748,0.000,-0.018,0.019,-7.595,-3.956,50.483,68.400
8.969,0.011,0.000,-0.032,-0.753,0.000,-0.018,0.023,-7.655,-3.955,50.404,68.400
8.982,0.011,0.000,-0.031,-0.751,0.000,-0.018,0.022,-7.720,-3.955,50.371,68.400
8.995,0.011,0.000,-0.030,-0.753,0.000,-0.017,0.024,-7.785,-3.955,50.281,68.400
9.019,0.011,0.000,-0.029,-0.751,0.000,-0.018,0.010,-7.905,-3.954,50.089,68.400
9.032,0.011,0.000,-0.029,-0.749,0.000,-0.018,-0.004,-7.955,-3.954,50.007,68.400
9.045,0.011,0.000,-0.029,-0.749,0.000,-0.019,0.013,-7.965,-3.954,49.969,68.400
9.058,0.011,0.000,-0.029,-0.750,0.000,-0.019,0.016,-8.035,-3.955,49.856,68.400
9.071,0.011,0.000,-0.028,-0.753,0.000,-0.019,0.013,-8.100,-3.954,49.729,68.400
9.084,0.011,0.000,-0.027,-0.751,0.000,-0.019,0.017,-8.160,-3.953,49.649,68.400
9.108,0.011,0.000,-0.027,-0.750,0.000,-0.019,-0.001,-8.175,-3.955,49.615,68.400
9.121,0.011,0.000,-0.026,-0.751,0.000,-0.020,0.011,-8.245,-3.955,49.461,68.400
9.134,0.011,0.000,-0.025,-0.752,0.000,-0.020,0.012,-8.310,-3.954,49.337,68.400
9.147,0.011,0.000,-0.025,-0.750,0.000,-0.020,0.010,-8.375,-3.953,49.231,68.400
9.160,0.011,0.000,-0.025,-0.747,0.000,-0.020,0.014,-8.440,-3.953,49.126,68.400
9.173,0.011,0.000,-0.025,-0.751,0.000,-0.021,0.008,-8.500,-3.952,49.055,68.400
9.186,0.011,0.000,-0.024,-0.752,0.000,-0.021,0.009,-8.565,-3.952,48.949,68.400
9.210,0.011,0.000,-0.022,-0.754,0.000,-0.021,0.023,-8.685,-3.951,48.794,68.400
9.223,0.011,0.000,-0.022,-0.751,0.000,-0.021,0.015,-8.750,-3.951,48.696,68.400
9.236,0.011,0.000,-0.021,-0.751,0.000,-0.022,0.004,-8.785,-3.952,48.609,68.400
9.249,0.011,0.000,-0.021,-0.752,0.000,-0.022,0.007,-8.795,-3.952,48.535,68.400
9.262,0.011,0.000,-0.020,-0.751,0.000,-0.022,0.016,-8.860,-3.952,48.443,68.400
9.275,0.011,0.000,-0.020,-0.746,0.000,-0.022,0.018,-8.930,-3.953,48.369,68.400
9.297,0.011,0.000,-0.021,-0.749,0.000,-0.022,0.023,-9.040,-3.954,48.174,68.400
9.310,0.011,0.000,-0.021,-0.753,0.000,-0.021,0.026,-9.100,-3.954,48.042,68.400
9.323,0.011,0.000,-0.020,-0.753,0.000,-0.021,0.029,-9.170,-3.954,47.934,68.400
9.336,0.011,0.000,-0.020,-0.750,0.000,-0.020,0.018,-9.235,-3.953,47.831,68.400
9.349,0.011,0.000,-0.020,-0.748,0.000,-0.020,0.018,-9.300,-3.953,47.746,68.400
9.362,0.011,0.000,-0.021,-0.748,0.000,-0.020,0.014,-9.365,-3.953,47.640,68.400
9.389,0.011,0.000,-0.021,-0.748,0.000,-0.021,-0.008,-9.480,-3.954,47.413,68.400
9.402,0.011,0.000,-0.021,-0.747,0.000,-0.022,-0.003,-9.540,-3.954,47.298,68.400
9.415,0.011,0.000,-0.023,-0.747,0.000,-0.023,-0.005,-9.560,-3.953,47.222,68.400
9.428,0.011,0.000,-0.023,-0.749,0.000,-0.024,0.001,-9.560,-3.953,47.158,68.400
9.441,0.011,0.000,-0.023,-0.750,0.000,-0.025,0.005,-9.560,-3.953,47.102,68.400
9.454,0.011,0.000,-0.023,-0.748,0.000,-0.025,0.016,-9.560,-3.953,47.033,68.400
9.467,0.011,0.000,-0.023,-0.748,0.000,-0.024,0.014,-9.560,-3.952,46.945,68.400
9.491,0.012,0.000,-0.022,-0.755,0.000,-0.024,0.016,-9.560,-3.951,46.863,68.400
9.504,0.011,0.000,-0.020,-0.754,0.000,-0.023,0.043,-9.560,-3.951,46.833,68.400
9.517,0.011,0.000,-0.019,-0.751,0.000,-0.022,0.022,-9.560,-3.951,46.729,68.400
9.530,0.011,0.000,-0.019,-0.751,0.000,-0.022,0.020,-9.560,-3.950,46.665,68.400
9.543,0.011,0.000,-0.018,-0.754,0.000,-0.022,0.013,-9.560,-3.949,46.595,68.400
9.556,0.011,0.000,-0.016,-0.757,0.000,-0.022,0.004,-9.560,-3.949,46.549,68.400
9.580,0.012,0.000,-0.016,-0.750,0.000,-0.023,0.006,-9.560,-3.948,46.431,68.400
9.593,0.011,0.000,-0.015,-0.751,0.000,-0.023,0.004,-9.560,-3.948,46.372,68.400
9.606,0.011,0.000,-0.015,-0.750,0.000,-0.024,-0.005,-9.560,-3.947,46.307,68.400
9.619,0.011,0.000,-0.016,-0.749,0.000,-0.024,0.001,-9.560,-3.947,46.272,68.400
9.632,0.011,0.000,-0.016,-0.750,0.000,-0.025,-0.003,-9.560,-3.948,46.213,68.400
9.645,0.011,0.000,-0.016,-0.749,0.000,-0.026,0.002,-9.560,-3.947,46.129,68.400
9.658,0.011,0.000,-0.016,-0.748,0.000,-0.026,0.005,-9.560,-3.947,46.017,68.400
9.682,0.012,0.000,-0.017,-0.750,0.000,-0.027,0.012,-9.560,-3.947,46.017,68.400
9.695,0.011,0.000,-0.017,-0.749,0.000,-0.026,0.016,-9.560,-3.948,45.928,68.400
9.708,0.011,0.000,-0.017,-0.748,0.000,-0.026,0.020,-9.560,-3.948,45.798,68.400
9.721,0.011,0.000,-0.018,-0.747,0.000,-0.026,0.006,-9.560,-3.947,45.724,68.400
9.734,0.011,0.000,-0.019,-0.750,0.000,-0.026,-0.002,-9.560,-3.947,45.678,68.400
9.747,0.011,0.000,-0.018,-0.752,0.000,-0.027,-0.000,-9.560,-3.948,45.662,68.400
9.771,0.012,0.000,-0.018,-0.748,0.000,-0.027,0.019,-9.560,-3.949,45.505,68.400
9.784,0.011,0.000,-0.019,-0.747,0.000,-0.026,0.022,-9.560,-3.948,45.415,68.400
9.797,0.011,0.000,-0.019,-0.748,0.000,-0.025,0.029,-9.560,-3.948,45.336,68.400
9.810,0.011,0.000,-0.020,-0.749,0.000,-0.024,0.016,-9.560,-3.948,45.267,68.400
9.823,0.011,0.000,-0.020,-0.748,0.000,-0.024,0.013,-9.560,-3.948,45.175,68.400
9.836,0.011,0.000,-0.020,-0.749,0.000,-0.024,0.020,-9.560,-3.947,45.063,68.400
9.860,0.012,0.000,-0.020,-0.749,0.000,-0.024,0.007,-9.560,-3.946,45.010,68.400
9.873,0.011,0.000,-0.021,-0.749,0.000,-0.024,0.015,-9.560,-3.947,44.998,68.400
9.886,0.011,0.000,-0.021,-0.749,0.000,-0.024,0.016,-9.560,-3.947,44.888,68.400
9.899,0.011,0.000,-0.021,-0.749,0.000,-0.024,0.012,-9.560,-3.947,44.790,68.400
9.912,0.011,0.000,-0.021,-0.749,0.000,-0.024,0.003,-9.560,-3.947,44.731,68.400
9.925,0.011,0.000,-0.022,-0.746,0.000,-0.024,0.015,-9.560,-3.946,44.682,68.400
9.938,0.011,0.000,-0.023,-0.745,0.000,-0.024,0.014,-9.560,-3.946,44.611,68.400
9.962,0.011,0.000,-0.023,-0.751,0.000,-0.024,0.006,-9.560,-3.946,44.495,68.400
9.975,0.011,0.000,-0.023,-0.750,0.000,-0.024,0.011,-9.560,-3.945,44.412,68.400
9.988,0.011,0.000,-0.023,-0.749,0.000,-0.024,0.002,-9.560,-3.945,44.359,68.400
10.001,0.011,0.000,-0.023,-0.749,0.000,-0.025,-0.001,-9.560,-3.945,44.289,68.400
10.014,0.011,0.000,-0.023,-0.751,0.000,-0.025,-0.003,-9.560,-3.945,44.212,68.400
10.027,0.011,0.000,-0.021,-0.753,0.000,-0.026,-0.012,-9.560,-3.944,44.132,68.400
10.051,0.012,0.000,-0.019,-0.751,0.000,-0.027,0.003,-9.560,-3.943,44.047,68.400
10.064,0.011,0.000,-0.018,-0.752,0.000,-0.027,0.016,-9.560,-3.943,43.989,68.400
10.077,0.011,0.000,-0.017,-0.752,0.000,-0.026,0.016,-9.560,-3.943,43.902,68.400
10.090,0.011,0.000,-0.016,-0.758,0.000,-0.026,0.013,-9.560,-3.943,43.824,68.400
10.103,0.011,0.000,-0.015,-0.752,0.000,-0.026,0.011,-9.560,-3.943,43.745,68.400
10.116,0.011,0.000,-0.015,-0.751,0.000,-0.025,0.011,-9.560,-3.942,43.670,68.400
10.140,0.011,0.000,-0.014,-0.752,0.000,-0.025,0.005,-9.560,-3.942,43.578,68.400
10.153,0.011,0.000,-0.014,-0.752,0.000,-0.025,0.018,-9.560,-3.942,43.501,68.400
10.166,0.011,0.000,-0.013,-0.754,0.000,-0.024,0.028,-9.560,-3.942,43.439,68.400
10.179,0.011,0.000,-0.013,-0.748,0.000,-0.023,0.037,-9.560,-3.942,43.394,68.400
10.192,0.011,0.000,-0.013,-0.750,0.000,-0.023,0.021,-9.560,-3.942,43.332,68.400
10.205,0.011,0.000,-0.013,-0.751,0.000,-0.022,0.013,-9.560,-3.943,43.295,68.400
10.218,0.011,0.000,-0.013,-0.751,0.000,-0.022,0.023,-9.560,-3.945,43.245,68.400
10.242,0.011,0.000,-0.013,-0.749,0.000,-0.020,0.023,-9.560,-3.947,43.105,68.400
10.255,0.011,0.000,-0.013,-0.749,0.000,-0.020,0.013,-9.560,-3.948,43.049,68.400
10.268,0.011,0.000,-0.013,-0.751,0.000,-0.020,0.012,-9.560,-3.949,42.999,68.400
10.281,0.011,0.000,-0.012,-0.756,0.000,-0.021,-0.017,-9.560,-3.950,42.975,68.400
10.294,0.011,0.000,-0.011,-0.753,0.000,-0.022,-0.004,-9.560,-3.951,42.896,68.400
10.307,0.011,0.000,-0.011,-0.752,0.000,-0.022,0.000,-9.560,-3.951,42.754,68.400
10.331,0.011,0.000,-0.011,-0.751,0.000,-0.023,0.005,-9.560,-3.949,42.659,68.400
10.344,0.011,0.000,-0.011,-0.751,0.000,-0.023,0.015,-9.560,-3.949,42.584,68.400
10.357,0.011,0.000,-0.010,-0.752,0.000,-0.022,0.028,-9.560,-3.949,42.525,68.400
10.370,0.011,0.000,-0.010,-0.750,0.000,-0.021,0.038,-9.560,-3.949,42.438,68.400
10.383,0.011,0.000,-0.010,-0.751,0.000,-0.019,0.034,-9.560,-3.948,42.368,68.400
10.396,0.011,0.000,-0.010,-0.751,0.000,-0.019,0.012,-9.560,-3.948,42.315,68.400
10.420,0.011,0.000,-0.009,-0.752,0.000,-0.019,0.025,-9.560,-3.948,42.218,68.400
10.433,0.011,0.000,-0.008,-0.753,0.000,-0.018,0.020,-9.560,-3.948,42.126,68.400
10.446,0.011,0.000,-0.008,-0.752,0.000,-0.018,0.016,-9.560,-3.948,42.046,68.400
10.459,0.011,0.000,-0.008,-0.753,0.000,-0.019,-0.002,-9.560,-3.947,41.984,68.400
10.472,0.011,0.000,-0.007,-0.752,0.000,-0.019,0.007,-9.560,-3.948,41.994,68.400
10.485,0.011,0.000,-0.007,-0.752,0.000,-0.019,0.013,-9.560,-3.950,41.884,68.400
10.498,0.011,0.000,-0.006,-0.753,0.000,-0.019,0.010,-9.560,-3.951,41.808,68.400
10.526,0.012,0.000,-0.005,-0.752,0.000,-0.020,0.014,-9.560,-3.950,41.651,68.400
10.539,0.011,0.000,-0.005,-0.753,0.000,-0.019,0.019,-9.560,-3.951,41.621,68.400
10.552,0.011,0.000,-0.004,-0.754,0.000,-0.019,0.031,-9.560,-3.952,41.540,68.400
10.565,0.011,0.000,-0.003,-0.752,0.000,-0.018,0.027,-9.560,-3.952,41.463,68.400
10.578,0.011,0.000,-0.003,-0.754,0.000,-0.017,0.021,-9.560,-3.951,41.365,68.400
10.591,0.011,0.000,-0.002,-0.753,0.000,-0.017,0.026,-9.560,-3.951,41.301,68.400
10.615,0.012,0.000,-0.001,-0.754,0.000,-0.016,0.018,-9.560,-3.951,41.202,68.400
10.628,0.011,0.000,-0.001,-0.752,0.000,-0.016,0.019,-9.560,-3.951,41.120,68.400
10.641,0.011,0.000,-0.001,-0.752,0.000,-0.016,0.019,-9.560,-3.951,41.046,68.400
10.654,0.011,0.000,-0.001,-0.752,0.000,-0.016,0.029,-9.560,-3.951,40.969,68.400
10.667,0.011,0.000,-0.001,-0.752,0.000,-0.015,0.031,-9.560,-3.951,40.902,68.400
10.680,0.011,0.000,-0.002,-0.750,0.000,-0.014,0.039,-9.560,-3.951,40.843,68.400
10.707,0.011,0.000,-0.002,-0.752,0.000,-0.011,0.047,-9.560,-3.950,40.705,68.400
10.720,0.011,0.000,-0.002,-0.751,0.000,-0.010,0.049,-9.560,-3.950,40.638,68.400
10.733,0.011,0.000,-0.002,-0.751,0.000,-0.010,0.025,-9.560,-3.950,40.585,68.400
10.746,0.011,0.000,-0.002,-0.751,0.000,-0.010,0.011,-9.560,-3.950,40.518,68.400
10.759,0.011,0.000,-0.002,-0.752,0.000,-0.011,0.013,-9.560,-3.950,40.413,68.400
10.772,0.011,0.000,-0.001,-0.754,0.000,-0.012,0.008,-9.560,-3.949,40.354,68.400
10.785,0.011,0.000,-0.001,-0.753,0.000,-0.013,0.014,-9.560,-3.949,40.279,68.400
10.809,0.012,0.000,-0.001,-0.751,0.000,-0.012,0.030,-9.560,-3.948,40.163,68.400
10.822,0.011,0.000,-0.001,-0.752,0.000,-0.012,0.033,-9.560,-3.947,40.086,68.400
10.835,0.011,0.000,-0.000,-0.755,0.000,-0.011,0.037,-9.560,-3.947,40.017,68.400
10.848,0.011,0.000,0.000,-0.753,0.000,-0.010,0.036,-9.560,-3.946,39.932,68.400
10.861,0.011,0.000,0.001,-0.752,0.000,-0.009,0.042,-9.560,-3.946,39.863,68.400
10.874,0.011,0.000,0.000,-0.750,0.000,-0.008,0.038,-9.560,-3.947,39.779,68.400
10.898,0.012,0.000,0.000,-0.755,0.000,-0.007,0.039,-9.560,-3.947,39.682,68.400
10.911,0.011,0.000,0.001,-0.755,0.000,-0.007,0.026,-9.560,-3.947,39.592,68.400
10.924,0.011,0.000,0.002,-0.753,0.000,-0.007,0.035,-9.560,-3.947,39.498,68.400
10.937,0.011,0.000,0.002,-0.753,0.000,-0.007,0.032,-9.560,-3.947,39.424,68.400
10.950,0.011,0.000,0.001,-0.752,0.000,-0.006,0.026,-9.560,-3.948,39.334,68.400
10.963,0.011,0.000,0.001,-0.751,0.000,-0.007,0.023,-9.560,-3.948,39.255,68.400
10.987,0.012,0.000,0.001,-0.754,0.000,-0.008,0.018,-9.560,-3.948,39.114,68.400
11.000,0.011,0.000,0.002,-0.753,0.000,-0.008,0.021,-9.560,-3.948,39.019,68.400
11.013,0.011,0.000,0.001,-0.752,0.000,-0.008,0.034,-9.560,-3.947,38.924,68.400
11.026,0.011,0.000,0.002,-0.752,0.000,-0.007,0.029,-9.560,-3.947,38.850,68.400
11.039,0.011,0.000,0.002,-0.754,0.000,-0.007,0.022,-9.560,-3.947,38.775,68.400
11.052,0.011,0.000,0.003,-0.755,0.000,-0.007,0.032,-9.560,-3.947,38.696,68.400
11.065,0.011,0.000,0.003,-0.754,0.000,-0.007,0.021,-9.560,-3.947,38.601,68.400
11.089,0.012,0.000,0.003,-0.752,0.000,-0.008,0.015,-9.560,-3.947,38.486,68.400
11.102,0.011,0.000,0.003,-0.754,0.000,-0.009,0.017,-9.560,-3.947,38.413,68.400
11.115,0.011,0.000,0.003,-0.754,0.000,-0.008,0.031,-9.560,-3.948,38.336,68.400
11.128,0.011,0.000,0.004,-0.752,0.000,-0.008,0.033,-9.560,-3.949,38.242,68.400
11.141,0.011,0.000,0.004,-0.752,0.000,-0.008,0.039,-9.560,-3.949,38.142,68.400
11.154,0.011,0.000,0.004,-0.753,0.000,-0.008,0.020,-9.560,-3.948,38.052,68.400
11.178,0.012,0.000,0.003,-0.751,0.000,-0.009,0.017,-9.560,-3.948,37.937,68.400
11.191,0.011,0.000,0.003,-0.753,0.000,-0.009,0.023,-9.560,-3.948,37.848,68.400
11.204,0.011,0.000,0.004,-0.755,0.000,-0.009,0.020,-9.560,-3.948,37.747,68.400
11.217,0.011,0.000,0.004,-0.753,0.000,-0.009,0.033,-9.560,-3.947,37.662,68.400
11.230,0.011,0.000,0.004,-0.750,0.000,-0.009,0.023,-9.560,-3.947,37.599,68.400
11.243,0.011,0.000,0.003,-0.752,0.000,-0.009,0.013,-9.560,-3.947,37.514,68.400
11.256,0.011,0.000,0.003,-0.751,0.000,-0.009,0.037,-9.560,-3.947,37.425,68.400
11.280,0.011,0.000,0.004,-0.754,0.000,-0.009,0.012,-9.560,-3.947,37.280,68.400
11.293,0.011,0.000,0.003,-0.753,0.000,-0.010,0.019,-9.560,-3.946,37.211,68.400
11.306,0.011,0.000,0.004,-0.756,0.000,-0.010,0.003,-9.560,-3.946,37.132,68.400
11.319,0.011,0.000,0.005,-0.750,0.000,-0.010,0.020,-9.560,-3.946,37.073,68.400
11.332,0.011,0.000,0.004,-0.754,0.000,-0.011,0.009,-9.560,-3.946,36.973,68.400
11.345,0.011,0.000,0.005,-0.753,0.000,-0.011,0.023,-9.560,-3.946,36.884,68.400
11.369,0.012,0.000,0.006,-0.756,0.000,-0.012,0.011,-9.560,-3.945,36.760,68.400
11.382,0.011,0.000,0.006,-0.753,0.000,-0.012,0.030,-9.560,-3.945,36.686,68.400
11.395,0.011,0.000,0.007,-0.756,0.000,-0.011,0.023,-9.560,-3.945,36.596,68.400
11.408,0.011,0.000,0.008,-0.757,0.000,-0.012,0.005,-9.560,-3.945,36.506,68.400
11.421,0.011,0.000,0.009,-0.753,0.000,-0.013,0.007,-9.560,-3.944,36.421,68.400
11.434,0.011,0.000,0.009,-0.756,0.000,-0.014,-0.002,-9.560,-3.944,36.342,68.400
