timestamp_s,dt_s,pitch_setpoint,pitch_measurement,pitch_command,pitch_control,roll_setpoint,roll_measurement,roll_command,roll_control,yaw_setpoint,yaw_measurement,yaw_command,yaw_control,throttle
0.091,0.091,0.043,-0.021,-0.397,-0.118,0.074,-1.153,0.304,-4.111,-17.200,100.800
0.093,0.001,0.054,-0.017,-0.287,-0.123,0.077,-0.851,0.282,-4.085,5.243,100.800
0.095,0.000,0.058,-0.017,-0.125,-0.130,0.077,-1.283,0.244,-4.084,9.436,100.800
0.097,0.000,0.066,-0.017,-0.125,-0.137,0.077,-1.283,0.188,-4.084,9.436,100.800
0.099,0.000,0.075,-0.017,-0.440,-0.134,0.077,-0.819,0.132,-4.084,28.029,100.800
0.111,0.001,0.066,-0.017,0.212,-0.119,0.077,2.016,0.177,-4.082,-11.587,100.800
0.112,0.000,0.054,-0.017,0.212,-0.118,0.077,2.016,0.236,-4.081,-11.587,100.800
0.114,0.000,0.045,-0.017,0.526,-0.113,0.078,0.744,0.307,-4.080,-33.095,100.800
0.117,0.001,0.033,-0.017,0.287,-0.091,0.078,3.275,0.375,-4.080,-17.535,100.800
0.118,0.000,0.013,-0.017,0.287,-0.066,0.078,3.275,0.426,-4.079,-17.535,100.800
0.120,0.000,-0.004,-0.017,0.932,-0.067,0.078,3.452,0.443,-4.078,-17.470,100.800
0.122,0.001,-0.013,-0.018,0.932,-0.065,0.078,3.452,0.430,-4.077,-17.470,100.800
0.134,0.001,-0.010,-0.018,0.149,-0.072,0.079,-0.818,0.317,-4.074,31.412,100.800
0.136,0.001,-0.006,-0.018,0.149,-0.088,0.079,-0.818,0.216,-4.073,31.412,100.800
0.137,0.000,-0.007,-0.018,-0.063,-0.109,0.079,-5.707,0.126,-4.073,47.916,100.800
0.139,0.000,0.004,-0.018,-0.063,-0.132,0.078,-5.707,0.046,-4.073,47.916,100.800
0.141,0.000,0.022,-0.018,-0.741,-0.154,0.078,-7.031,0.008,-4.073,29.823,100.800
0.143,0.001,0.029,-0.018,-0.741,-0.159,0.078,-7.031,0.011,-4.073,29.823,100.800
0.154,0.000,0.033,-0.018,-0.281,-0.116,0.078,5.473,0.126,-4.071,-29.726,100.800
0.156,0.000,0.026,-0.018,-0.281,-0.091,0.078,5.473,0.227,-4.071,-29.726,100.800
0.158,0.000,0.002,-0.019,0.769,-0.045,0.079,10.738,0.316,-4.070,-48.429,100.800
0.160,0.000,-0.026,-0.019,0.769,-0.023,0.079,10.738,0.381,-4.070,-48.429,100.800
0.162,0.001,-0.044,-0.019,1.183,-0.005,0.079,6.091,0.404,-4.069,-22.403,100.800
0.164,0.001,-0.047,-0.019,1.183,0.013,0.079,6.091,0.380,-4.068,-22.403,100.800
0.175,0.000,-0.035,-0.020,-0.213,-0.019,0.080,-2.238,0.216,-4.066,47.173,100.800
0.177,0.000,-0.020,-0.021,-0.213,-0.044,0.080,-2.238,0.071,-4.066,47.173,100.800
0.179,0.000,0.000,-0.021,-0.896,-0.079,0.080,-9.126,-0.057,-4.066,68.849,100.800
0.181,0.000,0.021,-0.021,-0.521,-0.076,0.080,0.338,-0.149,-4.066,23.212,100.800
0.183,0.001,0.040,-0.021,-0.521,-0.085,0.080,0.338,-0.180,-4.066,23.212,100.800
0.185,0.001,0.045,-0.021,-0.616,-0.092,0.080,-2.505,-0.140,-4.067,-2.128,100.800
0.187,0.001,0.032,-0.021,-0.616,-0.101,0.080,-2.505,-0.055,-4.067,-2.128,100.800
0.198,0.000,-0.003,-0.022,1.207,-0.076,0.081,2.290,0.053,-4.066,-48.692,100.800
0.200,0.000,-0.042,-0.022,1.207,-0.055,0.081,2.290,0.123,-4.066,-48.692,100.800
0.202,0.001,-0.071,-0.022,1.720,-0.026,0.081,7.450,0.182,-4.066,-32.762,100.800
0.204,0.001,-0.086,-0.023,1.720,-0.005,0.081,7.450,0.221,-4.065,-32.762,100.800
0.206,0.001,-0.094,-0.023,0.615,0.019,0.081,6.797,0.214,-4.065,-8.128,100.800
0.208,0.001,-0.099,-0.023,0.615,0.026,0.081,6.797,0.151,-4.064,-8.128,100.800
0.218,0.001,-0.076,-0.024,-0.435,-0.016,0.081,-5.269,0.034,-4.064,45.369,100.800
0.220,0.001,-0.037,-0.025,-0.435,-0.038,0.081,-5.269,-0.062,-4.064,45.369,100.800
0.222,0.001,-0.003,-0.025,-1.855,-0.067,0.081,-7.829,-0.140,-4.064,43.818,100.800
0.224,0.001,0.019,-0.025,-1.855,-0.092,0.081,-7.829,-0.199,-4.065,43.818,100.800
0.225,0.000,0.032,-0.024,-0.881,-0.113,0.080,-7.130,-0.212,-4.065,18.414,100.800
0.227,0.000,0.045,-0.025,-0.881,-0.115,0.080,-7.130,-0.177,-4.066,18.414,100.800
0.239,0.001,0.016,-0.025,0.389,-0.080,0.080,4.879,-0.058,-4.066,-38.823,100.800
0.240,0.000,-0.019,-0.025,0.389,-0.059,0.080,4.879,0.045,-4.066,-38.823,100.800
0.242,0.000,-0.046,-0.025,1.584,-0.036,0.080,6.562,0.126,-4.066,-46.458,100.800
0.244,0.000,-0.043,-0.025,1.584,-0.027,0.080,6.562,0.174,-4.066,-46.458,100.800
0.246,0.001,-0.037,-0.025,-0.221,-0.021,0.080,2.366,0.176,-4.065,-12.576,100.800
0.248,0.001,-0.037,-0.025,-0.221,-0.015,0.079,2.366,0.128,-4.065,-12.576,100.800
0.261,0.001,-0.008,-0.026,-0.728,-0.030,0.077,-1.466,0.008,-4.065,42.194,100.800
0.263,0.001,0.018,-0.026,-0.728,-0.060,0.077,-1.466,-0.072,-4.065,42.194,100.800
0.265,0.001,0.030,-0.026,-0.971,-0.089,0.076,-8.980,-0.134,-4.065,35.947,100.800
0.267,0.001,0.031,-0.026,-0.971,-0.085,0.076,-8.980,-0.163,-4.066,35.947,100.800
0.269,0.001,0.037,-0.026,-0.173,-0.088,0.076,-0.096,-0.139,-4.066,1.440,100.800
0.271,0.001,0.029,-0.026,-0.173,-0.082,0.076,-0.096,-0.065,-4.066,1.440,100.800
0.272,0.000,0.013,-0.026,0.595,-0.064,0.076,3.529,0.047,-4.066,-47.065,100.800
0.287,0.000,0.000,-0.027,0.316,-0.056,0.076,1.154,0.018,-4.066,7.474,100.800
0.289,0.000,-0.007,-0.027,0.316,-0.057,0.076,1.154,-0.039,-4.066,7.474,100.800
0.291,0.001,-0.008,-0.028,0.216,-0.065,0.075,-1.385,-0.134,-4.066,38.407,100.800
0.293,0.001,-0.004,-0.028,0.216,-0.084,0.075,-1.385,-0.247,-4.066,38.407,100.800
0.295,0.001,0.013,-0.027,-0.526,-0.123,0.074,-9.014,-0.356,-4.067,56.325,100.800
0.297,0.001,0.030,-0.027,-0.526,-0.136,0.074,-9.014,-0.451,-4.068,56.325,100.800
0.308,0.001,0.027,-0.026,-0.358,-0.137,0.071,-2.290,-0.334,-4.072,-5.292,100.800
0.310,0.001,0.033,-0.026,-0.358,-0.128,0.071,-2.290,-0.203,-4.072,-5.292,100.800
0.312,0.001,0.046,-0.026,-0.497,-0.099,0.070,5.546,-0.057,-4.072,-69.651,100.800
0.314,0.001,0.053,-0.026,-0.497,-0.053,0.071,5.546,0.091,-4.072,-69.651,100.800
0.315,0.000,0.045,-0.026,0.025,-0.003,0.071,14.504,0.228,-4.072,-72.120,100.800
0.317,0.000,0.023,-0.026,0.025,0.026,0.071,14.504,0.314,-4.071,-72.120,100.800
0.329,0.001,0.006,-0.026,0.958,-0.010,0.072,-0.975,0.117,-4.070,27.849,100.800
0.330,0.000,0.003,-0.026,0.958,-0.037,0.072,-0.975,-0.094,-4.070,27.849,100.800
0.332,0.000,0.012,-0.026,-0.144,-0.060,0.072,-7.772,-0.308,-4.070,100.800,100.800
0.334,0.000,0.027,-0.026,-0.144,-0.064,0.072,-7.772,-0.516,-4.071,100.800,100.800
0.336,0.001,0.051,-0.026,-0.985,-0.117,0.072,-8.662,-0.669,-4.073,91.573,100.800
0.338,0.001,0.060,-0.026,-0.985,-0.133,0.071,-8.662,-0.747,-4.074,91.573,100.800
0.340,0.001,0.064,-0.026,-0.359,-0.152,0.071,-5.569,-0.731,-4.075,16.370,100.800
0.351,0.001,0.092,-0.026,-0.717,-0.131,0.069,2.976,-0.439,-4.080,-73.298,100.800
0.353,0.001,0.102,-0.026,-0.717,-0.105,0.069,2.976,-0.183,-4.081,-73.298,100.800
0.355,0.001,0.097,-0.026,-0.161,-0.068,0.069,9.433,0.066,-4.081,-100.800,100.800
0.357,0.001,0.082,-0.026,-0.161,-0.078,0.069,9.433,0.251,-4.080,-100.800,100.800
0.359,0.001,0.052,-0.026,1.136,-0.045,0.069,3.324,0.356,-4.079,-73.375,100.800
0.360,0.000,0.030,-0.026,1.136,-0.020,0.069,3.324,0.361,-4.079,-73.375,100.800
0.372,0.001,0.045,-0.027,0.173,-0.026,0.069,2.965,0.049,-4.078,77.309,100.800
0.373,0.000,0.062,-0.028,0.173,-0.019,0.068,2.965,-0.243,-4.079,77.309,100.800
0.375,0.000,0.084,-0.028,-1.008,-0.061,0.068,-5.419,-0.548,-4.080,100.800,100.800
0.377,0.000,0.092,-0.028,-1.008,-0.061,0.068,-5.419,-0.799,-4.081,100.800,100.800
0.379,0.001,0.079,-0.028,0.107,-0.096,0.067,-5.392,-0.957,-4.083,100.800,100.800
0.381,0.001,0.053,-0.028,0.107,-0.064,0.067,-5.392,-0.978,-4.085,100.800,100.800
0.392,0.000,0.057,-0.029,0.530,-0.048,0.066,7.118,-0.573,-4.091,-96.057,100.800
0.394,0.001,0.032,-0.029,0.530,-0.081,0.066,7.118,-0.175,-4.092,-96.057,100.800
0.396,0.001,-0.011,-0.030,1.730,-0.086,0.066,-5.807,0.250,-4.091,-100.800,100.800
0.398,0.001,-0.048,-0.030,1.730,-0.111,0.066,-5.807,0.643,-4.090,-100.800,100.800
0.400,0.001,-0.092,-0.031,2.046,-0.071,0.066,2.123,0.929,-4.088,-100.800,100.800
0.402,0.001,-0.109,-0.031,2.046,-0.045,0.066,2.123,1.082,-4.086,-100.800,100.800
0.413,0.001,-0.122,-0.035,0.798,-0.049,0.066,3.250,0.708,-4.078,54.849,100.800
0.415,0.001,-0.112,-0.036,0.798,-0.022,0.066,3.250,0.322,-4.077,54.849,100.800
0.417,0.001,-0.100,-0.037,-0.526,-0.018,0.066,4.576,-0.067,-4.078,100.800,100.800
0.418,0.000,-0.083,-0.037,-0.526,-0.033,0.065,4.576,-0.438,-4.078,100.800,100.800
0.420,0.000,-0.071,-0.037,-0.730,-0.096,0.065,-11.835,-0.740,-4.080,100.800,100.800
0.422,0.000,-0.074,-0.038,-0.730,-0.104,0.064,-11.835,-0.874,-4.082,100.800,100.800
0.424,0.001,-0.049,-0.038,-0.529,-0.109,0.064,-2.152,-0.900,-4.083,41.069,100.800
0.436,0.001,-0.047,-0.039,-0.054,-0.111,0.061,-0.554,-0.578,-4.090,-80.409,100.800
0.438,0.001,-0.076,-0.040,0.751,-0.108,0.061,0.395,-0.277,-4.090,-75.617,100.800
0.439,0.000,-0.088,-0.040,0.751,-0.074,0.061,0.395,0.028,-4.090,-75.617,100.800
0.441,0.000,-0.075,-0.040,0.006,-0.096,0.060,1.579,0.277,-4.090,-100.800,100.800
0.443,0.000,-0.066,-0.041,0.006,-0.069,0.060,1.579,0.418,-4.089,-100.800,100.800
0.445,0.001,-0.048,-0.041,-0.670,-0.042,0.060,8.114,0.459,-4.088,-46.193,100.800
0.457,0.001,-0.039,-0.042,-0.214,-0.038,0.059,0.657,0.140,-4.087,80.212,100.800
0.458,0.000,-0.029,-0.043,-0.214,-0.027,0.058,0.657,-0.151,-4.087,80.212,100.800
0.460,0.000,-0.023,-0.043,-0.416,-0.051,0.058,-2.035,-0.430,-4.088,100.800,100.800
0.462,0.000,-0.018,-0.043,-0.416,-0.039,0.058,-2.035,-0.664,-4.089,100.800,100.800
0.464,0.000,-0.016,-0.043,-0.174,-0.060,0.058,-1.457,-0.787,-4.090,90.709,100.800
0.466,0.001,-0.012,-0.044,-0.174,-0.064,0.057,-1.457,-0.780,-4.092,90.709,100.800
0.477,0.000,-0.019,-0.045,0.095,-0.044,0.056,2.236,-0.417,-4.097,-92.714,100.800
0.479,0.001,-0.050,-0.045,0.095,-0.072,0.056,2.236,-0.066,-4.097,-92.714,100.800
0.481,0.001,-0.089,-0.045,1.767,-0.043,0.056,0.178,0.320,-4.096,-100.800,100.800
0.483,0.001,-0.113,-0.046,1.767,-0.067,0.056,0.178,0.647,-4.095,-100.800,100.800
0.485,0.001,-0.137,-0.046,1.242,-0.053,0.056,-1.683,0.864,-4.093,-100.800,100.800
0.487,0.001,-0.124,-0.047,1.242,-0.040,0.056,-1.683,0.942,-4.091,-100.800,100.800
0.498,0.001,-0.146,-0.050,0.271,-0.047,0.055,0.826,0.537,-4.085,81.996,100.800
0.500,0.001,-0.129,-0.050,0.271,-0.021,0.055,0.826,0.140,-4.085,81.996,100.800
0.502,0.001,-0.105,-0.051,-0.998,-0.029,0.055,2.713,-0.270,-4.086,100.800,100.800
0.504,0.001,-0.084,-0.051,-0.998,-0.034,0.054,2.713,-0.647,-4.087,100.800,100.800
0.506,0.001,-0.074,-0.051,-0.776,-0.085,0.054,-8.498,-0.932,-4.089,100.800,100.800
0.508,0.001,-0.084,-0.051,-0.776,-0.066,0.054,-8.498,-1.076,-4.091,100.800,100.800
0.517,0.001,-0.069,-0.051,-0.097,-0.019,0.052,9.939,-0.760,-4.097,-42.633,100.800
0.518,0.000,-0.070,-0.051,-0.097,0.020,0.052,9.939,-0.414,-4.098,-42.633,100.800
0.520,0.000,-0.079,-0.051,0.271,0.020,0.052,5.845,-0.006,-4.098,-100.800,100.800
0.522,0.001,-0.103,-0.051,0.271,-0.029,0.052,5.845,0.383,-4.098,-100.800,100.800
0.524,0.001,-0.141,-0.052,1.574,-0.002,0.053,-3.339,0.703,-4.096,-100.800,100.800
0.526,0.001,-0.153,-0.052,1.574,-0.013,0.053,-3.339,0.938,-4.094,-100.800,100.800
0.528,0.001,-0.130,-0.052,-0.244,-0.020,0.053,-2.754,1.072,-4.092,-94.199,100.800
0.539,0.001,-0.132,-0.054,0.082,-0.038,0.054,-2.729,0.706,-4.085,91.447,100.800
0.541,0.001,-0.114,-0.054,0.082,-0.058,0.054,-2.729,0.328,-4.084,91.447,100.800
0.543,0.001,-0.083,-0.054,-1.214,-0.055,0.054,-2.667,-0.077,-4.084,100.800,100.800
0.545,0.001,-0.046,-0.054,-1.214,-0.019,0.054,-2.667,-0.475,-4.085,100.800,100.800
0.547,0.001,0.003,-0.054,-2.152,-0.067,0.054,-1.956,-0.711,-4.086,100.800,100.800
0.549,0.001,0.018,-0.054,-2.152,-0.071,0.053,-1.956,-0.818,-4.088,100.800,100.800
0.563,0.000,-0.011,-0.054,0.348,-0.082,0.052,-2.292,-0.410,-4.094,-75.406,100.800
0.565,0.000,-0.038,-0.054,0.348,-0.086,0.052,-2.292,-0.016,-4.094,-75.406,100.800
0.567,0.001,-0.059,-0.054,1.209,-0.087,0.052,-0.900,0.370,-4.093,-100.800,100.800
0.569,0.001,-0.077,-0.054,1.209,-0.088,0.051,-0.900,0.687,-4.092,-100.800,100.800
0.571,0.001,-0.093,-0.054,0.895,-0.030,0.051,8.532,0.880,-4.090,-100.800,100.800
0.573,0.001,-0.081,-0.055,0.895,-0.033,0.052,8.532,0.932,-4.088,-100.800,100.800
0.584,0.001,-0.082,-0.057,-0.261,-0.035,0.051,-0.746,0.496,-4.083,96.351,100.800
0.586,0.001,-0.058,-0.057,-0.261,-0.018,0.051,-0.746,0.068,-4.083,96.351,100.800
0.588,0.001,-0.029,-0.057,-1.325,-0.060,0.051,-3.871,-0.398,-4.083,100.800,100.800
0.590,0.001,-0.002,-0.057,-1.325,-0.054,0.050,-3.871,-0.801,-4.085,100.800,100.800
0.592,0.001,0.022,-0.057,-1.286,-0.109,0.050,-7.680,-1.088,-4.087,100.800,100.800
0.594,0.001,0.016,-0.057,-1.286,-0.102,0.049,-7.680,-1.223,-4.089,100.800,100.800
0.605,0.001,0.016,-0.056,0.124,-0.071,0.047,5.685,-0.842,-4.099,-61.114,100.800
0.607,0.001,-0.004,-0.056,0.124,-0.094,0.047,5.685,-0.452,-4.100,-61.114,100.800
0.609,0.001,-0.046,-0.056,1.583,-0.104,0.047,-5.079,-0.054,-4.100,-100.800,100.800
0.611,0.001,-0.057,-0.056,1.583,-0.107,0.046,-5.079,0.314,-4.099,-100.800,100.800
0.613,0.001,-0.072,-0.056,0.663,-0.064,0.046,5.954,0.581,-4.098,-100.800,100.800
0.614,0.000,-0.063,-0.056,0.663,-0.047,0.046,5.954,0.725,-4.097,-100.800,100.800
0.626,0.001,-0.087,-0.058,0.418,-0.082,0.045,-2.829,0.392,-4.092,47.051,100.800
0.628,0.001,-0.062,-0.058,0.418,-0.063,0.044,-2.829,0.031,-4.092,47.051,100.800
0.630,0.001,-0.033,-0.058,-1.356,-0.096,0.044,-2.366,-0.356,-4.093,100.800,100.800
0.631,0.000,-0.009,-0.058,-1.356,-0.095,0.043,-2.366,-0.705,-4.094,100.800,100.800
0.633,0.000,0.009,-0.058,-1.072,-0.121,0.043,-3.915,-0.973,-4.096,100.800,100.800
0.635,0.000,0.013,-0.058,-0.091,-0.109,0.042,1.566,-1.121,-4.099,38.434,100.800
0.637,0.000,0.007,-0.058,-0.091,-0.123,0.042,1.566,-1.168,-4.101,38.434,100.800
0.649,0.001,0.002,-0.058,0.265,-0.116,0.039,-1.162,-0.801,-4.110,-79.799,100.800
0.651,0.001,-0.018,-0.058,0.265,-0.115,0.038,-1.162,-0.457,-4.111,-79.799,100.800
0.652,0.000,-0.049,-0.058,1.306,-0.108,0.038,0.989,-0.128,-4.111,-100.800,100.800
0.654,0.000,-0.062,-0.058,1.306,-0.132,0.038,0.989,0.176,-4.111,-100.800,100.800
0.656,0.000,-0.079,-0.058,0.759,-0.079,0.037,4.387,0.339,-4.110,-100.800,100.800
0.658,0.001,-0.072,-0.058,0.759,-0.052,0.037,4.387,0.403,-4.109,-100.800,100.800
0.669,0.000,-0.081,-0.060,0.079,-0.074,0.036,0.603,0.066,-4.108,68.790,100.800
0.671,0.000,-0.054,-0.060,0.079,-0.071,0.036,0.603,-0.267,-4.109,68.790,100.800
0.673,0.000,-0.021,-0.060,-1.517,-0.113,0.035,-6.079,-0.646,-4.110,100.800,100.800
0.675,0.001,0.002,-0.060,-1.517,-0.098,0.035,-6.079,-0.968,-4.112,100.800,100.800
0.677,0.001,-0.000,-0.060,-0.504,-0.121,0.035,-1.471,-1.196,-4.114,100.800,100.800
0.679,0.001,-0.015,-0.061,-0.504,-0.122,0.034,-1.471,-1.277,-4.117,100.800,100.800
0.690,0.000,0.002,-0.060,-0.068,-0.082,0.033,5.883,-0.853,-4.126,-85.516,100.800
0.692,0.001,-0.010,-0.060,-0.068,-0.095,0.033,5.883,-0.421,-4.127,-85.516,100.800
0.694,0.001,-0.046,-0.060,1.228,-0.096,0.033,-2.251,0.034,-4.127,-100.800,100.800
0.696,0.001,-0.081,-0.060,1.228,-0.136,0.032,-2.251,0.481,-4.126,-100.800,100.800
0.698,0.001,-0.115,-0.061,1.763,-0.101,0.032,-0.918,0.820,-4.125,-100.800,100.800
0.700,0.001,-0.114,-0.061,1.763,-0.052,0.032,-0.918,0.989,-4.123,-100.800,100.800
0.711,0.000,-0.122,-0.065,0.199,-0.077,0.031,3.471,0.653,-4.115,41.597,100.800
0.713,0.001,-0.118,-0.065,0.199,-0.058,0.031,3.471,0.291,-4.115,41.597,100.800
0.715,0.001,-0.096,-0.066,-0.618,-0.098,0.031,-3.366,-0.098,-4.115,100.800,100.800
0.717,0.001,-0.071,-0.066,-0.618,-0.127,0.031,-3.366,-0.456,-4.116,100.800,100.800
0.719,0.001,-0.051,-0.067,-1.143,-0.170,0.030,-11.096,-0.759,-4.117,100.800,100.800
0.721,0.001,-0.040,-0.067,-1.143,-0.162,0.030,-11.096,-0.952,-4.119,100.800,100.800
0.732,0.000,-0.038,-0.068,-0.314,-0.129,0.028,6.085,-0.625,-4.126,-33.082,100.800
0.734,0.001,-0.045,-0.068,-0.314,-0.127,0.027,6.085,-0.279,-4.127,-33.082,100.800
0.736,0.001,-0.064,-0.068,0.677,-0.123,0.027,0.667,0.089,-4.127,-100.800,100.800
0.738,0.001,-0.089,-0.068,0.677,-0.134,0.027,0.667,0.455,-4.126,-100.800,100.800
0.740,0.001,-0.102,-0.068,0.989,-0.093,0.026,4.411,0.730,-4.124,-100.800,100.800
0.742,0.001,-0.093,-0.068,0.989,-0.081,0.026,4.411,0.902,-4.123,-100.800,100.800
0.744,0.001,-0.087,-0.068,-0.362,-0.054,0.026,5.816,0.966,-4.121,-60.392,100.800
0.755,0.001,-0.082,-0.070,-0.102,-0.042,0.026,1.658,0.623,-4.114,85.871,100.800
0.757,0.001,-0.051,-0.070,-0.102,-0.041,0.026,1.658,0.292,-4.113,85.871,100.800
0.759,0.001,-0.021,-0.070,-1.542,-0.051,0.025,-1.411,-0.062,-4.113,100.800,100.800
0.761,0.001,0.014,-0.070,-1.542,-0.028,0.025,-1.411,-0.374,-4.114,100.800,100.800
0.763,0.001,0.033,-0.070,-1.370,-0.070,0.025,-2.895,-0.571,-4.115,100.800,100.800
0.765,0.001,0.045,-0.070,-1.370,-0.082,0.025,-2.895,-0.641,-4.116,100.800,100.800
0.776,0.001,0.042,-0.068,-0.236,-0.059,0.023,1.531,-0.280,-4.120,-72.856,100.800
0.778,0.001,0.018,-0.068,0.598,-0.067,0.023,-1.354,0.085,-4.119,-92.062,100.800
0.780,0.001,-0.011,-0.068,0.598,-0.045,0.023,-1.354,0.488,-4.119,-92.062,100.800
0.782,0.001,-0.026,-0.068,1.111,-0.069,0.023,-0.380,0.835,-4.117,-100.800,100.800
0.784,0.001,-0.047,-0.068,1.111,-0.028,0.023,-0.380,1.061,-4.115,-100.800,100.800
0.786,0.001,-0.035,-0.068,0.246,0.005,0.023,11.284,1.154,-4.113,-81.373,100.800
0.797,0.001,-0.042,-0.069,0.187,0.008,0.024,0.387,0.744,-4.104,100.800,100.800
0.799,0.001,-0.026,-0.070,0.187,0.026,0.024,0.387,0.345,-4.104,100.800,100.800
0.801,0.001,0.000,-0.070,-1.063,0.006,0.024,-0.317,-0.067,-4.104,100.800,100.800
0.803,0.001,0.030,-0.070,-1.063,-0.001,0.023,-0.317,-0.463,-4.105,100.800,100.800
0.804,0.000,0.054,-0.069,-1.363,-0.053,0.023,-8.966,-0.754,-4.106,100.800,100.800
0.806,0.000,0.057,-0.069,-1.363,-0.060,0.023,-8.966,-0.898,-4.108,100.800,100.800
0.816,0.001,0.059,-0.068,-0.153,-0.013,0.021,5.972,-0.587,-4.113,-41.606,100.800
0.817,0.000,0.039,-0.068,-0.153,0.019,0.021,5.972,-0.253,-4.114,-41.606,100.800
0.819,0.000,0.017,-0.068,1.052,0.019,0.022,4.893,0.141,-4.113,-100.800,100.800
0.821,0.000,-0.007,-0.068,1.052,-0.024,0.022,4.893,0.531,-4.112,-100.800,100.800
0.823,0.001,-0.040,-0.068,1.441,-0.000,0.022,-2.912,0.845,-4.111,-100.800,100.800
0.825,0.001,-0.053,-0.068,1.441,-0.018,0.022,-2.912,1.060,-4.109,-100.800,100.800
0.827,0.001,-0.035,-0.068,-0.118,-0.024,0.022,-3.652,1.170,-4.107,-82.999,100.800
0.841,0.000,-0.009,-0.069,-0.642,-0.011,0.022,1.968,0.751,-4.096,100.800,100.800
0.843,0.000,0.022,-0.069,-0.642,-0.011,0.022,1.968,0.358,-4.095,100.800,100.800
0.845,0.000,0.038,-0.069,-1.183,-0.032,0.022,-3.185,-0.047,-4.095,100.800,100.800
0.847,0.001,0.038,-0.069,-1.183,-0.015,0.022,-3.185,-0.402,-4.096,100.800,100.800
0.849,0.001,0.039,-0.069,-0.038,-0.067,0.022,-5.405,-0.628,-4.097,100.800,100.800
0.851,0.001,0.054,-0.068,-0.038,-0.083,0.022,-5.405,-0.712,-4.098,100.800,100.800
0.862,0.001,0.047,-0.067,-0.229,-0.044,0.021,3.373,-0.309,-4.102,-79.871,100.800
0.864,0.001,0.022,-0.067,-0.229,-0.066,0.021,3.373,0.088,-4.102,-79.871,100.800
0.866,0.001,-0.006,-0.067,1.351,-0.083,0.021,-5.954,0.497,-4.101,-100.800,100.800
0.868,0.001,-0.014,-0.067,1.351,-0.121,0.021,-5.954,0.908,-4.099,-100.800,100.800
0.870,0.001,-0.051,-0.067,1.139,-0.074,0.021,1.247,1.154,-4.097,-100.800,100.800
0.872,0.001,-0.046,-0.067,1.139,-0.044,0.021,1.247,1.271,-4.094,-100.800,100.800
0.883,0.001,-0.067,-0.069,0.408,-0.064,0.021,1.408,0.903,-4.084,62.250,100.800
0.885,0.001,-0.057,-0.069,0.408,-0.034,0.021,1.408,0.522,-4.083,62.250,100.800
0.886,0.000,-0.029,-0.069,-0.941,-0.014,0.021,7.533,0.145,-4.083,100.800,100.800
0.888,0.000,0.005,-0.070,-0.941,-0.044,0.021,7.533,-0.225,-4.083,100.800,100.800
0.890,0.000,0.042,-0.070,-1.800,-0.094,0.020,-12.260,-0.511,-4.084,100.800,100.800
0.892,0.000,0.045,-0.070,-0.079,-0.093,0.020,-0.005,-0.658,-4.086,37.604,100.800
0.904,0.001,0.032,-0.069,0.320,-0.075,0.019,2.620,-0.378,-4.090,-70.237,100.800
0.905,0.000,0.013,-0.069,0.320,-0.079,0.019,2.620,-0.092,-4.090,-70.237,100.800
0.907,0.000,-0.017,-0.069,1.244,-0.059,0.019,2.344,0.213,-4.090,-100.800,100.800
0.909,0.000,-0.044,-0.069,1.244,-0.061,0.020,2.344,0.477,-4.089,-100.800,100.800
0.911,0.001,-0.053,-0.070,0.918,-0.045,0.020,2.138,0.660,-4.088,-100.800,100.800
0.913,0.001,-0.048,-0.070,0.918,-0.035,0.020,2.138,0.749,-4.086,-100.800,100.800
0.915,0.001,-0.042,-0.070,-0.275,0.012,0.020,8.493,0.740,-4.085,-20.931,100.800
0.926,0.001,-0.031,-0.070,-0.265,0.023,0.022,1.703,0.459,-4.080,70.294,100.800
0.928,0.001,-0.023,-0.070,-0.265,0.009,0.022,1.703,0.215,-4.079,70.294,100.800
0.930,0.001,-0.017,-0.070,-0.347,-0.029,0.022,-7.845,-0.024,-4.079,100.800,100.800
0.932,0.001,-0.008,-0.070,-0.347,-0.004,0.022,-7.845,-0.232,-4.080,100.800,100.800
0.934,0.001,-0.005,-0.070,-0.300,-0.001,0.022,4.162,-0.349,-4.080,82.349,100.800
0.935,0.000,0.015,-0.070,-0.300,-0.021,0.022,4.162,-0.352,-4.081,82.349,100.800
0.947,0.001,0.015,-0.069,-0.511,-0.003,0.023,-0.307,-0.037,-4.082,-78.802,100.800
0.949,0.001,-0.009,-0.069,0.615,-0.021,0.023,-2.606,0.267,-4.081,-76.790,100.800
0.951,0.001,-0.044,-0.069,0.615,0.015,0.023,-2.606,0.598,-4.080,-76.790,100.800
0.953,0.001,-0.066,-0.069,1.429,0.000,0.023,3.127,0.851,-4.078,-100.800,100.800
0.954,0.000,-0.089,-0.069,1.429,0.014,0.023,3.127,0.994,-4.076,-100.800,100.800
0.956,0.000,-0.080,-0.070,0.375,0.030,0.024,4.548,1.022,-4.075,-44.089,100.800
0.967,0.000,-0.078,-0.072,-0.020,0.031,0.025,0.221,0.658,-4.067,91.096,100.800
0.969,0.000,-0.066,-0.072,-0.020,0.041,0.025,0.221,0.304,-4.067,91.096,100.800
0.971,0.001,-0.057,-0.072,-0.527,-0.013,0.025,-6.668,-0.050,-4.067,100.800,100.800
0.973,0.001,-0.033,-0.072,-0.527,-0.028,0.025,-6.668,-0.349,-4.067,100.800,100.800
0.975,0.001,-0.026,-0.073,-0.765,-0.039,0.024,-4.059,-0.560,-4.068,100.800,100.800
0.977,0.001,-0.023,-0.073,-0.765,-0.054,0.024,-4.059,-0.645,-4.070,100.800,100.800
0.988,0.000,-0.016,-0.073,-0.250,-0.022,0.023,2.542,-0.321,-4.073,-59.707,100.800
0.990,0.001,-0.026,-0.073,-0.250,-0.032,0.023,2.542,0.001,-4.073,-59.707,100.800
0.992,0.001,-0.046,-0.073,0.773,-0.024,0.023,-0.237,0.352,-4.073,-100.800,100.800
0.994,0.001,-0.066,-0.073,0.773,-0.055,0.023,-0.237,0.685,-4.071,-100.800,100.800
0.996,0.001,-0.098,-0.073,1.326,-0.036,0.023,-1.909,0.936,-4.070,-100.800,100.800
0.998,0.001,-0.081,-0.073,1.326,-0.033,0.023,-1.909,1.012,-4.068,-100.800,100.800
1.009,0.001,-0.093,-0.075,-0.116,-0.043,0.022,-1.210,0.623,-4.061,78.245,100.800
1.011,0.001,-0.079,-0.075,-0.116,-0.026,0.022,-1.210,0.218,-4.060,78.245,100.800
1.013,0.001,-0.053,-0.075,-0.992,-0.022,0.022,3.191,-0.184,-4.060,100.800,100.800
1.015,0.001,-0.034,-0.076,-0.992,-0.012,0.022,3.191,-0.562,-4.062,100.800,100.800
1.017,0.001,-0.011,-0.076,-1.050,-0.052,0.021,-4.527,-0.835,-4.063,100.800,100.800
1.019,0.001,-0.001,-0.076,-1.050,-0.053,0.021,-4.527,-0.975,-4.065,100.800,100.800
1.020,0.000,0.009,-0.075,-0.492,-0.057,0.021,-0.940,-1.013,-4.067,45.894,100.800
1.032,0.001,0.007,-0.075,0.033,-0.087,0.018,-4.601,-0.674,-4.074,-84.881,100.800
1.034,0.001,-0.010,-0.075,0.033,-0.097,0.018,-4.601,-0.355,-4.075,-84.881,100.800
1.035,0.000,-0.029,-0.075,0.911,-0.054,0.018,4.862,-0.026,-4.075,-100.800,100.800
1.038,0.001,-0.033,-0.075,0.108,-0.069,0.017,-2.288,0.255,-4.075,-71.241,100.800
1.040,0.001,-0.034,-0.075,0.108,-0.049,0.017,-2.288,0.442,-4.074,-71.241,100.800
1.041,0.000,-0.007,-0.075,-0.647,-0.038,0.017,4.524,0.452,-4.073,-49.936,100.800
1.053,0.001,-0.005,-0.075,-0.043,-0.046,0.015,-1.233,0.140,-4.071,78.372,100.800
1.055,0.001,0.017,-0.075,-0.043,-0.038,0.014,-1.233,-0.144,-4.072,78.372,100.800
1.056,0.000,0.044,-0.075,-1.241,-0.085,0.014,-6.090,-0.436,-4.073,100.800,100.800
1.058,0.000,0.081,-0.075,-1.241,-0.085,0.013,-6.090,-0.678,-4.074,100.800,100.800
1.060,0.000,0.108,-0.075,-1.641,-0.112,0.013,-4.147,-0.827,-4.075,99.395,100.800
1.062,0.001,0.103,-0.075,-1.641,-0.110,0.012,-4.147,-0.849,-4.077,99.395,100.800
1.074,0.001,0.102,-0.074,0.123,-0.085,0.010,3.853,-0.488,-4.083,-85.062,100.800
1.075,0.000,0.080,-0.074,0.123,-0.092,0.010,3.853,-0.141,-4.083,-85.062,100.800
1.077,0.000,0.051,-0.074,1.276,-0.071,0.010,1.989,0.236,-4.082,-100.800,100.800
1.079,0.000,0.041,-0.074,1.276,-0.110,0.010,1.989,0.573,-4.081,-100.800,100.800
1.081,0.001,0.011,-0.074,1.000,-0.091,0.009,-3.056,0.816,-4.080,-100.800,100.800
1.083,0.001,-0.008,-0.075,1.000,-0.079,0.009,-3.056,0.916,-4.078,-100.800,100.800
1.094,0.000,-0.002,-0.076,0.319,-0.078,0.008,1.805,0.515,-4.072,75.250,100.800
1.096,0.001,0.021,-0.076,0.319,-0.053,0.008,1.805,0.123,-4.072,75.250,100.800
1.098,0.001,0.042,-0.076,-1.114,-0.066,0.008,1.742,-0.274,-4.072,100.800,100.800
1.100,0.001,0.064,-0.076,-1.114,-0.075,0.007,1.742,-0.661,-4.074,100.800,100.800
1.102,0.001,0.077,-0.076,-0.884,-0.102,0.007,-5.625,-0.960,-4.075,100.800,100.800
1.104,0.001,0.071,-0.076,-0.884,-0.098,0.007,-5.625,-1.064,-4.078,100.800,100.800
1.105,0.000,0.065,-0.076,0.286,-0.115,0.006,-2.175,-1.061,-4.079,26.747,100.800
1.121,0.001,0.030,-0.076,0.864,-0.090,0.003,3.684,-0.755,-4.091,-76.562,100.800
1.122,0.000,0.021,-0.076,0.224,-0.078,0.002,1.684,-0.507,-4.092,-61.852,100.800
1.124,0.000,0.022,-0.076,0.224,-0.027,0.002,1.684,-0.289,-4.092,-61.852,100.800
1.126,0.000,0.016,-0.076,0.116,0.006,0.002,12.764,-0.142,-4.093,-91.782,100.800
1.128,0.001,0.006,-0.076,0.116,0.029,0.002,12.764,-0.092,-4.093,-91.782,100.800
1.130,0.001,0.001,-0.076,0.395,0.023,0.002,2.633,-0.128,-4.093,-3.447,100.800
1.141,0.000,0.018,-0.075,-0.453,0.031,0.002,1.173,-0.385,-4.097,65.248,100.800
1.143,0.001,0.046,-0.075,-0.453,0.026,0.002,1.173,-0.604,-4.098,65.248,100.800
1.145,0.001,0.065,-0.075,-1.203,-0.010,0.002,-6.162,-0.792,-4.100,100.800,100.800
1.147,0.001,0.077,-0.075,-1.203,-0.044,0.002,-6.162,-0.923,-4.102,100.800,100.800
1.149,0.001,0.068,-0.074,-0.084,-0.076,0.001,-10.112,-0.974,-4.104,46.726,100.800
1.151,0.001,0.069,-0.074,-0.084,-0.086,0.001,-10.112,-0.927,-4.105,46.726,100.800
1.162,0.001,0.060,-0.073,0.179,-0.065,-0.000,1.582,-0.619,-4.112,-88.753,100.800
1.164,0.001,0.040,-0.072,0.179,-0.051,-0.000,1.582,-0.327,-4.113,-88.753,100.800
1.166,0.001,0.011,-0.072,1.238,-0.035,-0.000,4.409,-0.045,-4.113,-100.800,100.800
1.167,0.000,-0.014,-0.072,1.238,-0.026,-0.000,4.409,0.197,-4.113,-100.800,100.800
1.169,0.000,-0.044,-0.072,1.397,0.007,-0.000,6.414,0.348,-4.112,-99.570,100.800
1.171,0.000,-0.042,-0.072,1.397,0.021,-0.000,6.414,0.336,-4.111,-99.570,100.800
1.173,0.001,-0.044,-0.072,0.020,0.058,-0.000,7.840,0.244,-4.111,26.027,100.800
1.184,0.001,-0.010,-0.072,-0.868,0.107,0.002,7.471,-0.019,-4.111,66.238,100.800
1.186,0.000,0.029,-0.071,-0.868,0.088,0.002,7.471,-0.229,-4.111,66.238,100.800
1.188,0.001,0.045,-0.071,-1.384,0.028,0.002,-11.789,-0.392,-4.112,94.501,100.800
1.190,0.001,0.044,-0.071,-1.384,0.029,0.002,-11.789,-0.470,-4.113,94.501,100.800
1.192,0.001,0.047,-0.070,-0.076,0.002,0.002,-3.978,-0.461,-4.114,17.901,100.800
1.194,0.001,0.062,-0.070,-0.076,-0.033,0.002,-3.978,-0.381,-4.115,17.901,100.800
1.205,0.001,0.041,-0.068,0.149,-0.024,0.003,-3.953,-0.160,-4.116,-75.861,100.800
1.207,0.001,0.004,-0.068,0.149,-0.015,0.003,-3.953,0.022,-4.116,-75.861,100.800
1.209,0.001,-0.030,-0.068,1.786,0.036,0.003,9.077,0.186,-4.116,-87.255,100.800
1.211,0.001,-0.041,-0.068,1.786,0.029,0.003,9.077,0.295,-4.116,-87.255,100.800
1.212,0.000,-0.049,-0.068,0.499,0.039,0.003,0.524,0.323,-4.115,-34.921,100.800
1.214,0.000,-0.049,-0.068,0.499,0.051,0.003,0.524,0.263,-4.114,-34.921,100.800
1.225,0.000,-0.022,-0.067,-0.671,0.045,0.002,0.979,0.006,-4.114,79.841,100.800
1.227,0.000,0.001,-0.067,-0.671,0.048,0.002,0.979,-0.215,-4.115,79.841,100.800
1.229,0.001,0.012,-0.067,-0.865,-0.001,0.002,-6.896,-0.412,-4.116,100.800,100.800
1.231,0.001,0.018,-0.066,-0.865,-0.020,0.002,-6.896,-0.554,-4.117,100.800,100.800
1.233,0.001,0.022,-0.066,-0.263,-0.050,0.001,-7.562,-0.619,-4.118,52.759,100.800
1.235,0.001,0.029,-0.066,-0.263,-0.058,0.001,-7.562,-0.572,-4.119,52.759,100.800
1.246,0.001,0.010,-0.064,0.300,-0.039,0.000,1.671,-0.276,-4.122,-85.953,100.800
1.248,0.001,-0.021,-0.064,0.300,-0.036,-0.000,1.671,-0.006,-4.122,-85.953,100.800
1.250,0.001,-0.058,-0.064,1.734,-0.005,0.000,5.061,0.265,-4.121,-100.800,100.800
1.252,0.001,-0.070,-0.064,1.734,-0.016,0.000,5.061,0.493,-4.121,-100.800,100.800
1.254,0.001,-0.086,-0.065,0.730,0.014,-0.000,2.894,0.622,-4.119,-90.578,100.800
1.256,0.001,-0.094,-0.065,0.730,0.021,-0.000,2.894,0.640,-4.118,-90.578,100.800
1.257,0.000,-0.081,-0.065,-0.116,0.022,0.000,1.247,0.572,-4.117,12.039,100.800
1.269,0.001,-0.070,-0.065,-0.246,0.051,0.000,4.447,0.266,-4.114,76.818,100.800
1.271,0.001,-0.067,-0.065,-0.246,0.026,0.001,4.447,0.013,-4.114,76.818,100.800
1.272,0.000,-0.062,-0.065,-0.186,-0.022,0.000,-10.951,-0.184,-4.114,100.800,100.800
1.274,0.000,-0.067,-0.065,-0.186,-0.036,0.000,-10.951,-0.329,-4.115,100.800,100.800
1.276,0.000,-0.057,-0.065,-0.121,-0.060,-0.000,-5.938,-0.340,-4.116,39.751,100.800
1.278,0.001,-0.043,-0.065,-0.121,-0.083,-0.001,-5.938,-0.268,-4.116,39.751,100.800
1.290,0.001,-0.052,-0.064,-0.114,-0.056,-0.002,0.517,-0.007,-4.116,-83.947,100.800
1.292,0.001,-0.085,-0.064,0.842,-0.052,-0.002,0.538,0.223,-4.116,-58.185,100.800
1.293,0.000,-0.110,-0.064,0.842,-0.021,-0.002,0.538,0.459,-4.115,-58.185,100.800
1.295,0.000,-0.106,-0.064,0.555,-0.034,-0.002,2.736,0.626,-4.114,-100.800,100.800
1.297,0.001,-0.109,-0.064,0.555,0.000,-0.002,2.736,0.700,-4.113,-100.800,100.800
1.299,0.001,-0.104,-0.064,-0.030,0.014,-0.002,7.244,0.676,-4.111,-13.170,100.800
1.311,0.001,-0.103,-0.064,0.012,0.034,-0.003,3.095,0.373,-4.107,76.022,100.800
1.312,0.000,-0.106,-0.064,0.012,0.032,-0.003,3.095,0.104,-4.107,76.022,100.800
1.314,0.000,-0.107,-0.064,0.121,-0.007,-0.003,-6.222,-0.125,-4.107,100.800,100.800
1.316,0.000,-0.094,-0.064,0.121,-0.013,-0.004,-6.222,-0.294,-4.108,100.800,100.800
1.318,0.001,-0.077,-0.064,-0.734,-0.029,-0.004,-3.380,-0.366,-4.108,61.270,100.800
1.320,0.001,-0.056,-0.064,-0.734,-0.056,-0.005,-3.380,-0.331,-4.109,61.270,100.800
1.331,0.000,-0.074,-0.063,-0.064,-0.049,-0.007,-3.129,-0.050,-4.109,-79.697,100.800
1.333,0.000,-0.103,-0.063,-0.064,-0.061,-0.007,-3.129,0.219,-4.109,-79.697,100.800
1.335,0.001,-0.114,-0.063,1.036,-0.020,-0.007,4.374,0.496,-4.108,-100.800,100.800
1.337,0.001,-0.112,-0.063,1.036,-0.027,-0.007,4.374,0.724,-4.107,-100.800,100.800
1.339,0.001,-0.104,-0.063,-0.219,-0.009,-0.008,1.658,0.862,-4.105,-92.985,100.800
1.341,0.001,-0.077,-0.063,-0.219,0.011,-0.008,1.658,0.885,-4.103,-92.985,100.800
1.368,0.000,-0.075,-0.065,-0.725,-0.030,-0.010,-3.204,0.802,-4.081,14.243,100.800
1.370,0.001,-0.075,-0.065,-0.725,-0.051,-0.010,-3.204,0.764,-4.080,14.243,100.800
1.372,0.001,-0.072,-0.065,-0.054,-0.044,-0.010,-2.133,0.749,-4.079,12.558,100.800
1.374,0.001,-0.053,-0.065,-0.054,-0.037,-0.010,-2.133,0.760,-4.077,12.558,100.800
1.376,0.001,-0.031,-0.065,-1.022,-0.042,-0.011,0.104,0.866,-4.076,-30.267,100.800
1.378,0.001,-0.024,-0.065,-1.022,-0.012,-0.010,0.104,1.018,-4.073,-30.267,100.800
1.380,0.001,-0.026,-0.065,-0.135,-0.001,-0.010,6.330,1.207,-4.071,-87.142,100.800
1.391,0.001,-0.038,-0.065,0.315,0.010,-0.009,1.653,1.225,-4.057,-5.657,100.800
1.393,0.001,-0.045,-0.065,0.315,0.045,-0.009,1.653,1.154,-4.055,-5.657,100.800
1.395,0.001,-0.051,-0.065,0.354,0.060,-0.009,7.636,1.032,-4.053,47.613,100.800
1.397,0.001,-0.043,-0.065,0.354,0.068,-0.009,7.636,0.872,-4.052,47.613,100.800
1.399,0.001,-0.028,-0.064,-0.584,0.046,-0.009,-2.092,0.686,-4.050,86.308,100.800
1.400,0.000,-0.021,-0.064,-0.584,0.028,-0.009,-2.092,0.504,-4.049,86.308,100.800
1.415,0.000,0.007,-0.063,-0.882,0.040,-0.010,-0.861,0.634,-4.040,12.555,100.800
1.417,0.001,0.035,-0.063,-0.882,0.067,-0.010,-0.861,0.766,-4.039,12.555,100.800
1.419,0.001,0.058,-0.062,-1.306,0.092,-0.010,8.056,0.911,-4.037,-70.661,100.800
1.421,0.001,0.057,-0.062,-1.306,0.110,-0.010,8.056,1.033,-4.035,-70.661,100.800
1.423,0.001,0.034,-0.062,0.619,0.149,-0.009,8.812,1.132,-4.033,-56.872,100.800
1.425,0.001,0.011,-0.062,0.619,0.143,-0.009,8.812,1.185,-4.031,-56.872,100.800
1.436,0.001,0.002,-0.063,0.797,0.102,-0.007,-6.969,0.869,-4.021,65.257,100.800
1.438,0.001,0.003,-0.063,0.797,0.063,-0.006,-6.969,0.552,-4.020,65.257,100.800
1.440,0.001,0.023,-0.063,-0.538,0.053,-0.006,-7.297,0.220,-4.019,100.800,100.800
1.442,0.001,0.055,-0.063,-0.538,0.059,-0.006,-7.297,-0.072,-4.019,100.800,100.800
1.443,0.000,0.075,-0.063,-1.329,0.000,-0.007,-7.941,-0.266,-4.020,100.800,100.800
1.445,0.000,0.060,-0.063,-1.329,-0.019,-0.007,-7.941,-0.354,-4.021,100.800,100.800
1.447,0.000,0.030,-0.063,1.133,-0.019,-0.007,-2.969,-0.361,-4.021,24.450,100.800
1.459,0.001,0.045,-0.062,-0.384,-0.017,-0.007,0.304,-0.100,-4.022,-65.667,100.800
1.461,0.001,0.025,-0.062,-0.384,-0.006,-0.007,0.304,0.132,-4.022,-65.667,100.800
1.462,0.000,-0.007,-0.062,1.298,0.011,-0.007,4.255,0.363,-4.021,-100.800,100.800
1.464,0.000,-0.034,-0.062,1.298,-0.003,-0.007,4.255,0.546,-4.020,-100.800,100.800
1.466,0.000,-0.045,-0.062,0.985,0.038,-0.006,4.122,0.636,-4.019,-69.488,100.800
1.468,0.001,-0.038,-0.063,0.985,0.050,-0.006,4.122,0.624,-4.018,-69.488,100.800
1.480,0.001,-0.020,-0.063,-0.641,0.044,-0.005,0.991,0.283,-4.015,88.822,100.800
1.482,0.001,-0.002,-0.064,-0.442,0.048,-0.005,0.597,-0.041,-4.015,81.703,100.800
1.483,0.000,0.029,-0.064,-0.442,0.024,-0.005,0.597,-0.352,-4.016,81.703,100.800
1.485,0.000,0.047,-0.064,-1.249,0.034,-0.005,-2.008,-0.610,-4.017,100.800,100.800
1.487,0.000,0.035,-0.064,-1.249,-0.017,-0.005,-2.008,-0.747,-4.018,100.800,100.800
1.489,0.001,0.020,-0.064,0.678,-0.027,-0.005,-9.203,-0.764,-4.020,39.569,100.800
1.500,0.000,0.019,-0.065,0.020,-0.015,-0.006,1.727,-0.431,-4.024,-83.534,100.800
1.502,0.001,-0.007,-0.065,0.020,-0.022,-0.006,1.727,-0.114,-4.025,-83.534,100.800
1.504,0.001,-0.037,-0.065,1.427,0.026,-0.005,6.178,0.205,-4.024,-100.800,100.800
1.506,0.001,-0.045,-0.066,1.427,0.010,-0.005,6.178,0.469,-4.023,-100.800,100.800
1.508,0.001,-0.046,-0.066,0.232,0.026,-0.005,0.146,0.642,-4.022,-100.800,100.800
1.510,0.001,-0.036,-0.066,0.232,0.066,-0.005,0.146,0.706,-4.021,-100.800,100.800
1.521,0.001,-0.013,-0.069,-0.837,0.044,-0.004,2.784,0.333,-4.017,77.743,100.800
1.523,0.001,0.002,-0.069,-0.837,0.063,-0.004,2.784,-0.027,-4.017,77.743,100.800
1.525,0.001,0.000,-0.069,-0.329,0.044,-0.004,0.087,-0.392,-4.018,100.800,100.800
1.527,0.001,0.000,-0.070,-0.329,0.024,-0.004,0.087,-0.726,-4.019,100.800,100.800
1.529,0.001,-0.008,-0.070,0.204,-0.024,-0.004,-10.353,-0.962,-4.021,100.800,100.800
1.530,0.000,-0.008,-0.070,0.204,-0.020,-0.004,-10.353,-1.063,-4.023,100.800,100.800
1.542,0.001,0.006,-0.070,-0.363,0.024,-0.004,7.308,-0.665,-4.031,-74.150,100.800
1.544,0.001,0.025,-0.070,-0.363,0.006,-0.003,7.308,-0.256,-4.031,-74.150,100.800
1.546,0.001,0.025,-0.070,-0.462,-0.024,-0.003,-7.377,0.150,-4.031,-100.800,100.800
1.547,0.000,0.002,-0.070,-0.462,-0.031,-0.003,-7.377,0.534,-4.030,-100.800,100.800
1.549,0.000,-0.031,-0.071,1.416,-0.001,-0.003,3.479,0.807,-4.028,-100.800,100.800
1.551,0.000,-0.043,-0.071,1.416,0.000,-0.003,3.479,0.959,-4.026,-100.800,100.800
1.553,0.000,-0.031,-0.071,-0.000,0.023,-0.003,3.720,1.001,-4.025,-49.746,100.800
1.565,0.001,-0.018,-0.072,-0.310,0.055,-0.000,4.908,0.663,-4.017,84.345,100.800
1.567,0.001,-0.001,-0.072,-0.310,0.037,-0.000,4.908,0.357,-4.016,84.345,100.800
1.568,0.000,0.020,-0.072,-0.984,-0.002,-0.000,-8.676,0.041,-4.016,100.800,100.800
1.570,0.000,0.023,-0.072,-0.984,-0.006,-0.000,-8.676,-0.235,-4.017,100.800,100.800
1.572,0.000,0.034,-0.072,-0.363,-0.052,-0.000,-7.581,-0.406,-4.017,100.800,100.800
1.574,0.001,0.049,-0.072,-0.363,-0.084,-0.000,-7.581,-0.451,-4.018,100.800,100.800
1.586,0.001,0.017,-0.072,0.424,-0.063,-0.001,-1.837,-0.101,-4.019,-76.606,100.800
1.588,0.001,-0.019,-0.072,0.424,-0.075,-0.001,-1.837,0.247,-4.019,-76.606,100.800
1.590,0.001,-0.029,-0.072,1.172,-0.049,-0.000,2.166,0.634,-4.018,-100.800,100.800
1.591,0.000,-0.011,-0.072,1.172,-0.076,-0.001,2.166,0.959,-4.016,-100.800,100.800
1.593,0.000,-0.004,-0.072,-0.616,-0.034,-0.000,2.133,1.168,-4.014,-100.800,100.800
1.595,0.000,0.009,-0.072,-0.616,-0.019,-0.000,2.133,1.236,-4.011,-100.800,100.800
1.607,0.001,-0.001,-0.073,-0.075,-0.052,-0.001,-2.710,0.797,-4.002,92.654,100.800
1.609,0.001,-0.006,-0.074,-0.075,-0.049,-0.001,-2.710,0.371,-4.002,92.654,100.800
1.611,0.001,-0.008,-0.074,0.172,-0.056,-0.001,-0.763,-0.053,-4.002,100.800,100.800
1.613,0.001,-0.005,-0.074,0.172,-0.047,-0.001,-0.763,-0.445,-4.003,100.800,100.800
1.614,0.000,0.003,-0.074,-0.290,-0.079,-0.001,-3.587,-0.710,-4.004,100.800,100.800
1.616,0.000,0.013,-0.074,-0.290,-0.079,-0.002,-3.587,-0.835,-4.005,100.800,100.800
1.628,0.001,0.015,-0.074,-0.289,-0.068,-0.004,1.585,-0.465,-4.011,-61.324,100.800
1.630,0.001,0.005,-0.074,-0.289,-0.085,-0.004,1.585,-0.086,-4.011,-61.324,100.800
1.632,0.001,-0.010,-0.074,0.629,-0.055,-0.004,1.796,0.330,-4.010,-100.800,100.800
1.634,0.001,-0.014,-0.074,0.629,-0.058,-0.004,1.796,0.714,-4.009,-100.800,100.800
1.635,0.000,-0.029,-0.074,0.485,-0.024,-0.004,4.787,1.010,-4.007,-100.800,100.800
1.637,0.000,-0.042,-0.075,0.485,-0.015,-0.004,4.787,1.183,-4.005,-100.800,100.800
1.649,0.001,-0.048,-0.077,0.495,-0.036,-0.005,-1.943,0.833,-3.995,43.748,100.800
1.651,0.001,-0.035,-0.077,0.495,-0.026,-0.005,-1.943,0.482,-3.994,43.748,100.800
1.653,0.001,-0.007,-0.077,-1.045,-0.070,-0.005,-5.279,0.097,-3.994,100.800,100.800
1.655,0.001,0.029,-0.077,-1.045,-0.052,-0.005,-5.279,-0.270,-3.995,100.800,100.800
1.656,0.000,0.060,-0.077,-1.685,-0.059,-0.006,1.651,-0.569,-3.996,100.800,100.800
1.658,0.000,0.073,-0.077,-1.685,-0.057,-0.006,1.651,-0.736,-3.997,100.800,100.800
1.669,0.001,0.074,-0.076,-0.382,-0.028,-0.007,4.579,-0.414,-4.001,-38.554,100.800
1.671,0.001,0.065,-0.076,-0.382,-0.023,-0.007,4.579,-0.058,-4.001,-38.554,100.800
1.673,0.001,0.053,-0.076,0.519,-0.030,-0.006,-0.305,0.340,-4.001,-100.800,100.800
1.674,0.000,0.027,-0.076,0.519,-0.052,-0.007,-0.305,0.721,-3.999,-100.800,100.800
1.676,0.000,0.004,-0.076,1.242,-0.024,-0.006,0.854,1.036,-3.997,-100.800,100.800
1.678,0.000,-0.011,-0.076,1.242,-0.043,-0.006,0.854,1.247,-3.995,-100.800,100.800
1.680,0.001,0.009,-0.076,-0.138,-0.042,-0.006,-2.838,1.313,-3.993,-71.193,100.800
1.695,0.001,0.026,-0.076,-0.424,-0.062,-0.006,-3.064,0.941,-3.979,92.955,100.800
1.697,0.001,0.050,-0.076,-0.424,-0.065,-0.006,-3.064,0.585,-3.978,92.955,100.800
1.699,0.001,0.076,-0.076,-1.300,-0.060,-0.006,0.287,0.244,-3.977,100.800,100.800
1.700,0.000,0.074,-0.076,-1.300,-0.020,-0.005,0.287,-0.057,-3.977,100.800,100.800
1.702,0.000,0.063,-0.076,0.313,-0.032,-0.005,4.042,-0.184,-3.978,100.800,100.800
1.704,0.000,0.058,-0.076,0.313,-0.032,-0.005,4.042,-0.182,-3.978,100.800,100.800
1.715,0.000,0.055,-0.075,0.199,-0.008,-0.005,3.659,0.199,-3.976,-96.784,100.800
1.717,0.000,0.035,-0.075,0.199,-0.028,-0.005,3.659,0.570,-3.975,-96.784,100.800
1.719,0.001,0.015,-0.075,0.995,0.011,-0.004,2.843,0.972,-3.973,-100.800,100.800
1.721,0.001,-0.001,-0.075,0.995,0.014,-0.004,2.843,1.292,-3.970,-100.800,100.800
1.723,0.001,-0.026,-0.075,1.037,0.060,-0.004,7.600,1.487,-3.968,-100.800,100.800
1.725,0.001,-0.025,-0.075,1.037,0.092,-0.004,7.600,1.547,-3.965,-100.800,100.800
1.736,0.001,-0.026,-0.076,0.017,0.069,-0.001,1.437,1.122,-3.952,90.639,100.800
1.738,0.001,-0.000,-0.076,0.017,0.084,-0.001,1.437,0.690,-3.951,90.639,100.800
1.740,0.001,0.026,-0.076,-1.325,0.030,-0.001,-5.775,0.236,-3.951,100.800,100.800
1.742,0.001,0.048,-0.076,-0.568,0.029,-0.001,-0.222,-0.158,-3.951,99.414,100.800
1.744,0.001,0.068,-0.076,-0.568,-0.022,-0.001,-0.222,-0.448,-3.952,99.414,100.800
1.746,0.001,0.066,-0.076,-0.457,-0.022,-0.001,-7.642,-0.598,-3.953,100.800,100.800
1.757,0.001,0.032,-0.075,0.860,0.002,-0.001,3.553,-0.255,-3.956,-86.003,100.800
1.759,0.001,-0.010,-0.074,0.860,-0.012,-0.001,3.553,0.108,-3.955,-86.003,100.800
1.761,0.001,-0.034,-0.075,1.672,-0.023,-0.000,-3.836,0.513,-3.955,-100.800,100.800
1.763,0.001,-0.046,-0.075,1.672,-0.043,-0.000,-3.836,0.908,-3.953,-100.800,100.800
1.764,0.000,-0.065,-0.075,0.779,-0.009,0.000,2.135,1.201,-3.951,-100.800,100.800
1.766,0.000,-0.052,-0.075,0.779,0.002,0.000,2.135,1.302,-3.948,-100.800,100.800
1.768,0.001,-0.029,-0.075,-0.906,0.013,0.001,3.303,1.318,-3.946,-30.851,100.800
1.779,0.000,-0.033,-0.075,0.114,0.048,0.003,5.434,0.977,-3.935,85.016,100.800
1.781,0.000,-0.044,-0.076,0.114,0.039,0.004,5.434,0.666,-3.933,85.016,100.800
1.783,0.001,-0.040,-0.076,0.189,-0.003,0.004,-7.737,0.365,-3.933,100.800,100.800
1.785,0.001,-0.033,-0.076,0.189,-0.013,0.004,-7.737,0.079,-3.933,100.800,100.800
1.787,0.001,-0.006,-0.076,-0.860,-0.037,0.004,-5.217,-0.063,-3.933,100.800,100.800
1.789,0.001,0.024,-0.075,-0.860,-0.058,0.004,-5.217,-0.100,-3.933,100.800,100.800
1.800,0.001,0.026,-0.074,-0.809,-0.039,0.005,-0.265,0.202,-3.931,-67.100,100.800
1.802,0.001,0.006,-0.074,-0.809,-0.045,0.005,-0.265,0.505,-3.930,-67.100,100.800
1.804,0.001,-0.016,-0.073,1.065,0.007,0.005,6.930,0.850,-3.928,-100.800,100.800
1.806,0.001,-0.029,-0.073,1.065,-0.023,0.005,6.930,1.132,-3.926,-100.800,100.800
1.807,0.000,-0.054,-0.073,0.975,0.010,0.005,0.473,1.319,-3.924,-100.800,100.800
1.809,0.000,-0.056,-0.073,0.975,0.014,0.006,0.473,1.386,-3.921,-100.800,100.800
1.821,0.001,-0.050,-0.074,-0.091,0.001,0.007,-1.383,0.962,-3.910,89.075,100.800
1.823,0.001,-0.027,-0.074,-0.091,0.016,0.007,-1.383,0.551,-3.909,89.075,100.800
1.825,0.001,-0.005,-0.074,-1.137,-0.009,0.007,-1.598,0.126,-3.909,100.800,100.800
1.827,0.001,0.017,-0.074,-1.137,-0.015,0.007,-1.598,-0.274,-3.909,100.800,100.800
1.828,0.000,0.049,-0.074,-1.361,-0.061,0.007,-7.830,-0.585,-3.910,100.800,100.800
1.830,0.000,0.057,-0.074,-1.361,-0.070,0.007,-7.830,-0.748,-3.912,100.800,100.800
1.842,0.001,0.040,-0.073,0.202,-0.023,0.007,5.620,-0.407,-3.916,-44.572,100.800
1.843,0.000,0.014,-0.073,0.202,-0.021,0.007,5.620,-0.054,-3.916,-44.572,100.800
1.845,0.000,-0.015,-0.072,1.398,-0.034,0.007,-1.733,0.320,-3.916,-100.800,100.800
1.847,0.001,-0.033,-0.072,1.398,-0.050,0.007,-1.733,0.691,-3.915,-100.800,100.800
1.849,0.001,-0.051,-0.072,0.920,-0.019,0.007,2.291,0.945,-3.913,-100.800,100.800
1.851,0.001,-0.051,-0.072,0.920,-0.014,0.007,2.291,1.082,-3.911,-100.800,100.800
1.853,0.001,-0.030,-0.072,-0.527,-0.002,0.007,2.534,1.132,-3.909,-48.121,100.800
1.864,0.001,-0.028,-0.072,-0.052,-0.003,0.009,-0.064,0.802,-3.900,82.354,100.800
1.866,0.001,-0.007,-0.072,-0.052,-0.027,0.009,-0.064,0.488,-3.899,82.354,100.800
1.868,0.001,0.001,-0.072,-0.721,-0.069,0.009,-10.160,0.155,-3.898,100.800,100.800
1.870,0.001,0.023,-0.072,-0.721,-0.063,0.009,-10.160,-0.126,-3.899,100.800,100.800
1.872,0.001,0.037,-0.072,-0.918,-0.088,0.009,-3.009,-0.306,-3.899,100.800,100.800
1.874,0.001,0.039,-0.072,-0.918,-0.094,0.008,-3.009,-0.355,-3.900,100.800,100.800
1.885,0.001,0.032,-0.072,0.127,-0.073,0.007,2.290,-0.016,-3.900,-76.456,105.600
1.887,0.001,0.007,-0.071,0.670,-0.074,0.007,-0.345,0.305,-3.899,-85.770,106.400
1.889,0.001,-0.027,-0.071,0.675,-0.067,0.007,-0.347,0.624,-3.898,-86.415,107.200
1.891,0.001,-0.030,-0.072,0.987,-0.080,0.007,-1.125,0.904,-3.896,-108.000,108.000
1.893,0.001,-0.048,-0.072,0.994,-0.039,0.007,-1.134,1.067,-3.894,-108.800,108.800
1.895,0.001,-0.036,-0.072,0.177,-0.011,0.007,11.468,1.104,-3.892,-55.951,109.600
1.906,0.000,-0.033,-0.073,-0.076,-0.026,0.007,-2.614,0.701,-3.884,114.000,114.000
1.908,0.001,-0.048,-0.073,-0.077,-0.031,0.007,-2.632,0.321,-3.884,114.800,114.800
1.910,0.001,-0.059,-0.073,0.785,-0.072,0.007,-8.197,-0.059,-3.884,115.600,115.600
1.912,0.001,-0.057,-0.073,0.790,-0.072,0.006,-8.254,-0.413,-3.885,116.400,116.400
1.914,0.001,-0.044,-0.073,-0.436,-0.124,0.006,-9.283,-0.648,-3.886,117.200,117.200
1.916,0.001,-0.009,-0.073,-0.438,-0.140,0.005,-9.314,-0.731,-3.887,117.600,117.600
1.927,0.001,-0.018,-0.073,-0.776,-0.101,0.003,3.921,-0.345,-3.891,-92.348,122.400
1.929,0.001,-0.042,-0.073,-0.776,-0.117,0.003,3.921,0.045,-3.891,-92.348,122.400
1.931,0.001,-0.071,-0.073,1.627,-0.116,0.002,-2.934,0.451,-3.890,-122.400,122.400
1.933,0.001,-0.076,-0.073,1.627,-0.137,0.002,-2.934,0.845,-3.888,-122.400,122.400
1.935,0.001,-0.085,-0.074,0.463,-0.105,0.001,1.913,1.109,-3.886,-122.400,122.400
1.937,0.001,-0.070,-0.074,-0.452,-0.065,0.001,7.258,1.227,-3.884,-37.412,122.400
1.948,0.001,-0.102,-0.075,1.008,-0.062,0.000,0.413,0.839,-3.875,117.564,122.400
1.950,0.001,-0.120,-0.075,1.008,-0.071,-0.000,0.413,0.472,-3.874,117.564,122.400
1.952,0.001,-0.135,-0.076,1.065,-0.108,-0.001,-8.681,0.114,-3.873,123.200,123.200
1.954,0.001,-0.125,-0.076,1.072,-0.096,-0.001,-8.737,-0.206,-3.874,124.000,124.000
1.956,0.001,-0.099,-0.076,-1.105,-0.096,-0.002,2.076,-0.352,-3.875,124.800,124.800
1.958,0.001,-0.079,-0.076,-0.593,-0.125,-0.002,-5.865,-0.369,-3.875,5.882,125.600
1.960,0.001,-0.066,-0.076,-0.597,-0.157,-0.003,-5.902,-0.301,-3.876,5.920,126.400
1.975,0.001,-0.099,-0.075,0.693,-0.142,-0.007,-3.519,-0.106,-3.877,-87.037,132.400
1.977,0.001,-0.104,-0.075,0.697,-0.161,-0.008,-3.540,0.039,-3.877,-87.563,133.200
1.979,0.001,-0.099,-0.075,0.034,-0.133,-0.008,1.553,0.137,-3.877,-81.549,134.000
1.981,0.001,-0.080,-0.075,0.034,-0.115,-0.009,1.558,0.191,-3.877,-81.793,134.400
1.983,0.001,-0.082,-0.075,-0.548,-0.132,-0.009,-0.091,0.110,-3.877,8.955,135.200
1.984,0.000,-0.071,-0.075,-0.551,-0.120,-0.010,-0.092,-0.074,-3.877,9.008,136.000
1.996,0.001,-0.070,-0.074,-0.424,-0.154,-0.013,-5.038,-0.303,-3.880,140.800,140.800
1.998,0.001,-0.079,-0.074,0.353,-0.144,-0.014,1.813,-0.454,-3.881,54.116,141.600
2.000,0.001,-0.090,-0.074,0.419,-0.190,-0.015,-10.116,-0.573,-3.882,43.034,142.400
2.002,0.001,-0.082,-0.074,-0.267,-0.184,-0.015,0.752,-0.590,-3.883,6.827,143.200
2.004,0.001,-0.064,-0.074,-0.610,-0.189,-0.016,-1.373,-0.449,-3.884,-49.763,144.000
2.006,0.001,-0.053,-0.073,-0.614,-0.163,-0.016,-1.381,-0.238,-3.885,-50.040,144.800
2.017,0.000,-0.043,-0.073,-0.764,-0.171,-0.019,3.521,-0.115,-3.886,-124.671,149.200
2.020,0.001,-0.043,-0.073,0.020,-0.164,-0.020,1.257,-0.058,-3.886,-21.327,150.000
2.021,0.000,-0.043,-0.073,0.020,-0.108,-0.020,1.264,-0.040,-3.886,-21.440,150.800
2.023,0.000,-0.032,-0.073,-0.416,-0.140,-0.021,5.057,-0.146,-3.887,33.863,151.600
2.025,0.000,-0.035,-0.073,-0.418,-0.116,-0.021,5.084,-0.313,-3.887,34.041,152.400
2.027,0.000,-0.021,-0.072,-0.425,-0.126,-0.021,3.032,-0.517,-3.888,142.676,153.200
2.038,0.000,-0.022,-0.071,0.057,-0.084,-0.023,9.622,-0.440,-3.893,-29.764,157.600
2.040,0.000,-0.012,-0.071,0.057,-0.100,-0.024,9.671,-0.260,-3.894,-29.915,158.400
2.042,0.000,0.019,-0.071,-1.641,-0.091,-0.024,-1.778,0.046,-3.894,-159.200,159.200
2.044,0.000,0.018,-0.071,-1.649,-0.082,-0.024,-1.787,0.357,-3.893,-160.000,160.000
2.046,0.001,-0.009,-0.071,1.148,0.011,-0.023,24.690,0.642,-3.892,-160.800,160.800
2.048,0.001,-0.026,-0.071,1.154,-0.012,-0.023,24.813,0.858,-3.890,-161.600,161.600
2.059,0.000,-0.034,-0.071,1.019,-0.046,-0.022,-14.283,0.441,-3.885,82.512,166.000
2.061,0.001,-0.027,-0.071,1.019,-0.059,-0.022,-14.283,-0.021,-3.885,82.512,166.000
2.063,0.001,-0.022,-0.071,-0.467,-0.055,-0.023,-2.601,-0.581,-3.886,166.000,166.000
2.065,0.001,-0.012,-0.071,-0.435,0.033,-0.023,22.110,-1.154,-3.889,166.000,166.000
2.067,0.001,0.017,-0.070,-0.435,-0.027,-0.023,22.110,-1.585,-3.891,166.000,166.000
2.069,0.001,0.052,-0.070,-2.665,-0.038,-0.023,-17.736,-1.809,-3.895,166.000,166.000
2.080,0.000,0.044,-0.068,0.322,-0.026,-0.025,2.881,-1.305,-3.910,-166.000,166.000
2.082,0.001,0.019,-0.068,0.322,0.009,-0.025,2.881,-0.759,-3.911,-166.000,166.000
2.084,0.001,0.047,-0.067,-0.160,0.119,-0.025,36.336,0.002,-3.911,-166.000,166.000
2.086,0.001,0.089,-0.067,-0.160,0.043,-0.025,36.336,0.663,-3.910,-166.000,166.000
2.088,0.001,0.083,-0.067,-1.490,0.057,-0.025,-15.339,1.104,-3.908,-166.000,166.000
2.090,0.001,0.058,-0.067,-1.490,0.085,-0.025,-15.339,1.406,-3.905,-166.000,166.000
2.101,0.001,0.039,-0.066,1.788,0.102,-0.024,11.580,0.942,-3.894,65.937,166.000
2.103,0.001,0.050,-0.066,1.788,0.091,-0.024,11.580,0.449,-3.894,65.937,166.000
2.105,0.001,0.055,-0.066,-0.688,-0.005,-0.024,-26.658,-0.151,-3.894,166.000,166.000
2.106,0.000,0.066,-0.066,-0.688,0.008,-0.024,-26.658,-0.737,-3.895,166.000,166.000
2.108,0.000,0.095,-0.066,-1.696,-0.023,-0.024,-4.543,-1.219,-3.898,166.000,166.000
2.110,0.000,0.096,-0.066,-1.696,0.012,-0.024,-4.543,-1.553,-3.901,166.000,166.000
2.112,0.001,0.094,-0.066,0.007,-0.008,-0.024,3.711,-1.700,-3.904,166.000,166.000
2.123,0.000,0.104,-0.065,-0.469,-0.001,-0.025,1.755,-1.112,-3.916,-166.000,166.000
2.125,0.000,0.093,-0.065,-0.469,0.009,-0.025,1.755,-0.492,-3.917,-166.000,166.000
2.127,0.000,0.071,-0.065,1.347,0.030,-0.025,7.696,0.217,-3.917,-166.000,166.000
2.129,0.001,0.084,-0.065,1.347,-0.085,-0.026,7.696,0.946,-3.915,-166.000,166.000
2.131,0.001,0.028,-0.065,1.801,0.012,-0.026,-4.423,1.329,-3.913,-166.000,166.000
2.133,0.001,0.048,-0.065,1.801,0.031,-0.026,-4.423,1.575,-3.910,-166.000,166.000
2.144,0.001,0.052,-0.066,-1.030,-0.026,-0.027,-9.471,1.068,-3.898,106.516,166.000
2.146,0.001,0.063,-0.067,-1.030,-0.043,-0.027,-9.471,0.516,-3.897,106.516,166.000
2.148,0.001,0.074,-0.067,-0.950,-0.116,-0.028,-22.802,-0.218,-3.897,166.000,166.000
2.150,0.001,0.111,-0.067,-0.950,-0.058,-0.028,-22.802,-0.863,-3.899,166.000,166.000
2.152,0.001,0.123,-0.067,-2.069,-0.128,-0.028,-3.306,-1.356,-3.901,166.000,166.000
2.154,0.001,0.123,-0.068,-2.069,-0.134,-0.028,-3.306,-1.661,-3.904,166.000,166.000
2.194,0.001,0.111,-0.072,0.467,-0.129,-0.034,-0.552,-1.418,-3.961,28.175,166.000
2.196,0.001,0.094,-0.072,0.654,-0.121,-0.034,1.696,-1.236,-3.964,-73.631,166.000
2.198,0.001,0.069,-0.073,0.654,-0.104,-0.034,1.696,-1.082,-3.966,-73.631,166.000
2.200,0.001,0.034,-0.073,2.483,-0.104,-0.035,4.122,-0.947,-3.967,-117.979,166.000
2.201,0.000,0.022,-0.073,2.483,-0.090,-0.035,4.122,-0.952,-3.969,-117.979,166.000
2.203,0.000,0.008,-0.073,1.080,-0.056,-0.035,11.713,-1.114,-3.971,71.013,166.000
2.218,0.000,-0.043,-0.076,2.115,-0.059,-0.035,-1.014,-1.456,-3.993,144.464,166.000
2.220,0.001,-0.073,-0.076,2.115,-0.084,-0.035,-1.014,-1.692,-3.996,144.464,166.000
2.222,0.001,-0.097,-0.076,2.282,-0.078,-0.035,-4.713,-1.864,-4.000,166.000,166.000
2.224,0.001,-0.113,-0.077,2.282,-0.087,-0.035,-4.713,-1.929,-4.004,166.000,166.000
2.226,0.001,-0.102,-0.077,0.249,-0.147,-0.036,-17.762,-1.888,-4.007,13.154,166.000
2.228,0.001,-0.095,-0.077,0.249,-0.135,-0.036,-17.762,-1.774,-4.011,13.154,166.000
2.239,0.001,-0.099,-0.077,-0.090,-0.115,-0.038,7.857,-1.558,-4.028,-134.134,166.000
2.241,0.001,-0.110,-0.077,-0.090,-0.101,-0.038,7.857,-1.402,-4.031,-134.134,166.000
2.243,0.001,-0.108,-0.077,0.408,-0.116,-0.038,-0.566,-1.265,-4.033,-119.602,166.000
2.245,0.001,-0.092,-0.077,0.408,-0.142,-0.039,-0.566,-1.224,-4.036,-119.602,166.000
2.247,0.001,-0.096,-0.077,-0.454,-0.093,-0.039,5.529,-1.323,-4.038,26.252,166.000
2.249,0.001,-0.074,-0.078,-0.454,-0.058,-0.039,5.529,-1.524,-4.041,26.252,166.000
2.260,0.001,-0.062,-0.078,-1.401,-0.050,-0.040,10.626,-1.750,-4.061,166.000,166.000
2.262,0.001,-0.062,-0.078,-1.401,-0.042,-0.040,10.626,-1.886,-4.065,166.000,166.000
2.264,0.001,-0.044,-0.078,-0.696,-0.098,-0.040,-12.353,-1.981,-4.068,99.071,166.000
2.266,0.001,-0.050,-0.078,-0.696,-0.076,-0.040,-12.353,-1.999,-4.072,99.071,166.000
2.268,0.001,-0.042,-0.078,-0.093,-0.092,-0.040,1.399,-1.874,-4.076,-41.195,166.000
2.270,0.001,-0.001,-0.078,-0.093,-0.089,-0.040,1.399,-1.609,-4.079,-41.195,166.000
2.281,0.001,-0.012,-0.079,-1.216,-0.071,-0.040,5.038,-1.343,-4.094,-166.000,166.000
2.283,0.001,-0.038,-0.079,-1.216,-0.078,-0.040,5.038,-1.165,-4.096,-166.000,166.000
2.285,0.001,-0.057,-0.079,1.866,-0.039,-0.040,7.883,-1.052,-4.098,-118.859,166.000
2.287,0.001,-0.060,-0.079,1.866,-0.035,-0.040,7.883,-1.031,-4.100,-118.859,166.000
2.288,0.000,-0.099,-0.079,1.793,-0.019,-0.040,4.957,-1.153,-4.102,43.846,166.000
2.290,0.000,-0.120,-0.080,1.793,-0.009,-0.040,4.957,-1.380,-4.105,43.846,166.000
2.302,0.001,-0.085,-0.081,-0.539,-0.006,-0.039,3.070,-1.509,-4.122,150.023,166.000
2.304,0.001,-0.074,-0.082,-0.539,-0.001,-0.039,3.070,-1.538,-4.125,150.023,166.000
2.306,0.001,-0.068,-0.082,-0.689,-0.051,-0.039,-11.169,-1.512,-4.128,4.016,166.000
2.307,0.000,-0.085,-0.082,-0.689,-0.043,-0.039,-11.169,-1.423,-4.131,4.016,166.000
2.309,0.000,-0.077,-0.083,0.399,-0.055,-0.039,-1.215,-1.165,-4.133,-142.124,166.000
2.311,0.000,-0.021,-0.083,-2.308,-0.103,-0.039,-12.232,-0.777,-4.135,-159.706,166.000
2.313,0.000,0.001,-0.083,-2.308,-0.076,-0.040,-12.232,-0.373,-4.135,-159.706,166.000
2.325,0.001,-0.007,-0.083,-0.586,-0.076,-0.041,6.576,-0.450,-4.140,-135.068,166.000
2.327,0.001,-0.024,-0.083,-0.586,-0.051,-0.041,6.576,-0.621,-4.142,-135.068,166.000
2.328,0.000,-0.036,-0.084,1.210,-0.037,-0.041,9.533,-0.855,-4.143,166.000,166.000
2.330,0.000,-0.034,-0.084,1.210,-0.060,-0.042,9.533,-1.166,-4.145,166.000,166.000
2.332,0.000,-0.067,-0.084,1.308,-0.100,-0.042,-15.790,-1.619,-4.149,166.000,166.000
2.334,0.000,-0.079,-0.084,1.308,-0.064,-0.042,-15.790,-2.010,-4.152,166.000,166.000
2.346,0.001,-0.065,-0.086,-0.029,-0.054,-0.042,11.246,-1.554,-4.170,-24.484,166.000
2.348,0.001,-0.063,-0.086,-0.058,-0.038,-0.042,3.779,-1.017,-4.172,-166.000,166.000
2.349,0.000,-0.065,-0.086,-0.058,0.004,-0.042,3.779,-0.374,-4.173,-166.000,166.000
2.351,0.000,-0.073,-0.086,0.437,-0.033,-0.042,1.232,0.306,-4.172,-166.000,166.000
2.353,0.000,-0.084,-0.086,0.437,-0.052,-0.042,1.232,0.900,-4.170,-166.000,166.000
2.355,0.000,-0.063,-0.086,-0.377,-0.049,-0.042,-4.116,1.286,-4.168,-166.000,166.000
2.384,0.001,-0.077,-0.088,0.586,-0.065,-0.044,-4.153,0.821,-4.144,166.000,166.000
2.386,0.001,-0.098,-0.088,0.909,-0.074,-0.044,-2.486,0.425,-4.144,163.984,166.000
2.388,0.001,-0.111,-0.088,0.909,-0.095,-0.045,-2.486,0.015,-4.144,163.984,166.000
2.390,0.001,-0.116,-0.088,0.794,-0.018,-0.045,14.079,-0.331,-4.144,166.000,166.000
2.392,0.001,-0.103,-0.088,0.794,-0.070,-0.045,14.079,-0.360,-4.145,166.000,166.000
2.394,0.001,-0.089,-0.088,-1.090,-0.052,-0.046,-8.806,-0.219,-4.145,-46.209,166.000
2.405,0.001,-0.106,-0.089,0.772,-0.046,-0.047,1.437,0.295,-4.142,-166.000,166.000
2.407,0.001,-0.154,-0.089,0.772,-0.052,-0.047,1.437,0.723,-4.141,-166.000,166.000
2.409,0.001,-0.166,-0.089,2.534,-0.006,-0.047,9.920,1.130,-4.138,-166.000,166.000
2.411,0.001,-0.151,-0.090,2.534,0.004,-0.047,9.920,1.410,-4.136,-166.000,166.000
2.413,0.001,-0.147,-0.091,-0.723,0.005,-0.047,2.909,1.515,-4.133,-162.409,166.000
2.414,0.000,-0.131,-0.091,-0.723,0.028,-0.047,2.909,1.464,-4.130,-162.409,166.000
2.426,0.001,-0.119,-0.094,-1.106,0.039,-0.045,8.425,0.990,-4.119,166.000,166.000
2.428,0.001,-0.108,-0.094,-1.106,0.052,-0.045,8.425,0.540,-4.118,166.000,166.000
2.430,0.001,-0.091,-0.094,-1.152,0.010,-0.045,-7.240,0.062,-4.118,166.000,166.000
2.432,0.001,-0.091,-0.095,-1.152,0.055,-0.044,-7.240,-0.402,-4.118,166.000,166.000
2.433,0.000,-0.103,-0.095,0.551,0.003,-0.044,-1.681,-0.668,-4.120,166.000,166.000
2.435,0.000,-0.069,-0.095,0.551,0.005,-0.044,-1.681,-0.693,-4.121,166.000,166.000
2.447,0.001,-0.055,-0.097,-1.973,0.026,-0.042,5.865,-0.072,-4.122,-166.000,166.000
2.449,0.001,-0.034,-0.098,-1.973,0.046,-0.041,5.865,0.588,-4.121,-166.000,166.000
2.451,0.001,0.032,-0.098,-3.637,0.154,-0.041,32.093,1.387,-4.118,-166.000,166.000
2.453,0.001,0.100,-0.098,-3.637,0.066,-0.040,32.093,2.117,-4.114,-166.000,166.000
2.454,0.000,0.075,-0.098,-1.797,0.082,-0.040,-17.685,2.603,-4.109,-166.000,166.000
2.456,0.000,0.050,-0.099,-1.797,0.130,-0.039,-17.685,2.944,-4.104,-166.000,166.000
2.468,0.001,0.055,-0.102,0.800,0.193,-0.035,28.242,2.526,-4.074,27.809,166.000
2.470,0.001,0.078,-0.103,0.800,0.214,-0.034,28.242,2.067,-4.071,27.809,166.000
2.472,0.001,0.107,-0.103,-2.202,0.148,-0.033,-10.911,1.567,-4.068,166.000,166.000
2.473,0.000,0.137,-0.103,-2.202,0.104,-0.032,-10.911,1.024,-4.066,166.000,166.000
2.475,0.000,0.159,-0.104,-2.214,0.022,-0.032,-31.197,0.531,-4.065,166.000,166.000
2.477,0.000,0.180,-0.104,-2.214,0.054,-0.031,-31.197,0.196,-4.064,166.000,166.000
2.491,0.001,0.202,-0.105,-1.879,0.055,-0.028,8.284,0.751,-4.054,-92.404,166.000
2.493,0.001,0.204,-0.105,-1.879,0.044,-0.027,8.284,1.346,-4.051,-92.404,166.000
2.495,0.001,0.176,-0.104,1.009,0.026,-0.027,-7.167,1.984,-4.048,-166.000,166.000
2.497,0.001,0.148,-0.104,1.009,-0.036,-0.026,-7.167,2.687,-4.043,-166.000,166.000
2.499,0.001,0.096,-0.104,3.287,0.027,-0.026,0.253,3.111,-4.037,-166.000,166.000
2.500,0.000,0.093,-0.105,3.287,0.039,-0.025,0.253,3.377,-4.030,-166.000,166.000
2.502,0.000,0.123,-0.105,-1.148,0.029,-0.024,0.478,3.503,-4.024,-166.000,166.000
2.513,0.000,0.100,-0.106,0.901,0.030,-0.020,0.445,2.909,-3.991,166.000,166.000
2.515,0.000,0.144,-0.107,0.901,0.016,-0.019,0.445,2.251,-3.987,166.000,166.000
2.517,0.000,0.154,-0.107,-2.273,-0.048,-0.019,-19.516,1.448,-3.984,166.000,166.000
2.519,0.001,0.157,-0.107,-2.273,0.004,-0.018,-19.516,0.746,-3.983,166.000,166.000
2.521,0.001,0.187,-0.107,-1.457,-0.064,-0.018,-4.082,0.262,-3.982,166.000,166.000
2.523,0.001,0.214,-0.106,-1.457,-0.076,-0.017,-4.082,-0.055,-3.983,166.000,166.000
2.534,0.001,0.177,-0.106,0.326,-0.063,-0.016,0.100,0.448,-3.978,-77.781,166.000
2.536,0.001,0.141,-0.106,0.326,-0.053,-0.015,0.100,0.991,-3.976,-77.781,166.000
2.538,0.001,0.133,-0.106,1.807,0.002,-0.014,15.980,1.647,-3.973,-166.000,166.000
2.540,0.001,0.164,-0.106,1.807,-0.069,-0.014,15.980,2.283,-3.968,-166.000,166.000
2.542,0.001,0.168,-0.106,-1.553,-0.034,-0.013,-9.031,2.755,-3.963,-166.000,166.000
2.544,0.001,0.191,-0.107,-1.553,0.026,-0.013,-9.031,3.065,-3.957,-166.000,166.000
2.555,0.001,0.194,-0.108,-1.139,0.015,-0.009,12.385,2.559,-3.928,77.059,166.000
2.557,0.001,0.216,-0.108,-1.139,-0.001,-0.008,12.385,2.020,-3.924,77.059,166.000
2.559,0.001,0.220,-0.108,-1.169,-0.034,-0.008,-12.429,1.411,-3.922,166.000,166.000
2.561,0.001,0.204,-0.108,-1.169,-0.005,-0.007,-12.429,0.760,-3.920,166.000,166.000
2.562,0.000,0.211,-0.108,0.304,-0.008,-0.007,6.637,0.208,-3.920,166.000,166.000
2.564,0.000,0.217,-0.108,0.304,0.014,-0.006,6.637,-0.134,-3.920,166.000,166.000
2.576,0.001,0.195,-0.109,0.602,0.044,-0.000,13.044,0.290,-3.917,-34.584,166.000
2.577,0.000,0.170,-0.109,0.602,0.034,0.001,13.044,0.764,-3.916,-34.584,166.000
2.579,0.000,0.171,-0.109,0.912,0.048,0.001,0.904,1.310,-3.913,-166.000,166.000
2.581,0.001,0.212,-0.109,0.912,0.003,0.002,0.904,1.902,-3.910,-166.000,166.000
2.583,0.001,0.227,-0.109,-2.406,-0.000,0.003,-11.887,2.394,-3.905,-166.000,166.000
2.585,0.001,0.220,-0.109,-2.406,0.001,0.004,-11.887,2.714,-3.900,-166.000,166.000
2.587,0.001,0.224,-0.109,0.036,0.017,0.004,4.289,2.868,-3.895,-166.000,166.000
2.598,0.001,0.231,-0.108,-0.374,0.001,0.008,-4.042,2.309,-3.869,166.000,166.000
2.600,0.001,0.235,-0.108,-0.374,-0.009,0.009,-4.042,1.708,-3.865,166.000,166.000
2.602,0.001,0.230,-0.108,-0.053,-0.056,0.010,-14.304,0.906,-3.864,166.000,166.000
2.604,0.001,0.232,-0.109,-0.053,0.008,0.011,-14.304,0.206,-3.863,166.000,166.000
2.605,0.000,0.252,-0.109,-0.990,-0.056,0.011,-0.189,-0.271,-3.864,166.000,166.000
2.607,0.000,0.243,-0.109,-0.990,-0.063,0.012,-0.189,-0.590,-3.865,166.000,166.000
2.619,0.001,0.235,-0.111,0.600,-0.065,0.015,-2.365,-0.143,-3.867,-53.007,166.000
2.620,0.000,0.235,-0.111,0.600,-0.080,0.015,-2.365,0.349,-3.866,-53.007,166.000
2.622,0.000,0.240,-0.111,-0.286,-0.042,0.016,5.723,0.935,-3.864,-166.000,166.000
2.624,0.000,0.248,-0.111,-0.286,-0.088,0.016,5.723,1.483,-3.861,-166.000,166.000
2.626,0.001,0.246,-0.112,-0.373,-0.053,0.017,-2.852,1.921,-3.858,-166.000,166.000
2.628,0.001,0.227,-0.112,-0.373,-0.037,0.017,-2.852,2.208,-3.854,-166.000,166.000
2.639,0.000,0.247,-0.114,-0.124,-0.066,0.019,-3.402,1.652,-3.835,108.911,166.000
2.641,0.001,0.286,-0.114,-0.124,-0.075,0.019,-3.402,1.053,-3.833,108.911,166.000
2.643,0.001,0.306,-0.114,-2.576,-0.083,0.019,-4.403,0.364,-3.832,166.000,166.000
2.645,0.001,0.297,-0.115,-2.576,-0.017,0.020,-4.403,-0.373,-3.833,166.000,166.000
2.647,0.001,0.288,-0.115,0.624,-0.040,0.020,10.475,-0.938,-3.835,166.000,166.000
2.649,0.001,0.261,-0.115,0.624,-0.060,0.020,10.475,-1.348,-3.837,166.000,166.000
