timestamp_s,dt_s,pitch_setpoint,pitch_measurement,pitch_control,roll_setpoint,roll_measurement,roll_control,yaw_setpoint,yaw_measurement,yaw_control
0.108,0.108,0.000,0.054,0.000,0.000,-0.021,0.000,0.000,-4.442,0.000
0.110,0.001,0.000,0.051,0.000,0.000,-0.030,0.000,0.000,-4.437,0.000
0.112,0.001,0.000,0.051,0.000,0.000,-0.030,0.000,0.000,-4.437,0.000
0.114,0.001,0.000,0.051,0.000,0.000,-0.030,0.000,0.000,-4.437,0.000
0.115,0.000,0.000,0.051,0.000,0.000,-0.030,0.000,0.000,-4.437,0.000
0.117,0.001,0.000,0.050,0.000,0.000,-0.030,0.000,0.000,-4.437,0.000
0.131,0.001,0.000,0.050,0.000,0.000,-0.031,0.000,0.000,-4.436,0.000
0.133,0.001,0.000,0.050,0.000,0.000,-0.031,0.000,0.000,-4.436,0.000
0.134,0.000,0.000,0.050,0.000,0.000,-0.031,0.000,0.000,-4.436,0.000
0.136,0.001,0.000,0.049,0.000,0.000,-0.031,0.000,0.000,-4.436,0.000
0.138,0.001,0.000,0.049,0.000,0.000,-0.031,0.000,0.000,-4.436,0.000
0.139,0.000,0.000,0.049,0.000,0.000,-0.031,0.000,0.000,-4.436,0.000
0.141,0.001,0.000,0.049,0.000,0.000,-0.032,0.000,0.000,-4.436,0.000
0.159,0.001,0.000,0.048,0.000,0.000,-0.033,0.000,0.000,-4.435,0.000
0.160,0.000,0.000,0.048,0.000,0.000,-0.033,0.000,0.000,-4.435,0.000
0.162,0.000,0.000,0.047,0.000,0.000,-0.033,0.000,0.000,-4.435,0.000
0.164,0.001,0.000,0.047,0.000,0.000,-0.033,0.000,0.000,-4.435,0.000
0.166,0.001,0.000,0.047,0.000,0.000,-0.033,0.000,0.000,-4.435,0.000
0.167,0.000,0.000,0.047,0.000,0.000,-0.033,0.000,0.000,-4.435,0.000
0.169,0.001,0.000,0.047,0.000,0.000,-0.033,0.000,0.000,-4.435,0.000
0.170,0.000,0.000,0.046,0.000,0.000,-0.033,0.000,0.000,-4.435,0.000
0.184,0.000,0.000,0.044,0.000,0.000,-0.034,0.000,0.000,-4.435,0.000
0.186,0.001,0.000,0.044,0.000,0.000,-0.035,0.000,0.000,-4.435,0.000
0.188,0.001,0.000,0.044,0.000,0.000,-0.035,0.000,0.000,-4.435,0.000
0.189,0.000,0.000,0.043,0.000,0.000,-0.035,0.000,0.000,-4.435,0.000
0.191,0.000,0.000,0.043,0.000,0.000,-0.035,0.000,0.000,-4.435,0.000
0.193,0.001,0.000,0.043,0.000,0.000,-0.035,0.000,0.000,-4.435,0.000
0.195,0.001,0.000,0.043,0.000,0.000,-0.035,0.000,0.000,-4.435,0.000
0.209,0.001,0.000,0.040,0.000,0.000,-0.036,0.000,0.000,-4.434,0.000
0.210,0.000,0.000,0.040,0.000,0.000,-0.036,0.000,0.000,-4.434,0.000
0.212,0.001,0.000,0.040,0.000,0.000,-0.036,0.000,0.000,-4.434,0.000
0.213,0.000,0.000,0.040,0.000,0.000,-0.037,0.000,0.000,-4.434,0.000
0.215,0.000,0.000,0.039,0.000,0.000,-0.037,0.000,0.000,-4.434,0.000
0.217,0.001,0.000,0.039,0.000,0.000,-0.037,0.000,0.000,-4.434,0.000
0.219,0.001,0.000,0.039,0.000,0.000,-0.037,0.000,0.000,-4.434,0.000
0.220,0.000,0.000,0.038,0.000,0.000,-0.037,0.000,0.000,-4.434,0.000
0.231,0.001,0.000,0.037,0.000,0.000,-0.037,0.000,0.000,-4.434,0.000
0.232,0.000,0.000,0.037,0.000,0.000,-0.037,0.000,0.000,-4.434,0.000
0.234,0.001,0.000,0.036,0.000,0.000,-0.038,0.000,0.000,-4.434,0.000
0.236,0.001,0.000,0.036,0.000,0.000,-0.038,0.000,0.000,-4.434,0.000
0.237,0.000,0.000,0.036,0.000,0.000,-0.038,0.000,0.000,-4.435,0.000
0.239,0.000,0.000,0.036,0.000,0.000,-0.038,0.000,0.000,-4.435,0.000
0.241,0.001,0.000,0.036,0.000,0.000,-0.038,0.000,0.000,-4.435,0.000
0.255,0.001,0.000,0.034,0.000,0.000,-0.038,0.000,0.000,-4.435,0.000
0.256,0.000,0.000,0.034,0.000,0.000,-0.039,0.000,0.000,-4.435,0.000
0.258,0.001,0.000,0.034,0.000,0.000,-0.039,0.000,0.000,-4.435,0.000
0.260,0.001,0.000,0.033,0.000,0.000,-0.039,0.000,0.000,-4.435,0.000
0.261,0.000,0.000,0.033,0.000,0.000,-0.039,0.000,0.000,-4.435,0.000
0.263,0.001,0.000,0.033,0.000,0.000,-0.039,0.000,0.000,-4.435,0.000
0.265,0.001,0.000,0.033,0.000,0.000,-0.039,0.000,0.000,-4.435,0.000
0.266,0.000,0.000,0.032,0.000,0.000,-0.039,0.000,0.000,-4.435,0.000
0.280,0.000,0.000,0.030,0.000,0.000,-0.039,0.000,0.000,-4.435,0.000
0.282,0.001,0.000,0.030,0.000,0.000,-0.039,0.000,0.000,-4.435,0.000
0.284,0.001,0.000,0.030,0.000,0.000,-0.039,0.000,0.000,-4.435,0.000
0.285,0.000,0.000,0.030,0.000,0.000,-0.039,0.000,0.000,-4.435,0.000
0.287,0.001,0.000,0.029,0.000,0.000,-0.039,0.000,0.000,-4.435,0.000
0.289,0.001,0.000,0.029,0.000,0.000,-0.039,0.000,0.000,-4.435,0.000
0.290,0.000,0.000,0.029,0.000,0.000,-0.039,0.000,0.000,-4.435,0.000
0.306,0.001,0.000,0.027,0.000,0.000,-0.039,0.000,0.000,-4.435,0.000
0.308,0.001,0.000,0.026,0.000,0.000,-0.039,0.000,0.000,-4.435,0.000
0.309,0.000,0.000,0.026,0.000,0.000,-0.039,0.000,0.000,-4.435,0.000
0.311,0.001,0.000,0.026,0.000,0.000,-0.039,0.000,0.000,-4.435,0.000
0.313,0.001,0.000,0.026,0.000,0.000,-0.039,0.000,0.000,-4.435,0.000
0.314,0.000,0.000,0.025,0.000,0.000,-0.039,0.000,0.000,-4.435,0.000
0.316,0.001,0.000,0.025,0.000,0.000,-0.039,0.000,0.000,-4.435,0.000
0.330,0.000,0.000,0.023,0.000,0.000,-0.039,0.000,0.000,-4.435,0.000
0.332,0.001,0.000,0.023,0.000,0.000,-0.039,0.000,0.000,-4.435,0.000
0.334,0.001,0.000,0.023,0.000,0.000,-0.039,0.000,0.000,-4.435,0.000
0.335,0.001,0.000,0.023,0.000,0.000,-0.039,0.000,0.000,-4.435,0.000
0.337,0.001,0.000,0.023,0.000,0.000,-0.038,0.000,0.000,-4.435,0.000
0.338,0.000,0.000,0.023,0.000,0.000,-0.038,0.000,0.000,-4.435,0.000
0.340,0.000,0.000,0.022,0.000,0.000,-0.038,0.000,0.000,-4.435,0.000
0.342,0.001,0.000,0.022,0.000,0.000,-0.038,0.000,0.000,-4.435,0.000
0.356,0.001,0.000,0.021,0.000,0.000,-0.038,0.000,0.000,-4.435,0.000
0.357,0.000,0.000,0.021,0.000,0.000,-0.038,0.000,0.000,-4.435,0.000
0.359,0.001,0.000,0.020,0.000,0.000,-0.038,0.000,0.000,-4.435,0.000
0.361,0.001,0.000,0.020,0.000,0.000,-0.038,0.000,0.000,-4.435,0.000
0.362,0.000,0.000,0.020,0.000,0.000,-0.038,0.000,0.000,-4.435,0.000
0.364,0.000,0.000,0.020,0.000,0.000,-0.038,0.000,0.000,-4.435,0.000
0.366,0.001,0.000,0.020,0.000,0.000,-0.038,0.000,0.000,-4.435,0.000
0.380,0.001,0.000,0.019,0.000,0.000,-0.038,0.000,0.000,-4.435,0.000
0.381,0.000,0.000,0.019,0.000,0.000,-0.038,0.000,0.000,-4.435,0.000
0.383,0.000,0.000,0.019,0.000,0.000,-0.038,0.000,0.000,-4.435,0.000
0.385,0.001,0.000,0.019,0.000,0.000,-0.038,0.000,0.000,-4.435,0.000
0.387,0.001,0.000,0.019,0.000,0.000,-0.038,0.000,0.000,-4.435,0.000
0.388,0.000,0.000,0.018,0.000,0.000,-0.038,0.000,0.000,-4.435,0.000
0.390,0.001,0.000,0.018,0.000,0.000,-0.038,0.000,0.000,-4.435,0.000
0.391,0.000,0.000,0.018,0.000,0.000,-0.038,0.000,0.000,-4.435,0.000
0.406,0.001,0.000,0.017,0.000,0.000,-0.039,0.000,0.000,-4.434,0.000
0.407,0.000,0.000,0.017,0.000,0.000,-0.039,0.000,0.000,-4.434,0.000
0.409,0.001,0.000,0.017,0.000,0.000,-0.039,0.000,0.000,-4.434,0.000
0.411,0.001,0.000,0.017,0.000,0.000,-0.039,0.000,0.000,-4.434,0.000
0.412,0.000,0.000,0.016,0.000,0.000,-0.039,0.000,0.000,-4.434,0.000
0.414,0.001,0.000,0.016,0.000,0.000,-0.039,0.000,0.000,-4.434,0.000
0.416,0.001,0.000,0.016,0.000,0.000,-0.039,0.000,0.000,-4.434,0.000
0.430,0.001,0.000,0.015,0.000,0.000,-0.041,0.000,0.000,-4.433,0.000
0.431,0.000,0.000,0.015,0.000,0.000,-0.041,0.000,0.000,-4.433,0.000
0.433,0.001,0.000,0.015,0.000,0.000,-0.041,0.000,0.000,-4.433,0.000
0.435,0.001,0.000,0.015,0.000,0.000,-0.041,0.000,0.000,-4.433,0.000
0.436,0.000,0.000,0.014,0.000,0.000,-0.041,0.000,0.000,-4.433,0.000
0.438,0.001,0.000,0.014,0.000,0.000,-0.041,0.000,0.000,-4.433,0.000
0.440,0.001,0.000,0.014,0.000,0.000,-0.041,0.000,0.000,-4.432,0.000
0.441,0.000,0.000,0.014,0.000,0.000,-0.042,0.000,0.000,-4.432,0.000
0.455,0.000,0.000,0.013,0.000,0.000,-0.043,0.000,0.000,-4.431,0.000
0.457,0.000,0.000,0.013,0.000,0.000,-0.043,0.000,0.000,-4.431,0.000
0.459,0.001,0.000,0.013,0.000,0.000,-0.043,0.000,0.000,-4.431,0.000
0.461,0.001,0.000,0.013,0.000,0.000,-0.043,0.000,0.000,-4.431,0.000
0.462,0.000,0.000,0.013,0.000,0.000,-0.043,0.000,0.000,-4.431,0.000
0.464,0.001,0.000,0.013,0.000,0.000,-0.044,0.000,0.000,-4.431,0.000
0.465,0.000,0.000,0.013,0.000,0.000,-0.044,0.000,0.000,-4.431,0.000
0.483,0.000,0.000,0.012,0.000,0.000,-0.045,0.000,0.000,-4.430,0.000
0.485,0.001,0.000,0.012,0.000,0.000,-0.045,0.000,0.000,-4.430,0.000
0.487,0.001,0.000,0.012,0.000,0.000,-0.045,0.000,0.000,-4.430,0.000
0.488,0.000,0.000,0.012,0.000,0.000,-0.045,0.000,0.000,-4.430,0.000
0.490,0.001,0.000,0.012,0.000,0.000,-0.045,0.000,0.000,-4.430,0.000
0.491,0.000,0.000,0.012,0.000,0.000,-0.045,0.000,0.000,-4.430,0.000
0.493,0.000,0.000,0.012,0.000,0.000,-0.045,0.000,0.000,-4.430,0.000
0.508,0.001,0.000,0.012,0.000,0.000,-0.046,0.000,0.000,-4.429,0.000
0.509,0.000,0.000,0.012,0.000,0.000,-0.046,0.000,0.000,-4.429,0.000
0.511,0.001,0.000,0.012,0.000,0.000,-0.046,0.000,0.000,-4.429,0.000
0.513,0.001,0.000,0.012,0.000,0.000,-0.046,0.000,0.000,-4.429,0.000
0.514,0.000,0.000,0.012,0.000,0.000,-0.046,0.000,0.000,-4.429,0.000
0.516,0.001,0.000,0.013,0.000,0.000,-0.046,0.000,0.000,-4.429,0.000
0.518,0.001,0.000,0.013,0.000,0.000,-0.046,0.000,0.000,-4.429,0.000
0.519,0.000,0.000,0.013,0.000,0.000,-0.046,0.000,0.000,-4.429,0.000
0.533,0.000,0.000,0.015,0.000,0.000,-0.046,0.000,0.000,-4.428,0.000
0.535,0.001,0.000,0.015,0.000,0.000,-0.046,0.000,0.000,-4.428,0.000
0.537,0.001,0.000,0.015,0.000,0.000,-0.046,0.000,0.000,-4.428,0.000
0.539,0.001,0.000,0.015,0.000,0.000,-0.046,0.000,0.000,-4.428,0.000
0.540,0.001,0.000,0.016,0.000,0.000,-0.046,0.000,0.000,-4.428,0.000
0.542,0.001,0.000,0.016,0.000,0.000,-0.046,0.000,0.000,-4.428,0.000
0.543,0.000,0.000,0.016,0.000,0.000,-0.046,0.000,0.000,-4.428,0.000
0.556,0.000,0.000,0.019,0.000,0.000,-0.045,0.000,0.000,-4.428,0.000
0.558,0.001,0.000,0.019,0.000,0.000,-0.045,0.000,0.000,-4.428,0.000
0.560,0.001,0.000,0.019,0.000,0.000,-0.045,0.000,0.000,-4.428,0.000
0.561,0.000,0.000,0.019,0.000,0.000,-0.045,0.000,0.000,-4.428,0.000
0.563,0.000,0.000,0.020,0.000,0.000,-0.045,0.000,0.000,-4.428,0.000
0.565,0.001,0.000,0.020,0.000,0.000,-0.045,0.000,0.000,-4.428,0.000
0.567,0.001,0.000,0.020,0.000,0.000,-0.045,0.000,0.000,-4.428,0.000
0.568,0.001,0.000,0.021,0.000,0.000,-0.045,0.000,0.000,-4.428,0.000
0.582,0.000,0.000,0.023,0.000,0.000,-0.045,0.000,0.000,-4.428,0.000
0.584,0.001,0.000,0.023,0.000,0.000,-0.045,0.000,0.000,-4.428,0.000
0.586,0.001,0.000,0.023,0.000,0.000,-0.045,0.000,0.000,-4.428,0.000
0.587,0.000,0.000,0.024,0.000,0.000,-0.045,0.000,0.000,-4.428,0.000
0.589,0.001,0.000,0.024,0.000,0.000,-0.045,0.000,0.000,-4.428,0.000
0.591,0.001,0.000,0.024,0.000,0.000,-0.045,0.000,0.000,-4.428,0.000
0.592,0.000,0.000,0.024,0.000,0.000,-0.044,0.000,0.000,-4.428,0.000
0.606,0.000,0.000,0.026,0.000,0.000,-0.044,0.000,0.000,-4.428,0.000
0.608,0.001,0.000,0.027,0.000,0.000,-0.044,0.000,0.000,-4.428,0.000
0.610,0.001,0.000,0.027,0.000,0.000,-0.044,0.000,0.000,-4.428,0.000
0.611,0.000,0.000,0.027,0.000,0.000,-0.044,0.000,0.000,-4.428,0.000
0.613,0.001,0.000,0.027,0.000,0.000,-0.044,0.000,0.000,-4.428,0.000
0.615,0.001,0.000,0.027,0.000,0.000,-0.044,0.000,0.000,-4.428,0.000
0.616,0.000,0.000,0.028,0.000,0.000,-0.044,0.000,0.000,-4.428,0.000
0.631,0.001,0.000,0.029,0.000,0.000,-0.043,0.000,0.000,-4.428,0.000
0.632,0.000,0.000,0.029,0.000,0.000,-0.043,0.000,0.000,-4.428,0.000
0.634,0.001,0.000,0.029,0.000,0.000,-0.043,0.000,0.000,-4.428,0.000
0.636,0.001,0.000,0.029,0.000,0.000,-0.043,0.000,0.000,-4.428,0.000
0.637,0.000,0.000,0.029,0.000,0.000,-0.043,0.000,0.000,-4.428,0.000
0.639,0.001,0.000,0.030,0.000,0.000,-0.043,0.000,0.000,-4.428,0.000
0.641,0.001,0.000,0.030,0.000,0.000,-0.043,0.000,0.000,-4.428,0.000
0.642,0.000,0.000,0.030,0.000,0.000,-0.042,0.000,0.000,-4.428,0.000
0.656,0.000,0.000,0.030,0.000,0.000,-0.042,0.000,0.000,-4.428,0.000
0.658,0.001,0.000,0.030,0.000,0.000,-0.042,0.000,0.000,-4.428,0.000
0.660,0.001,0.000,0.030,0.000,0.000,-0.042,0.000,0.000,-4.428,0.000
0.661,0.000,0.000,0.030,0.000,0.000,-0.042,0.000,0.000,-4.428,0.000
0.663,0.001,0.000,0.030,0.000,0.000,-0.042,0.000,0.000,-4.428,0.000
0.665,0.001,0.000,0.030,0.000,0.000,-0.041,0.000,0.000,-4.428,0.000
0.666,0.000,0.000,0.030,0.000,0.000,-0.041,0.000,0.000,-4.428,0.000
0.681,0.001,0.000,0.031,0.000,0.000,-0.041,0.000,0.000,-4.428,0.000
0.682,0.000,0.000,0.031,0.000,0.000,-0.041,0.000,0.000,-4.428,0.000
0.684,0.001,0.000,0.031,0.000,0.000,-0.040,0.000,0.000,-4.428,0.000
0.686,0.001,0.000,0.031,0.000,0.000,-0.040,0.000,0.000,-4.428,0.000
0.687,0.000,0.000,0.031,0.000,0.000,-0.040,0.000,0.000,-4.428,0.000
0.689,0.001,0.000,0.031,0.000,0.000,-0.040,0.000,0.000,-4.428,0.000
0.691,0.001,0.000,0.031,0.000,0.000,-0.040,0.000,0.000,-4.428,0.000
0.692,0.000,0.000,0.031,0.000,0.000,-0.040,0.000,0.000,-4.428,0.000
0.707,0.001,0.000,0.030,0.000,0.000,-0.040,0.000,0.000,-4.428,0.000
0.708,0.000,0.000,0.030,0.000,0.000,-0.040,0.000,0.000,-4.428,0.000
0.710,0.001,0.000,0.030,0.000,0.000,-0.040,0.000,0.000,-4.428,0.000
0.712,0.001,0.000,0.030,0.000,0.000,-0.040,0.000,0.000,-4.428,0.000
0.713,0.000,0.000,0.030,0.000,0.000,-0.040,0.000,0.000,-4.428,0.000
0.715,0.001,0.000,0.030,0.000,0.000,-0.040,0.000,0.000,-4.428,0.000
0.717,0.001,0.000,0.030,0.000,0.000,-0.040,0.000,0.000,-4.428,0.000
0.731,0.001,0.000,0.030,0.000,0.000,-0.040,0.000,0.000,-4.428,0.000
0.732,0.000,0.000,0.030,0.000,0.000,-0.040,0.000,0.000,-4.428,0.000
0.734,0.001,0.000,0.030,0.000,0.000,-0.040,0.000,0.000,-4.427,0.000
0.736,0.001,0.000,0.030,0.000,0.000,-0.040,0.000,0.000,-4.427,0.000
0.737,0.000,0.000,0.030,0.000,0.000,-0.040,0.000,0.000,-4.427,0.000
0.739,0.001,0.000,0.029,0.000,0.000,-0.040,0.000,0.000,-4.427,0.000
0.741,0.001,0.000,0.029,0.000,0.000,-0.040,0.000,0.000,-4.427,0.000
0.742,0.000,0.000,0.029,0.000,0.000,-0.040,0.000,0.000,-4.427,0.000
0.757,0.001,0.000,0.029,0.000,0.000,-0.040,0.000,0.000,-4.428,0.000
0.758,0.000,0.000,0.029,0.000,0.000,-0.040,0.000,0.000,-4.428,0.000
0.760,0.001,0.000,0.029,0.000,0.000,-0.040,0.000,0.000,-4.428,0.000
0.762,0.001,0.000,0.029,0.000,0.000,-0.040,0.000,0.000,-4.428,0.000
0.763,0.000,0.000,0.029,0.000,0.000,-0.040,0.000,0.000,-4.428,0.000
0.765,0.001,0.000,0.029,0.000,0.000,-0.040,0.000,0.000,-4.428,0.000
0.767,0.001,0.000,0.029,0.000,0.000,-0.040,0.000,0.000,-4.428,0.000
0.781,0.001,0.000,0.029,0.000,0.000,-0.040,0.000,0.000,-4.428,0.000
0.783,0.001,0.000,0.029,0.000,0.000,-0.040,0.000,0.000,-4.428,0.000
0.784,0.000,0.000,0.030,0.000,0.000,-0.040,0.000,0.000,-4.428,0.000
0.786,0.001,0.000,0.030,0.000,0.000,-0.040,0.000,0.000,-4.428,0.000
0.788,0.001,0.000,0.030,0.000,0.000,-0.040,0.000,0.000,-4.428,0.000
0.789,0.000,0.000,0.030,0.000,0.000,-0.040,0.000,0.000,-4.428,0.000
0.791,0.001,0.000,0.030,0.000,0.000,-0.040,0.000,0.000,-4.428,0.000
0.809,0.001,0.000,0.032,0.000,0.000,-0.040,0.000,0.000,-4.428,0.000
0.811,0.001,0.000,0.032,0.000,0.000,-0.040,0.000,0.000,-4.428,0.000
0.812,0.000,0.000,0.033,0.000,0.000,-0.039,0.000,0.000,-4.428,0.000
0.814,0.001,0.000,0.033,0.000,0.000,-0.039,0.000,0.000,-4.428,0.000
0.816,0.001,0.000,0.033,0.000,0.000,-0.039,0.000,0.000,-4.428,0.000
0.817,0.000,0.000,0.033,0.000,0.000,-0.039,0.000,0.000,-4.428,0.000
0.819,0.001,0.000,0.034,0.000,0.000,-0.039,0.000,0.000,-4.428,0.000
0.821,0.001,0.000,0.034,0.000,0.000,-0.039,0.000,0.000,-4.428,0.000
0.835,0.001,0.000,0.036,0.000,0.000,-0.038,0.000,0.000,-4.428,0.000
0.836,0.000,0.000,0.036,0.000,0.000,-0.038,0.000,0.000,-4.428,0.000
0.838,0.000,0.000,0.036,0.000,0.000,-0.038,0.000,0.000,-4.428,0.000
0.840,0.001,0.000,0.036,0.000,0.000,-0.038,0.000,0.000,-4.428,0.000
0.842,0.001,0.000,0.036,0.000,0.000,-0.038,0.000,0.000,-4.428,0.000
0.843,0.000,0.000,0.037,0.000,0.000,-0.038,0.000,0.000,-4.428,0.000
0.845,0.001,0.000,0.037,0.000,0.000,-0.038,0.000,0.000,-4.428,0.000
0.859,0.001,0.000,0.038,0.000,0.000,-0.036,0.000,0.000,-4.428,0.000
0.861,0.001,0.000,0.038,0.000,0.000,-0.036,0.000,0.000,-4.428,0.000
0.863,0.001,0.000,0.038,0.000,0.000,-0.036,0.000,0.000,-4.428,0.000
0.864,0.001,0.000,0.038,0.000,0.000,-0.036,0.000,0.000,-4.428,0.000
0.866,0.001,0.000,0.039,0.000,0.000,-0.036,0.000,0.000,-4.428,0.000
0.867,0.000,0.000,0.039,0.000,0.000,-0.036,0.000,0.000,-4.428,0.000
0.869,0.000,0.000,0.039,0.000,0.000,-0.036,0.000,0.000,-4.428,0.000
0.871,0.001,0.000,0.039,0.000,0.000,-0.036,0.000,0.000,-4.428,0.000
0.885,0.001,0.000,0.040,0.000,0.000,-0.035,0.000,0.000,-4.428,0.000
0.887,0.001,0.000,0.041,0.000,0.000,-0.035,0.000,0.000,-4.428,0.000
0.888,0.000,0.000,0.041,0.000,0.000,-0.034,0.000,0.000,-4.428,0.000
0.890,0.001,0.000,0.041,0.000,0.000,-0.034,0.000,0.000,-4.428,0.000
0.892,0.001,0.000,0.041,0.000,0.000,-0.034,0.000,0.000,-4.428,0.000
0.893,0.000,0.000,0.041,0.000,0.000,-0.034,0.000,0.000,-4.428,0.000
0.895,0.001,0.000,0.041,0.000,0.000,-0.034,0.000,0.000,-4.428,0.000
0.909,0.000,0.000,0.042,0.000,0.000,-0.033,0.000,0.000,-4.428,0.000
0.911,0.001,0.000,0.043,0.000,0.000,-0.033,0.000,0.000,-4.428,0.000
0.913,0.001,0.000,0.043,0.000,0.000,-0.033,0.000,0.000,-4.428,0.000
0.914,0.000,0.000,0.043,0.000,0.000,-0.033,0.000,0.000,-4.428,0.000
0.916,0.001,0.000,0.043,0.000,0.000,-0.033,0.000,0.000,-4.428,0.000
0.918,0.001,0.000,0.043,0.000,0.000,-0.033,0.000,0.000,-4.428,0.000
0.919,0.000,0.000,0.043,0.000,0.000,-0.033,0.000,0.000,-4.428,0.000
0.921,0.001,0.000,0.043,0.000,0.000,-0.033,0.000,0.000,-4.428,0.000
0.935,0.000,0.000,0.045,0.000,0.000,-0.034,0.000,0.000,-4.429,0.000
0.937,0.001,0.000,0.045,0.000,0.000,-0.034,0.000,0.000,-4.429,0.000
0.939,0.001,0.000,0.045,0.000,0.000,-0.034,0.000,0.000,-4.429,0.000
0.940,0.000,0.000,0.045,0.000,0.000,-0.034,0.000,0.000,-4.429,0.000
0.942,0.001,0.000,0.045,0.000,0.000,-0.034,0.000,0.000,-4.429,0.000
0.944,0.001,0.000,0.046,0.000,0.000,-0.034,0.000,0.000,-4.429,0.000
0.945,0.000,0.000,0.046,0.000,0.000,-0.034,0.000,0.000,-4.429,0.000
0.960,0.001,0.000,0.047,0.000,0.000,-0.035,0.000,0.000,-4.430,0.000
0.961,0.001,0.000,0.047,0.000,0.000,-0.035,0.000,0.000,-4.430,0.000
0.963,0.001,0.000,0.047,0.000,0.000,-0.035,0.000,0.000,-4.430,0.000
0.964,0.000,0.000,0.047,0.000,0.000,-0.035,0.000,0.000,-4.430,0.000
0.966,0.000,0.000,0.047,0.000,0.000,-0.036,0.000,0.000,-4.430,0.000
0.968,0.001,0.000,0.047,0.000,0.000,-0.036,0.000,0.000,-4.430,0.000
0.970,0.001,0.000,0.047,0.000,0.000,-0.036,0.000,0.000,-4.430,0.000
0.984,0.001,0.000,0.048,0.000,0.000,-0.036,0.000,0.000,-4.431,0.000
0.985,0.000,0.000,0.048,0.000,0.000,-0.036,0.000,0.000,-4.431,0.000
0.987,0.000,0.000,0.048,0.000,0.000,-0.036,0.000,0.000,-4.431,0.000
0.989,0.001,0.000,0.048,0.000,0.000,-0.036,0.000,0.000,-4.431,0.000
0.991,0.001,0.000,0.048,0.000,0.000,-0.036,0.000,0.000,-4.431,0.000
0.992,0.000,0.000,0.048,0.000,0.000,-0.036,0.000,0.000,-4.431,0.000
0.994,0.001,0.000,0.048,0.000,0.000,-0.036,0.000,0.000,-4.431,0.000
0.995,0.000,0.000,0.048,0.000,0.000,-0.036,0.000,0.000,-4.431,0.000
1.010,0.001,0.000,0.049,0.000,0.000,-0.037,0.000,0.000,-4.432,0.000
1.011,0.000,0.000,0.049,0.000,0.000,-0.037,0.000,0.000,-4.432,0.000
1.013,0.000,0.000,0.049,0.000,0.000,-0.037,0.000,0.000,-4.432,0.000
1.015,0.001,0.000,0.049,0.000,0.000,-0.037,0.000,0.000,-4.432,0.000
1.017,0.001,0.000,0.049,0.000,0.000,-0.036,0.000,0.000,-4.432,0.000
1.018,0.000,0.000,0.050,0.000,0.000,-0.036,0.000,0.000,-4.432,0.000
1.020,0.001,0.000,0.050,0.000,0.000,-0.036,0.000,0.000,-4.432,0.000
1.034,0.000,0.000,0.051,0.000,0.000,-0.036,0.000,0.000,-4.432,0.000
1.036,0.001,0.000,0.051,0.000,0.000,-0.036,0.000,0.000,-4.432,0.000
1.038,0.001,0.000,0.051,0.000,0.000,-0.036,0.000,0.000,-4.432,0.000
1.039,0.000,0.000,0.051,0.000,0.000,-0.035,0.000,0.000,-4.432,0.000
1.041,0.001,0.000,0.051,0.000,0.000,-0.035,0.000,0.000,-4.432,0.000
1.043,0.001,0.000,0.051,0.000,0.000,-0.035,0.000,0.000,-4.432,0.000
1.044,0.000,0.000,0.051,0.000,0.000,-0.035,0.000,0.000,-4.432,0.000
1.046,0.001,0.000,0.052,0.000,0.000,-0.035,0.000,0.000,-4.432,0.000
1.060,0.000,0.000,0.052,0.000,0.000,-0.034,0.000,0.000,-4.433,0.000
1.062,0.001,0.000,0.052,0.000,0.000,-0.034,0.000,0.000,-4.433,0.000
1.064,0.001,0.000,0.053,0.000,0.000,-0.034,0.000,0.000,-4.433,0.000
1.065,0.000,0.000,0.053,0.000,0.000,-0.033,0.000,0.000,-4.433,0.000
1.067,0.001,0.000,0.053,0.000,0.000,-0.033,0.000,0.000,-4.433,0.000
1.069,0.001,0.000,0.053,0.000,0.000,-0.033,0.000,0.000,-4.433,0.000
1.070,0.000,0.000,0.053,0.000,0.000,-0.033,0.000,0.000,-4.433,0.000
1.085,0.001,0.000,0.054,0.000,0.000,-0.032,0.000,0.000,-4.434,0.000
1.086,0.000,0.000,0.054,0.000,0.000,-0.031,0.000,0.000,-4.434,0.000
1.088,0.001,0.000,0.054,0.000,0.000,-0.031,0.000,0.000,-4.434,0.000
1.090,0.001,0.000,0.054,0.000,0.000,-0.031,0.000,0.000,-4.434,0.000
1.091,0.000,0.000,0.054,0.000,0.000,-0.031,0.000,0.000,-4.434,0.000
1.093,0.001,0.000,0.054,0.000,0.000,-0.031,0.000,0.000,-4.434,0.000
1.095,0.001,0.000,0.054,0.000,0.000,-0.030,0.000,0.000,-4.434,0.000
1.109,0.001,0.000,0.055,0.000,0.000,-0.029,0.000,0.000,-4.434,0.000
1.111,0.001,0.000,0.055,0.000,0.000,-0.029,0.000,0.000,-4.434,0.000
1.113,0.001,0.000,0.055,0.000,0.000,-0.029,0.000,0.000,-4.434,0.000
1.114,0.001,0.000,0.055,0.000,0.000,-0.029,0.000,0.000,-4.435,0.000
1.116,0.001,0.000,0.055,0.000,0.000,-0.029,0.000,0.000,-4.435,0.000
1.117,0.000,0.000,0.055,0.000,0.000,-0.028,0.000,0.000,-4.435,0.000
1.119,0.000,0.000,0.055,0.000,0.000,-0.028,0.000,0.000,-4.435,0.000
1.121,0.001,0.000,0.055,0.000,0.000,-0.028,0.000,0.000,-4.435,0.000
1.139,0.001,0.000,0.057,0.000,0.000,-0.027,0.000,0.000,-4.435,0.000
1.140,0.001,0.000,0.057,0.000,0.000,-0.027,0.000,0.000,-4.435,0.000
1.142,0.001,0.000,0.057,0.000,0.000,-0.027,0.000,0.000,-4.435,0.000
1.143,0.000,0.000,0.057,0.000,0.000,-0.027,0.000,0.000,-4.435,0.000
1.145,0.000,0.000,0.057,0.000,0.000,-0.027,0.000,0.000,-4.435,0.000
1.147,0.001,0.000,0.057,0.000,0.000,-0.027,0.000,0.000,-4.435,0.000
1.149,0.001,0.000,0.058,0.000,0.000,-0.027,0.000,0.000,-4.435,0.000
1.163,0.001,0.000,0.059,0.000,0.000,-0.027,0.000,0.000,-4.436,0.000
1.164,0.000,0.000,0.059,0.000,0.000,-0.027,0.000,0.000,-4.436,0.000
1.166,0.001,0.000,0.059,0.000,0.000,-0.027,0.000,0.000,-4.436,0.000
1.168,0.001,0.000,0.059,0.000,0.000,-0.027,0.000,0.000,-4.436,0.000
1.169,0.000,0.000,0.059,0.000,0.000,-0.027,0.000,0.000,-4.436,0.000
1.171,0.001,0.000,0.059,0.000,0.000,-0.027,0.000,0.000,-4.436,0.000
1.173,0.001,0.000,0.059,0.000,0.000,-0.027,0.000,0.000,-4.436,0.000
1.174,0.000,0.000,0.060,0.000,0.000,-0.027,0.000,0.000,-4.436,0.000
1.188,0.000,0.000,0.060,0.000,0.000,-0.026,0.000,0.000,-4.436,0.000
1.190,0.001,0.000,0.061,0.000,0.000,-0.026,0.000,0.000,-4.436,0.000
1.192,0.001,0.000,0.061,0.000,0.000,-0.026,0.000,0.000,-4.436,0.000
1.193,0.000,0.000,0.061,0.000,0.000,-0.026,0.000,0.000,-4.437,0.000
1.195,0.001,0.000,0.061,0.000,0.000,-0.026,0.000,0.000,-4.437,0.000
1.197,0.001,0.000,0.061,0.000,0.000,-0.026,0.000,0.000,-4.437,0.000
1.198,0.000,0.000,0.061,0.000,0.000,-0.026,0.000,0.000,-4.437,0.000
1.215,0.001,0.000,0.063,0.000,0.000,-0.025,0.000,0.000,-4.437,0.000
1.217,0.001,0.000,0.063,0.000,0.000,-0.025,0.000,0.000,-4.437,0.000
1.218,0.000,0.000,0.063,0.000,0.000,-0.025,0.000,0.000,-4.437,0.000
1.220,0.001,0.000,0.064,0.000,0.000,-0.025,0.000,0.000,-4.437,0.000
1.222,0.001,0.000,0.064,0.000,0.000,-0.025,0.000,0.000,-4.437,0.000
1.223,0.000,0.000,0.064,0.000,0.000,-0.025,0.000,0.000,-4.437,0.000
1.225,0.001,0.000,0.064,0.000,0.000,-0.025,0.000,0.000,-4.438,0.000
1.227,0.001,0.000,0.065,0.000,0.000,-0.025,0.000,0.000,-4.438,0.000
1.241,0.001,0.000,0.067,0.000,0.000,-0.024,0.000,0.000,-4.438,0.000
1.242,0.000,0.000,0.067,0.000,0.000,-0.024,0.000,0.000,-4.438,0.000
1.244,0.001,0.000,0.068,0.000,0.000,-0.024,0.000,0.000,-4.438,0.000
1.246,0.001,0.000,0.068,0.000,0.000,-0.024,0.000,0.000,-4.438,0.000
1.247,0.000,0.000,0.068,0.000,0.000,-0.024,0.000,0.000,-4.438,0.000
1.249,0.001,0.000,0.069,0.000,0.000,-0.023,0.000,0.000,-4.438,0.000
1.251,0.001,0.000,0.069,0.000,0.000,-0.023,0.000,0.000,-4.438,0.000
1.265,0.001,0.000,0.071,0.000,0.000,-0.022,0.000,0.000,-4.438,0.000
1.266,0.000,0.000,0.072,0.000,0.000,-0.022,0.000,0.000,-4.438,0.000
1.268,0.001,0.000,0.072,0.000,0.000,-0.022,0.000,0.000,-4.438,0.000
1.270,0.001,0.000,0.072,0.000,0.000,-0.021,0.000,0.000,-4.438,0.000
1.271,0.000,0.000,0.072,0.000,0.000,-0.021,0.000,0.000,-4.438,0.000
1.273,0.001,0.000,0.073,0.000,0.000,-0.021,0.000,0.000,-4.438,0.000
1.275,0.001,0.000,0.073,0.000,0.000,-0.021,0.000,0.000,-4.438,0.000
1.289,0.001,0.000,0.075,0.000,0.000,-0.019,0.000,0.000,-4.438,0.000
1.290,0.000,0.000,0.075,0.000,0.000,-0.019,0.000,0.000,-4.438,0.000
1.292,0.001,0.000,0.076,0.000,0.000,-0.018,0.000,0.000,-4.438,0.000
1.294,0.001,0.000,0.076,0.000,0.000,-0.018,0.000,0.000,-4.438,0.000
1.295,0.000,0.000,0.076,0.000,0.000,-0.018,0.000,0.000,-4.438,0.000
1.297,0.001,0.000,0.076,0.000,0.000,-0.018,0.000,0.000,-4.438,0.000
1.299,0.001,0.000,0.076,0.000,0.000,-0.017,0.000,0.000,-4.438,0.000
1.300,0.000,0.000,0.077,0.000,0.000,-0.017,0.000,0.000,-4.438,0.000
1.314,0.000,0.000,0.078,0.000,0.000,-0.015,0.000,0.000,-4.438,0.000
1.316,0.001,0.000,0.079,0.000,0.000,-0.015,0.000,0.000,-4.438,0.000
1.318,0.001,0.000,0.079,0.000,0.000,-0.015,0.000,0.000,-4.438,0.000
1.319,0.000,0.000,0.079,0.000,0.000,-0.014,0.000,0.000,-4.438,0.000
1.321,0.001,0.000,0.079,0.000,0.000,-0.014,0.000,0.000,-4.438,0.000
1.323,0.001,0.000,0.080,0.000,0.000,-0.014,0.000,0.000,-4.438,0.000
1.324,0.000,0.000,0.080,0.000,0.000,-0.014,0.000,0.000,-4.438,0.000
1.339,0.001,0.000,0.082,0.000,0.000,-0.013,0.000,0.000,-4.438,0.000
1.340,0.001,0.000,0.082,0.000,0.000,-0.012,0.000,0.000,-4.438,0.000
1.342,0.001,0.000,0.082,0.000,0.000,-0.012,0.000,0.000,-4.438,0.000
1.343,0.000,0.000,0.082,0.000,0.000,-0.012,0.000,0.000,-4.438,0.000
1.345,0.000,0.000,0.083,0.000,0.000,-0.012,0.000,0.000,-4.438,0.000
1.347,0.001,0.000,0.083,0.000,0.000,-0.012,0.000,0.000,-4.438,0.000
1.349,0.001,0.000,0.083,0.000,0.000,-0.012,0.000,0.000,-4.438,0.000
1.350,0.000,0.000,0.083,0.000,0.000,-0.012,0.000,0.000,-4.438,0.000
1.364,0.001,0.000,0.085,0.000,0.000,-0.011,0.000,0.000,-4.438,0.000
1.366,0.001,0.000,0.085,0.000,0.000,-0.010,0.000,0.000,-4.438,0.000
1.368,0.001,0.000,0.085,0.000,0.000,-0.010,0.000,0.000,-4.438,0.000
1.369,0.000,0.000,0.085,0.000,0.000,-0.010,0.000,0.000,-4.438,0.000
1.371,0.001,0.000,0.085,0.000,0.000,-0.010,0.000,0.000,-4.438,0.000
1.373,0.001,0.000,0.085,0.000,0.000,-0.010,0.000,0.000,-4.438,0.000
1.374,0.000,0.000,0.085,0.000,0.000,-0.010,0.000,0.000,-4.438,0.000
1.388,0.000,0.000,0.086,0.000,0.000,-0.008,0.000,0.000,-4.438,0.000
1.390,0.001,0.000,0.087,0.000,0.000,-0.008,0.000,0.000,-4.438,0.000
1.392,0.001,0.000,0.087,0.000,0.000,-0.008,0.000,0.000,-4.438,0.000
1.393,0.000,0.000,0.087,0.000,0.000,-0.008,0.000,0.000,-4.438,0.000
1.395,0.001,0.000,0.087,0.000,0.000,-0.008,0.000,0.000,-4.438,0.000
1.397,0.001,0.000,0.087,0.000,0.000,-0.008,0.000,0.000,-4.438,0.000
1.398,0.000,0.000,0.087,0.000,0.000,-0.008,0.000,0.000,-4.438,0.000
1.412,0.000,0.000,0.088,0.000,0.000,-0.006,0.000,0.000,-4.437,0.000
1.414,0.001,0.000,0.088,0.000,0.000,-0.006,0.000,0.000,-4.437,0.000
1.416,0.001,0.000,0.089,0.000,0.000,-0.006,0.000,0.000,-4.437,0.000
1.417,0.000,0.000,0.089,0.000,0.000,-0.006,0.000,0.000,-4.437,0.000
1.419,0.001,0.000,0.089,0.000,0.000,-0.006,0.000,0.000,-4.437,0.000
1.421,0.001,0.000,0.089,0.000,0.000,-0.006,0.000,0.000,-4.437,0.000
1.422,0.000,0.000,0.089,0.000,0.000,-0.006,0.000,0.000,-4.437,0.000
1.424,0.001,0.000,0.089,0.000,0.000,-0.006,0.000,0.000,-4.437,0.000
1.438,0.001,0.000,0.089,0.000,0.000,-0.006,0.000,0.000,-4.437,0.000
1.440,0.001,0.000,0.089,0.000,0.000,-0.006,0.000,0.000,-4.437,0.000
1.441,0.000,0.000,0.089,0.000,0.000,-0.006,0.000,0.000,-4.437,0.000
1.443,0.001,0.000,0.089,0.000,0.000,-0.006,0.000,0.000,-4.437,0.000
1.445,0.001,0.000,0.089,0.000,0.000,-0.006,0.000,0.000,-4.437,0.000
1.447,0.001,0.000,0.089,0.000,0.000,-0.006,0.000,0.000,-4.437,0.000
1.448,0.000,0.000,0.089,0.000,0.000,-0.006,0.000,0.000,-4.437,0.000
1.466,0.001,0.000,0.089,0.000,0.000,-0.006,0.000,0.000,-4.436,0.000
1.467,0.000,0.000,0.089,0.000,0.000,-0.007,0.000,0.000,-4.436,0.000
1.469,0.000,0.000,0.089,0.000,0.000,-0.007,0.000,0.000,-4.436,0.000
1.471,0.001,0.000,0.089,0.000,0.000,-0.007,0.000,0.000,-4.436,0.000
1.473,0.001,0.000,0.089,0.000,0.000,-0.007,0.000,0.000,-4.436,0.000
1.474,0.000,0.000,0.089,0.000,0.000,-0.007,0.000,0.000,-4.436,0.000
1.476,0.001,0.000,0.089,0.000,0.000,-0.007,0.000,0.000,-4.436,0.000
1.477,0.000,0.000,0.089,0.000,0.000,-0.007,0.000,0.000,-4.436,0.000
1.492,0.001,0.000,0.089,0.000,0.000,-0.008,0.000,0.000,-4.436,0.000
1.493,0.000,0.000,0.089,0.000,0.000,-0.008,0.000,0.000,-4.436,0.000
1.495,0.001,0.000,0.089,0.000,0.000,-0.008,0.000,0.000,-4.436,0.000
1.497,0.001,0.000,0.089,0.000,0.000,-0.009,0.000,0.000,-4.436,0.000
1.498,0.000,0.000,0.089,0.000,0.000,-0.009,0.000,0.000,-4.436,0.000
1.500,0.000,0.000,0.089,0.000,0.000,-0.009,0.000,0.000,-4.436,0.000
1.502,0.001,0.000,0.089,0.000,0.000,-0.009,0.000,0.000,-4.436,0.000
1.516,0.001,0.000,0.088,0.000,0.000,-0.010,0.000,0.000,-4.436,0.000
1.518,0.001,0.000,0.088,0.000,0.000,-0.010,0.000,0.000,-4.436,0.000
1.519,0.000,0.000,0.088,0.000,0.000,-0.011,0.000,0.000,-4.436,0.000
1.521,0.001,0.000,0.088,0.000,0.000,-0.011,0.000,0.000,-4.436,0.000
1.523,0.001,0.000,0.088,0.000,0.000,-0.011,0.000,0.000,-4.436,0.000
1.524,0.000,0.000,0.088,0.000,0.000,-0.011,0.000,0.000,-4.436,0.000
1.526,0.001,0.000,0.088,0.000,0.000,-0.011,0.000,0.000,-4.436,0.000
1.528,0.001,0.000,0.087,0.000,0.000,-0.011,0.000,0.000,-4.436,0.000
1.719,0.001,0.000,0.060,0.000,0.000,-0.025,0.000,0.000,-4.438,0.000
1.721,0.001,0.000,0.060,0.000,0.000,-0.025,0.000,0.000,-4.438,0.000
1.722,0.000,0.000,0.060,0.000,0.000,-0.025,0.000,0.000,-4.438,0.000
1.724,0.001,0.000,0.059,0.000,0.000,-0.025,0.000,0.000,-4.438,0.000
1.726,0.001,0.000,0.059,0.000,0.000,-0.025,0.000,0.000,-4.438,0.000
1.727,0.000,0.000,0.058,0.000,0.000,-0.025,0.000,0.000,-4.438,0.000
1.729,0.001,0.000,0.057,0.000,0.000,-0.025,0.000,0.000,-4.438,0.000
1.743,0.001,0.000,0.051,0.000,0.000,-0.026,0.000,0.000,-4.439,0.000
1.745,0.001,0.000,0.051,0.000,0.000,-0.026,0.000,0.000,-4.439,0.000
1.746,0.000,0.000,0.050,0.000,0.000,-0.026,0.000,0.000,-4.439,0.000
1.748,0.001,0.000,0.050,0.000,0.000,-0.026,0.000,0.000,-4.439,0.000
1.750,0.001,0.000,0.049,0.000,0.000,-0.026,0.000,0.000,-4.439,0.000
1.751,0.000,0.000,0.049,0.000,0.000,-0.026,0.000,0.000,-4.439,0.000
1.753,0.000,0.000,0.049,0.000,0.000,-0.026,0.000,0.000,-4.440,0.000
1.767,0.000,0.000,0.047,0.000,0.000,-0.027,0.000,0.000,-4.441,0.000
1.769,0.001,0.000,0.047,0.000,0.000,-0.027,0.000,0.000,-4.441,0.000
1.771,0.001,0.000,0.047,0.000,0.000,-0.027,0.000,0.000,-4.441,0.000
1.772,0.000,0.000,0.046,0.000,0.000,-0.027,0.000,0.000,-4.441,0.000
1.774,0.001,0.000,0.046,0.000,0.000,-0.027,0.000,0.000,-4.441,0.000
1.776,0.001,0.000,0.046,0.000,0.000,-0.027,0.000,0.000,-4.441,0.000
1.777,0.000,0.000,0.045,0.000,0.000,-0.027,0.000,0.000,-4.441,0.000
1.779,0.001,0.000,0.044,0.000,0.000,-0.027,0.000,0.000,-4.441,0.000
1.793,0.001,0.000,0.041,0.000,0.000,-0.027,0.000,0.000,-4.442,0.000
1.795,0.001,0.000,0.040,0.000,0.000,-0.027,0.000,0.000,-4.442,0.000
1.796,0.000,0.000,0.040,0.000,0.000,-0.027,0.000,0.000,-4.442,0.000
1.798,0.001,0.000,0.040,0.000,0.000,-0.028,0.000,0.000,-4.442,0.000
1.800,0.001,0.000,0.040,0.000,0.000,-0.028,0.000,0.000,-4.442,0.000
1.802,0.001,0.000,0.040,0.000,0.000,-0.028,0.000,0.000,-4.442,0.000
1.803,0.000,0.000,0.040,0.000,0.000,-0.028,0.000,0.000,-4.442,0.000
1.817,0.000,0.000,0.040,0.000,0.000,-0.028,0.000,0.000,-4.442,0.000
1.819,0.001,0.000,0.040,0.000,0.000,-0.028,0.000,0.000,-4.442,0.000
1.821,0.001,0.000,0.040,0.000,0.000,-0.029,0.000,0.000,-4.442,0.000
1.822,0.000,0.000,0.040,0.000,0.000,-0.029,0.000,0.000,-4.442,0.000
1.824,0.001,0.000,0.040,0.000,0.000,-0.029,0.000,0.000,-4.442,0.000
1.826,0.001,0.000,0.039,0.000,0.000,-0.029,0.000,0.000,-4.442,0.000
1.827,0.000,0.000,0.039,0.000,0.000,-0.029,0.000,0.000,-4.442,0.000
1.829,0.001,0.000,0.039,0.000,0.000,-0.029,0.000,0.000,-4.442,0.000
1.843,0.000,0.000,0.039,0.000,0.000,-0.030,0.000,0.000,-4.441,0.000
1.845,0.001,0.000,0.039,0.000,0.000,-0.030,0.000,0.000,-4.441,0.000
1.847,0.001,0.000,0.038,0.000,0.000,-0.030,0.000,0.000,-4.441,0.000
1.848,0.000,0.000,0.038,0.000,0.000,-0.030,0.000,0.000,-4.441,0.000
1.850,0.001,0.000,0.038,0.000,0.000,-0.030,0.000,0.000,-4.441,0.000
1.852,0.001,0.000,0.038,0.000,0.000,-0.030,0.000,0.000,-4.441,0.000
1.853,0.000,0.000,0.038,0.000,0.000,-0.030,0.000,0.000,-4.441,0.000
1.868,0.001,0.000,0.038,0.000,0.000,-0.032,0.000,0.000,-4.442,0.000
1.869,0.001,0.000,0.038,0.000,0.000,-0.032,0.000,0.000,-4.442,0.000
1.871,0.001,0.000,0.038,0.000,0.000,-0.032,0.000,0.000,-4.442,0.000
1.872,0.000,0.000,0.038,0.000,0.000,-0.032,0.000,0.000,-4.442,0.000
1.874,0.000,0.000,0.038,0.000,0.000,-0.032,0.000,0.000,-4.442,0.000
1.876,0.001,0.000,0.038,0.000,0.000,-0.033,0.000,0.000,-4.442,0.000
1.878,0.001,0.000,0.038,0.000,0.000,-0.033,0.000,0.000,-4.442,0.000
1.879,0.000,0.000,0.038,0.000,0.000,-0.033,0.000,0.000,-4.442,0.000
1.893,0.000,0.000,0.040,0.000,0.000,-0.035,0.000,0.000,-4.442,0.000
1.895,0.000,0.000,0.040,0.000,0.000,-0.035,0.000,0.000,-4.442,0.000
1.897,0.001,0.000,0.040,0.000,0.000,-0.035,0.000,0.000,-4.442,0.000
1.899,0.001,0.000,0.040,0.000,0.000,-0.035,0.000,0.000,-4.442,0.000
1.900,0.000,0.000,0.040,0.000,0.000,-0.035,0.000,0.000,-4.443,0.000
1.902,0.001,0.000,0.040,0.000,0.000,-0.035,0.000,0.000,-4.443,0.000
1.904,0.001,0.000,0.040,0.000,0.000,-0.035,0.000,0.000,-4.443,0.000
1.918,0.001,0.000,0.039,0.000,0.000,-0.035,0.000,0.000,-4.443,0.000
1.919,0.000,0.000,0.039,0.000,0.000,-0.035,0.000,0.000,-4.443,0.000
1.921,0.000,0.000,0.039,0.000,0.000,-0.035,0.000,0.000,-4.443,0.000
1.923,0.001,0.000,0.039,0.000,0.000,-0.035,0.000,0.000,-4.443,0.000
1.924,0.000,0.000,0.039,0.000,0.000,-0.035,0.000,0.000,-4.443,0.000
1.926,0.001,0.000,0.039,0.000,0.000,-0.035,0.000,0.000,-4.443,0.000
1.928,0.001,0.000,0.039,0.000,0.000,-0.035,0.000,0.000,-4.443,0.000
1.942,0.001,0.000,0.040,0.000,0.000,-0.036,0.000,0.000,-4.443,0.000
1.944,0.001,0.000,0.040,0.000,0.000,-0.036,0.000,0.000,-4.443,0.000
1.945,0.000,0.000,0.040,0.000,0.000,-0.036,0.000,0.000,-4.443,0.000
1.947,0.001,0.000,0.040,0.000,0.000,-0.036,0.000,0.000,-4.443,0.000
1.949,0.001,0.000,0.040,0.000,0.000,-0.036,0.000,0.000,-4.443,0.000
1.950,0.000,0.000,0.040,0.000,0.000,-0.036,0.000,0.000,-4.443,0.000
1.952,0.000,0.000,0.040,0.000,0.000,-0.036,0.000,0.000,-4.443,0.000
1.954,0.001,0.000,0.040,0.000,0.000,-0.036,0.000,0.000,-4.443,0.000
1.972,0.001,0.000,0.039,0.000,0.000,-0.037,0.000,0.000,-4.443,0.000
1.973,0.000,0.000,0.039,0.000,0.000,-0.037,0.000,0.000,-4.443,0.000
1.975,0.001,0.000,0.039,0.000,0.000,-0.037,0.000,0.000,-4.443,0.000
1.977,0.001,0.000,0.039,0.000,0.000,-0.037,0.000,0.000,-4.443,0.000
1.978,0.000,0.000,0.039,0.000,0.000,-0.037,0.000,0.000,-4.443,0.000
1.980,0.001,0.000,0.039,0.000,0.000,-0.037,0.000,0.000,-4.443,0.000
1.982,0.001,0.000,0.039,0.000,0.000,-0.037,0.000,0.000,-4.443,0.000
1.996,0.001,0.000,0.038,0.000,0.000,-0.037,0.000,0.000,-4.444,0.000
1.998,0.001,0.000,0.038,0.000,0.000,-0.037,0.000,0.000,-4.444,0.000
1.999,0.000,0.000,0.037,0.000,0.000,-0.037,0.000,0.000,-4.444,0.000
2.001,0.001,0.000,0.037,0.000,0.000,-0.037,0.000,0.000,-4.445,0.000
2.003,0.001,0.000,0.037,0.000,0.000,-0.037,0.000,0.000,-4.445,0.000
2.004,0.000,0.000,0.037,0.000,0.000,-0.037,0.000,0.000,-4.445,0.000
2.006,0.001,0.000,0.037,0.000,0.000,-0.037,0.000,0.000,-4.445,0.000
2.008,0.001,0.000,0.037,0.000,0.000,-0.037,0.000,0.000,-4.445,0.000
2.022,0.001,0.000,0.036,0.000,0.000,-0.036,0.000,0.000,-4.445,0.000
2.024,0.001,0.000,0.036,0.000,0.000,-0.036,0.000,0.000,-4.445,0.000
2.025,0.000,0.000,0.036,0.000,0.000,-0.036,0.000,0.000,-4.445,0.000
2.027,0.001,0.000,0.035,0.000,0.000,-0.036,0.000,0.000,-4.445,0.000
2.029,0.001,0.000,0.035,0.000,0.000,-0.036,0.000,0.000,-4.445,0.000
2.030,0.000,0.000,0.035,0.000,0.000,-0.036,0.000,0.000,-4.445,0.000
2.032,0.001,0.000,0.035,0.000,0.000,-0.036,0.000,0.000,-4.445,0.000
2.045,0.001,0.000,0.032,0.000,0.000,-0.036,0.000,0.000,-4.446,0.000
2.047,0.001,0.000,0.032,0.000,0.000,-0.036,0.000,0.000,-4.446,0.000
2.048,0.000,0.000,0.031,0.000,0.000,-0.036,0.000,0.000,-4.446,0.000
2.050,0.001,0.000,0.031,0.000,0.000,-0.036,0.000,0.000,-4.446,0.000
2.052,0.001,0.000,0.031,0.000,0.000,-0.036,0.000,0.000,-4.446,0.000
2.053,0.000,0.000,0.030,0.000,0.000,-0.036,0.000,0.000,-4.446,0.000
2.055,0.000,0.000,0.030,0.000,0.000,-0.036,0.000,0.000,-4.446,0.000
2.069,0.000,0.000,0.028,0.000,0.000,-0.036,0.000,0.000,-4.446,0.000
2.071,0.001,0.000,0.028,0.000,0.000,-0.036,0.000,0.000,-4.446,0.000
2.073,0.001,0.000,0.028,0.000,0.000,-0.036,0.000,0.000,-4.446,0.000
2.074,0.000,0.000,0.028,0.000,0.000,-0.036,0.000,0.000,-4.446,0.000
2.076,0.001,0.000,0.027,0.000,0.000,-0.037,0.000,0.000,-4.446,0.000
2.078,0.001,0.000,0.027,0.000,0.000,-0.037,0.000,0.000,-4.446,0.000
2.079,0.000,0.000,0.027,0.000,0.000,-0.037,0.000,0.000,-4.446,0.000
2.081,0.001,0.000,0.027,0.000,0.000,-0.037,0.000,0.000,-4.446,0.000
2.095,0.000,0.000,0.025,0.000,0.000,-0.037,0.000,0.000,-4.446,0.000
2.097,0.001,0.000,0.025,0.000,0.000,-0.038,0.000,0.000,-4.446,0.000
2.099,0.001,0.000,0.025,0.000,0.000,-0.038,0.000,0.000,-4.446,0.000
2.100,0.000,0.000,0.025,0.000,0.000,-0.038,0.000,0.000,-4.446,0.000
2.102,0.001,0.000,0.025,0.000,0.000,-0.038,0.000,0.000,-4.446,0.000
2.104,0.001,0.000,0.025,0.000,0.000,-0.038,0.000,0.000,-4.446,0.000
2.105,0.000,0.000,0.025,0.000,0.000,-0.038,0.000,0.000,-4.446,0.000
2.182,0.001,0.000,0.027,0.000,0.000,-0.043,0.000,0.000,-4.445,0.000
2.183,0.000,0.000,0.027,0.000,0.000,-0.043,0.000,0.000,-4.445,0.000
2.185,0.001,0.000,0.027,0.000,0.000,-0.043,0.000,0.000,-4.445,0.000
2.187,0.001,0.000,0.028,0.000,0.000,-0.043,0.000,0.000,-4.445,0.000
2.188,0.000,0.000,0.028,0.000,0.000,-0.043,0.000,0.000,-4.445,0.000
2.190,0.001,0.000,0.028,0.000,0.000,-0.043,0.000,0.000,-4.445,0.000
2.192,0.001,0.000,0.028,0.000,0.000,-0.043,0.000,0.000,-4.445,0.000
2.193,0.000,0.000,0.028,0.000,0.000,-0.043,0.000,0.000,-4.445,0.000
2.208,0.001,0.000,0.029,0.000,0.000,-0.044,0.000,0.000,-4.446,0.000
2.209,0.000,0.000,0.029,0.000,0.000,-0.044,0.000,0.000,-4.446,0.000
2.211,0.001,0.000,0.029,0.000,0.000,-0.045,0.000,0.000,-4.446,0.000
2.213,0.001,0.000,0.029,0.000,0.000,-0.045,0.000,0.000,-4.446,0.000
2.214,0.000,0.000,0.029,0.000,0.000,-0.045,0.000,0.000,-4.446,0.000
2.216,0.001,0.000,0.029,0.000,0.000,-0.045,0.000,0.000,-4.446,0.000
2.218,0.001,0.000,0.029,0.000,0.000,-0.045,0.000,0.000,-4.446,0.000
2.232,0.001,0.000,0.030,0.000,0.000,-0.046,0.000,0.000,-4.447,0.000
2.234,0.001,0.000,0.030,0.000,0.000,-0.046,0.000,0.000,-4.447,0.000
2.235,0.000,0.000,0.030,0.000,0.000,-0.046,0.000,0.000,-4.447,0.000
2.237,0.001,0.000,0.030,0.000,0.000,-0.046,0.000,0.000,-4.447,0.000
2.239,0.001,0.000,0.030,0.000,0.000,-0.046,0.000,0.000,-4.447,0.000
2.240,0.000,0.000,0.031,0.000,0.000,-0.046,0.000,0.000,-4.447,0.000
2.242,0.001,0.000,0.031,0.000,0.000,-0.046,0.000,0.000,-4.447,0.000
2.244,0.001,0.000,0.031,0.000,0.000,-0.046,0.000,0.000,-4.447,0.000
2.258,0.001,0.000,0.033,0.000,0.000,-0.046,0.000,0.000,-4.448,0.000
2.260,0.001,0.000,0.033,0.000,0.000,-0.046,0.000,0.000,-4.448,0.000
2.261,0.000,0.000,0.033,0.000,0.000,-0.046,0.000,0.000,-4.448,0.000
2.263,0.001,0.000,0.033,0.000,0.000,-0.046,0.000,0.000,-4.448,0.000
2.265,0.001,0.000,0.033,0.000,0.000,-0.046,0.000,0.000,-4.448,0.000
2.266,0.000,0.000,0.033,0.000,0.000,-0.046,0.000,0.000,-4.448,0.000
2.268,0.001,0.000,0.033,0.000,0.000,-0.045,0.000,0.000,-4.448,0.000
2.282,0.000,0.000,0.034,0.000,0.000,-0.044,0.000,0.000,-4.449,0.000
2.284,0.001,0.000,0.034,0.000,0.000,-0.044,0.000,0.000,-4.449,0.000
2.286,0.001,0.000,0.034,0.000,0.000,-0.044,0.000,0.000,-4.449,0.000
2.287,0.000,0.000,0.034,0.000,0.000,-0.044,0.000,0.000,-4.449,0.000
2.289,0.001,0.000,0.034,0.000,0.000,-0.043,0.000,0.000,-4.449,0.000
2.291,0.001,0.000,0.034,0.000,0.000,-0.043,0.000,0.000,-4.449,0.000
2.292,0.000,0.000,0.034,0.000,0.000,-0.043,0.000,0.000,-4.449,0.000
2.307,0.001,0.000,0.033,0.000,0.000,-0.042,0.000,0.000,-4.449,0.000
2.308,0.000,0.000,0.033,0.000,0.000,-0.042,0.000,0.000,-4.449,0.000
2.310,0.001,0.000,0.033,0.000,0.000,-0.042,0.000,0.000,-4.449,0.000
2.312,0.001,0.000,0.033,0.000,0.000,-0.041,0.000,0.000,-4.450,0.000
2.313,0.000,0.000,0.033,0.000,0.000,-0.041,0.000,0.000,-4.450,0.000
2.315,0.001,0.000,0.033,0.000,0.000,-0.041,0.000,0.000,-4.450,0.000
2.317,0.001,0.000,0.032,0.000,0.000,-0.041,0.000,0.000,-4.450,0.000
2.318,0.000,0.000,0.033,0.000,0.000,-0.041,0.000,0.000,-4.450,0.000
2.333,0.001,0.000,0.032,0.000,0.000,-0.040,0.000,0.000,-4.450,0.000
2.334,0.000,0.000,0.032,0.000,0.000,-0.040,0.000,0.000,-4.450,0.000
2.336,0.001,0.000,0.032,0.000,0.000,-0.040,0.000,0.000,-4.450,0.000
2.338,0.001,0.000,0.032,0.000,0.000,-0.040,0.000,0.000,-4.450,0.000
2.339,0.000,0.000,0.032,0.000,0.000,-0.040,0.000,0.000,-4.450,0.000
2.341,0.000,0.000,0.032,0.000,0.000,-0.040,0.000,0.000,-4.450,0.000
2.343,0.001,0.000,0.032,0.000,0.000,-0.040,0.000,0.000,-4.450,0.000
2.361,0.001,0.000,0.031,0.000,0.000,-0.039,0.000,0.000,-4.450,0.000
2.362,0.000,0.000,0.031,0.000,0.000,-0.039,0.000,0.000,-4.450,0.000
2.364,0.000,0.000,0.031,0.000,0.000,-0.039,0.000,0.000,-4.450,0.000
2.366,0.001,0.000,0.031,0.000,0.000,-0.039,0.000,0.000,-4.451,0.000
2.368,0.001,0.000,0.031,0.000,0.000,-0.038,0.000,0.000,-4.451,0.000
2.369,0.001,0.000,0.031,0.000,0.000,-0.038,0.000,0.000,-4.451,0.000
2.371,0.001,0.000,0.031,0.000,0.000,-0.038,0.000,0.000,-4.451,0.000
2.372,0.000,0.000,0.031,0.000,0.000,-0.038,0.000,0.000,-4.451,0.000
2.386,0.000,0.000,0.030,0.000,0.000,-0.038,0.000,0.000,-4.451,0.000
2.388,0.001,0.000,0.030,0.000,0.000,-0.038,0.000,0.000,-4.451,0.000
2.390,0.001,0.000,0.029,0.000,0.000,-0.038,0.000,0.000,-4.451,0.000
2.392,0.001,0.000,0.029,0.000,0.000,-0.038,0.000,0.000,-4.451,0.000
2.393,0.000,0.000,0.029,0.000,0.000,-0.038,0.000,0.000,-4.451,0.000
2.395,0.001,0.000,0.029,0.000,0.000,-0.038,0.000,0.000,-4.451,0.000
2.397,0.001,0.000,0.029,0.000,0.000,-0.038,0.000,0.000,-4.451,0.000
2.411,0.001,0.000,0.028,0.000,0.000,-0.037,0.000,0.000,-4.452,0.000
2.412,0.000,0.000,0.028,0.000,0.000,-0.037,0.000,0.000,-4.452,0.000
2.414,0.001,0.000,0.028,0.000,0.000,-0.037,0.000,0.000,-4.452,0.000
2.415,0.000,0.000,0.028,0.000,0.000,-0.037,0.000,0.000,-4.452,0.000
2.417,0.000,0.000,0.028,0.000,0.000,-0.037,0.000,0.000,-4.452,0.000
2.419,0.001,0.000,0.028,0.000,0.000,-0.037,0.000,0.000,-4.452,0.000
2.421,0.001,0.000,0.028,0.000,0.000,-0.037,0.000,0.000,-4.452,0.000
2.422,0.000,0.000,0.028,0.000,0.000,-0.037,0.000,0.000,-4.452,0.000
2.434,0.001,0.000,0.028,0.000,0.000,-0.037,0.000,0.000,-4.452,0.000
2.436,0.001,0.000,0.028,0.000,0.000,-0.037,0.000,0.000,-4.452,0.000
2.437,0.000,0.000,0.028,0.000,0.000,-0.037,0.000,0.000,-4.452,0.000
2.439,0.001,0.000,0.029,0.000,0.000,-0.037,0.000,0.000,-4.452,0.000
2.441,0.001,0.000,0.029,0.000,0.000,-0.037,0.000,0.000,-4.452,0.000
2.442,0.000,0.000,0.029,0.000,0.000,-0.037,0.000,0.000,-4.452,0.000
2.444,0.001,0.000,0.029,0.000,0.000,-0.037,0.000,0.000,-4.452,0.000
2.458,0.001,0.000,0.029,0.000,0.000,-0.037,0.000,0.000,-4.452,0.000
2.459,0.000,0.000,0.029,0.000,0.000,-0.037,0.000,0.000,-4.452,0.000
2.461,0.000,0.000,0.029,0.000,0.000,-0.037,0.000,0.000,-4.452,0.000
2.463,0.001,0.000,0.029,0.000,0.000,-0.037,0.000,0.000,-4.452,0.000
2.465,0.001,0.000,0.029,0.000,0.000,-0.037,0.000,0.000,-4.452,0.000
2.466,0.000,0.000,0.029,0.000,0.000,-0.037,0.000,0.000,-4.452,0.000
2.468,0.001,0.000,0.029,0.000,0.000,-0.037,0.000,0.000,-4.452,0.000
2.482,0.001,0.000,0.027,0.000,0.000,-0.038,0.000,0.000,-4.452,0.000
2.484,0.001,0.000,0.027,0.000,0.000,-0.038,0.000,0.000,-4.452,0.000
2.485,0.000,0.000,0.027,0.000,0.000,-0.038,0.000,0.000,-4.452,0.000
2.487,0.001,0.000,0.027,0.000,0.000,-0.038,0.000,0.000,-4.452,0.000
2.489,0.001,0.000,0.027,0.000,0.000,-0.039,0.000,0.000,-4.452,0.000
2.490,0.000,0.000,0.027,0.000,0.000,-0.039,0.000,0.000,-4.452,0.000
2.492,0.001,0.000,0.027,0.000,0.000,-0.039,0.000,0.000,-4.452,0.000
2.494,0.001,0.000,0.027,0.000,0.000,-0.039,0.000,0.000,-4.452,0.000
2.507,0.000,0.000,0.027,0.000,0.000,-0.039,0.000,0.000,-4.452,0.000
2.509,0.001,0.000,0.027,0.000,0.000,-0.039,0.000,0.000,-4.452,0.000
2.511,0.001,0.000,0.027,0.000,0.000,-0.039,0.000,0.000,-4.452,0.000
2.513,0.001,0.000,0.027,0.000,0.000,-0.039,0.000,0.000,-4.452,0.000
2.514,0.000,0.000,0.027,0.000,0.000,-0.039,0.000,0.000,-4.452,0.000
2.516,0.001,0.000,0.027,0.000,0.000,-0.039,0.000,0.000,-4.452,0.000
2.518,0.001,0.000,0.026,0.000,0.000,-0.039,0.000,0.000,-4.452,0.000
2.532,0.001,0.000,0.026,0.000,0.000,-0.039,0.000,0.000,-4.452,0.000
2.533,0.000,0.000,0.026,0.000,0.000,-0.039,0.000,0.000,-4.452,0.000
2.535,0.001,0.000,0.026,0.000,0.000,-0.039,0.000,0.000,-4.452,0.000
2.536,0.000,0.000,0.026,0.000,0.000,-0.039,0.000,0.000,-4.452,0.000
2.538,0.000,0.000,0.026,0.000,0.000,-0.039,0.000,0.000,-4.452,0.000
2.540,0.001,0.000,0.026,0.000,0.000,-0.039,0.000,0.000,-4.452,0.000
2.542,0.001,0.000,0.026,0.000,0.000,-0.039,0.000,0.000,-4.452,0.000
2.543,0.000,0.000,0.026,0.000,0.000,-0.039,0.000,0.000,-4.452,0.000
2.557,0.000,0.000,0.027,0.000,0.000,-0.038,0.000,0.000,-4.452,0.000
2.559,0.001,0.000,0.027,0.000,0.000,-0.038,0.000,0.000,-4.452,0.000
2.561,0.001,0.000,0.027,0.000,0.000,-0.038,0.000,0.000,-4.452,0.000
2.562,0.000,0.000,0.027,0.000,0.000,-0.038,0.000,0.000,-4.452,0.000
2.564,0.001,0.000,0.027,0.000,0.000,-0.038,0.000,0.000,-4.452,0.000
2.566,0.001,0.000,0.027,0.000,0.000,-0.038,0.000,0.000,-4.453,0.000
2.567,0.000,0.000,0.027,0.000,0.000,-0.038,0.000,0.000,-4.453,0.000
2.581,0.000,0.000,0.027,0.000,0.000,-0.038,0.000,0.000,-4.453,0.000
2.583,0.001,0.000,0.027,0.000,0.000,-0.038,0.000,0.000,-4.453,0.000
2.585,0.001,0.000,0.027,0.000,0.000,-0.038,0.000,0.000,-4.453,0.000
2.586,0.000,0.000,0.027,0.000,0.000,-0.037,0.000,0.000,-4.453,0.000
2.588,0.000,0.000,0.027,0.000,0.000,-0.037,0.000,0.000,-4.453,0.000
2.590,0.001,0.000,0.027,0.000,0.000,-0.037,0.000,0.000,-4.454,0.000
2.592,0.001,0.000,0.027,0.000,0.000,-0.037,0.000,0.000,-4.454,0.000
2.606,0.001,0.000,0.026,0.000,0.000,-0.038,0.000,0.000,-4.454,0.000
2.607,0.000,0.000,0.026,0.000,0.000,-0.038,0.000,0.000,-4.454,0.000
2.609,0.001,0.000,0.026,0.000,0.000,-0.038,0.000,0.000,-4.454,0.000
2.611,0.001,0.000,0.026,0.000,0.000,-0.038,0.000,0.000,-4.454,0.000
2.612,0.000,0.000,0.026,0.000,0.000,-0.038,0.000,0.000,-4.454,0.000
2.614,0.001,0.000,0.026,0.000,0.000,-0.038,0.000,0.000,-4.454,0.000
2.616,0.001,0.000,0.026,0.000,0.000,-0.038,0.000,0.000,-4.454,0.000
2.617,0.000,0.000,0.026,0.000,0.000,-0.038,0.000,0.000,-4.454,0.000
2.631,0.000,0.000,0.025,0.000,0.000,-0.038,0.000,0.000,-4.455,0.000
2.633,0.001,0.000,0.025,0.000,0.000,-0.038,0.000,0.000,-4.455,0.000
2.635,0.001,0.000,0.025,0.000,0.000,-0.039,0.000,0.000,-4.455,0.000
2.636,0.000,0.000,0.025,0.000,0.000,-0.039,0.000,0.000,-4.455,0.000
2.638,0.001,0.000,0.025,0.000,0.000,-0.039,0.000,0.000,-4.455,0.000
2.640,0.001,0.000,0.025,0.000,0.000,-0.039,0.000,0.000,-4.455,0.000
2.641,0.000,0.000,0.025,0.000,0.000,-0.039,0.000,0.000,-4.455,0.000
2.655,0.000,0.000,0.024,0.000,0.000,-0.039,0.000,0.000,-4.455,0.000
2.657,0.001,0.000,0.024,0.000,0.000,-0.039,0.000,0.000,-4.455,0.000
2.659,0.001,0.000,0.024,0.000,0.000,-0.039,0.000,0.000,-4.455,0.000
2.660,0.000,0.000,0.024,0.000,0.000,-0.039,0.000,0.000,-4.455,0.000
2.662,0.000,0.000,0.024,0.000,0.000,-0.039,0.000,0.000,-4.455,0.000
2.664,0.001,0.000,0.024,0.000,0.000,-0.039,0.000,0.000,-4.455,0.000
2.665,0.000,0.000,0.024,0.000,0.000,-0.039,0.000,0.000,-4.455,0.000
2.667,0.001,0.000,0.024,0.000,0.000,-0.039,0.000,0.000,-4.455,0.000
2.685,0.001,0.000,0.025,0.000,0.000,-0.039,0.000,0.000,-4.456,0.000
2.686,0.000,0.000,0.025,0.000,0.000,-0.039,0.000,0.000,-4.456,0.000
2.688,0.000,0.000,0.025,0.000,0.000,-0.039,0.000,0.000,-4.456,0.000
2.690,0.001,0.000,0.025,0.000,0.000,-0.038,0.000,0.000,-4.456,0.000
2.692,0.001,0.000,0.025,0.000,0.000,-0.038,0.000,0.000,-4.456,0.000
2.693,0.000,0.000,0.025,0.000,0.000,-0.038,0.000,0.000,-4.456,0.000
2.695,0.001,0.000,0.025,0.000,0.000,-0.038,0.000,0.000,-4.456,0.000
2.709,0.001,0.000,0.025,0.000,0.000,-0.038,0.000,0.000,-4.457,0.000
2.711,0.001,0.000,0.025,0.000,0.000,-0.038,0.000,0.000,-4.457,0.000
2.712,0.000,0.000,0.025,0.000,0.000,-0.038,0.000,0.000,-4.457,0.000
2.714,0.001,0.000,0.025,0.000,0.000,-0.038,0.000,0.000,-4.457,0.000
2.716,0.001,0.000,0.025,0.000,0.000,-0.038,0.000,0.000,-4.457,0.000
2.717,0.000,0.000,0.025,0.000,0.000,-0.038,0.000,0.000,-4.457,0.000
2.719,0.001,0.000,0.025,0.000,0.000,-0.038,0.000,0.000,-4.457,0.000
2.721,0.001,0.000,0.025,0.000,0.000,-0.038,0.000,0.000,-4.457,0.000
2.735,0.001,0.000,0.025,0.000,0.000,-0.037,0.000,0.000,-4.457,0.000
2.737,0.001,0.000,0.025,0.000,0.000,-0.037,0.000,0.000,-4.457,0.000
2.738,0.000,0.000,0.025,0.000,0.000,-0.037,0.000,0.000,-4.457,0.000
2.740,0.001,0.000,0.025,0.000,0.000,-0.037,0.000,0.000,-4.457,0.000
2.742,0.001,0.000,0.025,0.000,0.000,-0.037,0.000,0.000,-4.457,0.000
2.743,0.000,0.000,0.024,0.000,0.000,-0.037,0.000,0.000,-4.457,0.000
2.745,0.001,0.000,0.024,0.000,0.000,-0.037,0.000,0.000,-4.458,0.000
2.759,0.000,0.000,0.024,0.000,0.000,-0.037,0.000,0.000,-4.458,0.000
2.761,0.001,0.000,0.024,0.000,0.000,-0.037,0.000,0.000,-4.458,0.000
2.763,0.001,0.000,0.024,0.000,0.000,-0.037,0.000,0.000,-4.458,0.000
2.764,0.000,0.000,0.024,0.000,0.000,-0.037,0.000,0.000,-4.458,0.000
2.766,0.001,0.000,0.024,0.000,0.000,-0.037,0.000,0.000,-4.458,0.000
2.768,0.001,0.000,0.024,0.000,0.000,-0.038,0.000,0.000,-4.458,0.000
2.769,0.000,0.000,0.024,0.000,0.000,-0.038,0.000,0.000,-4.458,0.000
2.783,0.000,0.000,0.023,0.000,0.000,-0.038,0.000,0.000,-4.459,0.000
2.785,0.001,0.000,0.023,0.000,0.000,-0.038,0.000,0.000,-4.459,0.000
2.787,0.001,0.000,0.023,0.000,0.000,-0.038,0.000,0.000,-4.459,0.000
2.788,0.000,0.000,0.023,0.000,0.000,-0.038,0.000,0.000,-4.459,0.000
2.790,0.000,0.000,0.023,0.000,0.000,-0.038,0.000,0.000,-4.459,0.000
2.792,0.001,0.000,0.023,0.000,0.000,-0.038,0.000,0.000,-4.459,0.000
2.794,0.001,0.000,0.023,0.000,0.000,-0.038,0.000,0.000,-4.459,0.000
2.795,0.001,0.000,0.023,0.000,0.000,-0.038,0.000,0.000,-4.460,0.000
2.809,0.000,0.000,0.023,0.000,0.000,-0.039,0.000,0.000,-4.460,0.000
2.811,0.001,0.000,0.023,0.000,0.000,-0.039,0.000,0.000,-4.460,0.000
2.813,0.001,0.000,0.023,0.000,0.000,-0.039,0.000,0.000,-4.460,0.000
2.814,0.000,0.000,0.023,0.000,0.000,-0.039,0.000,0.000,-4.461,0.000
2.816,0.001,0.000,0.023,0.000,0.000,-0.039,0.000,0.000,-4.461,0.000
2.818,0.001,0.000,0.022,0.000,0.000,-0.039,0.000,0.000,-4.461,0.000
2.819,0.000,0.000,0.022,0.000,0.000,-0.039,0.000,0.000,-4.461,0.000
2.833,0.000,0.000,0.022,0.000,0.000,-0.040,0.000,0.000,-4.461,0.000
2.835,0.001,0.000,0.022,0.000,0.000,-0.040,0.000,0.000,-4.461,0.000
2.837,0.001,0.000,0.022,0.000,0.000,-0.040,0.000,0.000,-4.461,0.000
2.838,0.000,0.000,0.022,0.000,0.000,-0.040,0.000,0.000,-4.461,0.000
2.840,0.000,0.000,0.022,0.000,0.000,-0.040,0.000,0.000,-4.461,0.000
2.842,0.001,0.000,0.022,0.000,0.000,-0.040,0.000,0.000,-4.461,0.000
2.843,0.000,0.000,0.022,0.000,0.000,-0.040,0.000,0.000,-4.461,0.000
2.845,0.001,0.000,0.022,0.000,0.000,-0.040,0.000,0.000,-4.461,0.000
2.859,0.000,0.000,0.022,0.000,0.000,-0.040,0.000,0.000,-4.462,0.000
2.861,0.001,0.000,0.022,0.000,0.000,-0.041,0.000,0.000,-4.462,0.000
2.863,0.001,0.000,0.022,0.000,0.000,-0.041,0.000,0.000,-4.462,0.000
2.864,0.000,0.000,0.022,0.000,0.000,-0.041,0.000,0.000,-4.462,0.000
2.866,0.001,0.000,0.022,0.000,0.000,-0.041,0.000,0.000,-4.462,0.000
2.868,0.001,0.000,0.022,0.000,0.000,-0.041,0.000,0.000,-4.462,0.000
2.869,0.000,0.000,0.022,0.000,0.000,-0.041,0.000,0.000,-4.462,0.000
2.884,0.001,0.000,0.022,0.000,0.000,-0.041,0.000,0.000,-4.463,0.000
2.885,0.000,0.000,0.022,0.000,0.000,-0.042,0.000,0.000,-4.463,0.000
2.887,0.001,0.000,0.022,0.000,0.000,-0.042,0.000,0.000,-4.464,0.000
2.888,0.000,0.000,0.022,0.000,0.000,-0.042,0.000,0.000,-4.464,0.000
2.890,0.000,0.000,0.022,0.000,0.000,-0.042,0.000,0.000,-4.464,0.000
2.892,0.001,0.000,0.022,0.000,0.000,-0.042,0.000,0.000,-4.464,0.000
2.894,0.001,0.000,0.022,0.000,0.000,-0.042,0.000,0.000,-4.464,0.000
2.895,0.000,0.000,0.022,0.000,0.000,-0.042,0.000,0.000,-4.464,0.000
2.909,0.000,0.000,0.022,0.000,0.000,-0.042,0.000,0.000,-4.465,0.000
2.911,0.000,0.000,0.022,0.000,0.000,-0.042,0.000,0.000,-4.465,0.000
2.913,0.001,0.000,0.022,0.000,0.000,-0.042,0.000,0.000,-4.465,0.000
2.915,0.001,0.000,0.022,0.000,0.000,-0.042,0.000,0.000,-4.465,0.000
2.916,0.000,0.000,0.022,0.000,0.000,-0.042,0.000,0.000,-4.465,0.000
2.918,0.001,0.000,0.022,0.000,0.000,-0.042,0.000,0.000,-4.465,0.000
2.919,0.000,0.000,0.022,0.000,0.000,-0.042,0.000,0.000,-4.465,0.000
2.934,0.001,0.000,0.021,0.000,0.000,-0.041,0.000,0.000,-4.466,0.000
2.935,0.000,0.000,0.021,0.000,0.000,-0.041,0.000,0.000,-4.466,0.000
2.937,0.001,0.000,0.021,0.000,0.000,-0.041,0.000,0.000,-4.466,0.000
2.939,0.001,0.000,0.020,0.000,0.000,-0.041,0.000,0.000,-4.466,0.000
2.940,0.000,0.000,0.020,0.000,0.000,-0.041,0.000,0.000,-4.466,0.000
2.942,0.000,0.000,0.020,0.000,0.000,-0.041,0.000,0.000,-4.466,0.000
2.944,0.001,0.000,0.020,0.000,0.000,-0.041,0.000,0.000,-4.466,0.000
2.958,0.001,0.000,0.019,0.000,0.000,-0.040,0.000,0.000,-4.466,0.000
2.960,0.001,0.000,0.019,0.000,0.000,-0.040,0.000,0.000,-4.466,0.000
2.962,0.001,0.000,0.019,0.000,0.000,-0.040,0.000,0.000,-4.466,0.000
2.963,0.000,0.000,0.019,0.000,0.000,-0.040,0.000,0.000,-4.466,0.000
2.965,0.001,0.000,0.019,0.000,0.000,-0.040,0.000,0.000,-4.466,0.000
2.966,0.000,0.000,0.019,0.000,0.000,-0.040,0.000,0.000,-4.466,0.000
2.968,0.000,0.000,0.019,0.000,0.000,-0.040,0.000,0.000,-4.466,0.000
2.970,0.001,0.000,0.019,0.000,0.000,-0.040,0.000,0.000,-4.466,0.000
2.984,0.001,0.000,0.019,0.000,0.000,-0.040,0.000,0.000,-4.466,0.000
2.986,0.001,0.000,0.019,0.000,0.000,-0.039,0.000,0.000,-4.466,0.000
2.987,0.000,0.000,0.019,0.000,0.000,-0.039,0.000,0.000,-4.466,0.000
2.989,0.001,0.000,0.019,0.000,0.000,-0.039,0.000,0.000,-4.466,0.000
2.991,0.001,0.000,0.019,0.000,0.000,-0.039,0.000,0.000,-4.466,0.000
2.992,0.000,0.000,0.019,0.000,0.000,-0.039,0.000,0.000,-4.466,0.000
2.994,0.001,0.000,0.019,0.000,0.000,-0.039,0.000,0.000,-4.466,0.000
3.012,0.001,0.000,0.019,0.000,0.000,-0.039,0.000,0.000,-4.466,0.000
3.013,0.000,0.000,0.019,0.000,0.000,-0.039,0.000,0.000,-4.466,0.000
3.015,0.000,0.000,0.019,0.000,0.000,-0.039,0.000,0.000,-4.466,0.000
3.017,0.001,0.000,0.019,0.000,0.000,-0.039,0.000,0.000,-4.466,0.000
3.019,0.001,0.000,0.019,0.000,0.000,-0.039,0.000,0.000,-4.466,0.000
3.020,0.000,0.000,0.019,0.000,0.000,-0.039,0.000,0.000,-4.466,0.000
3.022,0.001,0.000,0.019,0.000,0.000,-0.039,0.000,0.000,-4.466,0.000
3.023,0.000,0.000,0.019,0.000,0.000,-0.039,0.000,0.000,-4.466,0.000
3.038,0.001,0.000,0.018,0.000,0.000,-0.040,0.000,0.000,-4.466,0.000
3.040,0.001,0.000,0.018,0.000,0.000,-0.040,0.000,0.000,-4.466,0.000
3.041,0.000,0.000,0.017,0.000,0.000,-0.040,0.000,0.000,-4.466,0.000
3.043,0.001,0.000,0.017,0.000,0.000,-0.040,0.000,0.000,-4.466,0.000
3.044,0.000,0.000,0.017,0.000,0.000,-0.040,0.000,0.000,-4.466,0.000
3.046,0.000,0.000,0.017,0.000,0.000,-0.040,0.000,0.000,-4.466,0.000
3.048,0.001,0.000,0.017,0.000,0.000,-0.040,0.000,0.000,-4.466,0.000
3.065,0.001,0.000,0.016,0.000,0.000,-0.040,0.000,0.000,-4.466,0.000
3.066,0.000,0.000,0.015,0.000,0.000,-0.040,0.000,0.000,-4.466,0.000
3.068,0.000,0.000,0.015,0.000,0.000,-0.040,0.000,0.000,-4.466,0.000
3.070,0.001,0.000,0.015,0.000,0.000,-0.041,0.000,0.000,-4.466,0.000
3.072,0.001,0.000,0.015,0.000,0.000,-0.041,0.000,0.000,-4.467,0.000
3.073,0.001,0.000,0.015,0.000,0.000,-0.041,0.000,0.000,-4.467,0.000
3.075,0.001,0.000,0.015,0.000,0.000,-0.041,0.000,0.000,-4.467,0.000
3.089,0.001,0.000,0.014,0.000,0.000,-0.042,0.000,0.000,-4.467,0.000
3.091,0.001,0.000,0.014,0.000,0.000,-0.042,0.000,0.000,-4.467,0.000
3.092,0.000,0.000,0.014,0.000,0.000,-0.042,0.000,0.000,-4.467,0.000
3.094,0.001,0.000,0.014,0.000,0.000,-0.042,0.000,0.000,-4.467,0.000
3.096,0.001,0.000,0.014,0.000,0.000,-0.043,0.000,0.000,-4.468,0.000
3.097,0.000,0.000,0.014,0.000,0.000,-0.043,0.000,0.000,-4.468,0.000
3.099,0.000,0.000,0.014,0.000,0.000,-0.043,0.000,0.000,-4.468,0.000
3.101,0.001,0.000,0.014,0.000,0.000,-0.043,0.000,0.000,-4.468,0.000
3.115,0.001,0.000,0.014,0.000,0.000,-0.043,0.000,0.000,-4.468,0.000
3.116,0.000,0.000,0.014,0.000,0.000,-0.043,0.000,0.000,-4.468,0.000
3.118,0.000,0.000,0.014,0.000,0.000,-0.044,0.000,0.000,-4.469,0.000
3.120,0.001,0.000,0.014,0.000,0.000,-0.044,0.000,0.000,-4.469,0.000
3.122,0.001,0.000,0.014,0.000,0.000,-0.044,0.000,0.000,-4.469,0.000
3.123,0.000,0.000,0.014,0.000,0.000,-0.044,0.000,0.000,-4.469,0.000
3.125,0.001,0.000,0.014,0.000,0.000,-0.044,0.000,0.000,-4.469,0.000
3.139,0.001,0.000,0.014,0.000,0.000,-0.044,0.000,0.000,-4.470,0.000
3.141,0.001,0.000,0.013,0.000,0.000,-0.044,0.000,0.000,-4.470,0.000
3.143,0.001,0.000,0.013,0.000,0.000,-0.044,0.000,0.000,-4.470,0.000
3.144,0.000,0.000,0.013,0.000,0.000,-0.044,0.000,0.000,-4.470,0.000
3.146,0.001,0.000,0.013,0.000,0.000,-0.044,0.000,0.000,-4.470,0.000
3.147,0.000,0.000,0.013,0.000,0.000,-0.044,0.000,0.000,-4.470,0.000
3.149,0.000,0.000,0.013,0.000,0.000,-0.044,0.000,0.000,-4.470,0.000
3.151,0.001,0.000,0.013,0.000,0.000,-0.044,0.000,0.000,-4.470,0.000
3.165,0.001,0.000,0.013,0.000,0.000,-0.045,0.000,0.000,-4.471,0.000
3.167,0.001,0.000,0.013,0.000,0.000,-0.045,0.000,0.000,-4.471,0.000
3.169,0.001,0.000,0.013,0.000,0.000,-0.045,0.000,0.000,-4.471,0.000
3.170,0.000,0.000,0.012,0.000,0.000,-0.045,0.000,0.000,-4.471,0.000
3.172,0.001,0.000,0.012,0.000,0.000,-0.045,0.000,0.000,-4.472,0.000
3.174,0.001,0.000,0.012,0.000,0.000,-0.045,0.000,0.000,-4.472,0.000
3.175,0.000,0.000,0.012,0.000,0.000,-0.045,0.000,0.000,-4.472,0.000
3.190,0.001,0.000,0.012,0.000,0.000,-0.046,0.000,0.000,-4.473,0.000
3.191,0.001,0.000,0.012,0.000,0.000,-0.046,0.000,0.000,-4.473,0.000
3.193,0.001,0.000,0.012,0.000,0.000,-0.046,0.000,0.000,-4.473,0.000
3.194,0.000,0.000,0.012,0.000,0.000,-0.046,0.000,0.000,-4.473,0.000
3.196,0.000,0.000,0.012,0.000,0.000,-0.046,0.000,0.000,-4.474,0.000
3.198,0.001,0.000,0.012,0.000,0.000,-0.046,0.000,0.000,-4.474,0.000
3.200,0.001,0.000,0.012,0.000,0.000,-0.046,0.000,0.000,-4.474,0.000
3.201,0.000,0.000,0.012,0.000,0.000,-0.046,0.000,0.000,-4.474,0.000
3.215,0.000,0.000,0.012,0.000,0.000,-0.047,0.000,0.000,-4.475,0.000
3.217,0.000,0.000,0.012,0.000,0.000,-0.047,0.000,0.000,-4.475,0.000
3.219,0.001,0.000,0.012,0.000,0.000,-0.047,0.000,0.000,-4.475,0.000
3.221,0.001,0.000,0.012,0.000,0.000,-0.047,0.000,0.000,-4.475,0.000
3.222,0.000,0.000,0.012,0.000,0.000,-0.047,0.000,0.000,-4.475,0.000
3.224,0.001,0.000,0.012,0.000,0.000,-0.047,0.000,0.000,-4.476,0.000
3.225,0.000,0.000,0.012,0.000,0.000,-0.047,0.000,0.000,-4.476,0.000
3.240,0.001,0.000,0.013,0.000,0.000,-0.047,0.000,0.000,-4.477,0.000
3.241,0.000,0.000,0.013,0.000,0.000,-0.046,0.000,0.000,-4.477,0.000
3.243,0.001,0.000,0.013,0.000,0.000,-0.046,0.000,0.000,-4.477,0.000
3.245,0.001,0.000,0.013,0.000,0.000,-0.046,0.000,0.000,-4.477,0.000
3.246,0.000,0.000,0.013,0.000,0.000,-0.046,0.000,0.000,-4.477,0.000
3.248,0.001,0.000,0.013,0.000,0.000,-0.046,0.000,0.000,-4.477,0.000
3.250,0.001,0.000,0.013,0.000,0.000,-0.046,0.000,0.000,-4.477,0.000
3.264,0.000,0.000,0.012,0.000,0.000,-0.045,0.000,0.000,-4.478,0.000
3.266,0.001,0.000,0.012,0.000,0.000,-0.045,0.000,0.000,-4.478,0.000
3.268,0.001,0.000,0.012,0.000,0.000,-0.045,0.000,0.000,-4.478,0.000
3.269,0.001,0.000,0.012,0.000,0.000,-0.045,0.000,0.000,-4.478,0.000
3.271,0.001,0.000,0.012,0.000,0.000,-0.045,0.000,0.000,-4.478,0.000
3.272,0.000,0.000,0.012,0.000,0.000,-0.045,0.000,0.000,-4.478,0.000
3.274,0.000,0.000,0.012,0.000,0.000,-0.045,0.000,0.000,-4.478,0.000
3.276,0.001,0.000,0.012,0.000,0.000,-0.045,0.000,0.000,-4.478,0.000
