timestamp_s,dt_s,pitch_setpoint,pitch_measurement,pitch_control,roll_setpoint,roll_measurement,roll_control,yaw_setpoint,yaw_measurement,yaw_control
0.122,0.122,0.000,0.049,0.000,0.000,0.013,0.000,0.000,-3.972,0.000
0.124,0.001,0.000,0.047,0.000,0.000,0.014,0.000,0.000,-3.974,0.000
0.126,0.001,0.000,0.047,0.000,0.000,0.014,0.000,0.000,-3.974,0.000
0.128,0.001,0.000,0.047,0.000,0.000,0.014,0.000,0.000,-3.974,0.000
0.130,0.001,0.000,0.047,0.000,0.000,0.014,0.000,0.000,-3.974,0.000
0.131,0.000,0.000,0.047,0.000,0.000,0.014,0.000,0.000,-3.974,0.000
0.146,0.001,0.000,0.047,0.000,0.000,0.014,0.000,0.000,-3.974,0.000
0.147,0.000,0.000,0.047,0.000,0.000,0.014,0.000,0.000,-3.974,0.000
0.149,0.001,0.000,0.047,0.000,0.000,0.014,0.000,0.000,-3.974,0.000
0.151,0.001,0.000,0.047,0.000,0.000,0.014,0.000,0.000,-3.974,0.000
0.153,0.001,0.000,0.047,0.000,0.000,0.014,0.000,0.000,-3.974,0.000
0.154,0.001,0.000,0.047,0.000,0.000,0.014,0.000,0.000,-3.974,0.000
0.156,0.001,0.000,0.047,0.000,0.000,0.014,0.000,0.000,-3.974,0.000
0.157,0.000,0.000,0.047,0.000,0.000,0.014,0.000,0.000,-3.974,0.000
0.172,0.001,0.000,0.047,0.000,0.000,0.014,0.000,0.000,-3.974,0.000
0.173,0.000,0.000,0.047,0.000,0.000,0.014,0.000,0.000,-3.974,0.000
0.175,0.000,0.000,0.047,0.000,0.000,0.014,0.000,0.000,-3.974,0.000
0.177,0.001,0.000,0.047,0.000,0.000,0.014,0.000,0.000,-3.974,0.000
0.178,0.000,0.000,0.047,0.000,0.000,0.014,0.000,0.000,-3.974,0.000
0.180,0.000,0.000,0.047,0.000,0.000,0.014,0.000,0.000,-3.974,0.000
0.182,0.001,0.000,0.047,0.000,0.000,0.014,0.000,0.000,-3.974,0.000
0.196,0.001,0.000,0.047,0.000,0.000,0.014,0.000,0.000,-3.973,0.000
0.198,0.001,0.000,0.047,0.000,0.000,0.014,0.000,0.000,-3.973,0.000
0.199,0.000,0.000,0.047,0.000,0.000,0.014,0.000,0.000,-3.973,0.000
0.201,0.001,0.000,0.047,0.000,0.000,0.014,0.000,0.000,-3.973,0.000
0.203,0.001,0.000,0.047,0.000,0.000,0.013,0.000,0.000,-3.973,0.000
0.204,0.000,0.000,0.047,0.000,0.000,0.013,0.000,0.000,-3.973,0.000
0.206,0.001,0.000,0.047,0.000,0.000,0.013,0.000,0.000,-3.973,0.000
0.207,0.000,0.000,0.047,0.000,0.000,0.013,0.000,0.000,-3.973,0.000
0.222,0.001,0.000,0.047,0.000,0.000,0.013,0.000,0.000,-3.974,0.000
0.223,0.000,0.000,0.047,0.000,0.000,0.013,0.000,0.000,-3.974,0.000
0.225,0.001,0.000,0.047,0.000,0.000,0.013,0.000,0.000,-3.974,0.000
0.227,0.001,0.000,0.047,0.000,0.000,0.013,0.000,0.000,-3.974,0.000
0.228,0.000,0.000,0.047,0.000,0.000,0.013,0.000,0.000,-3.974,0.000
0.230,0.001,0.000,0.047,0.000,0.000,0.013,0.000,0.000,-3.974,0.000
0.232,0.001,0.000,0.047,0.000,0.000,0.013,0.000,0.000,-3.974,0.000
0.246,0.001,0.000,0.047,0.000,0.000,0.013,0.000,0.000,-3.974,0.000
0.248,0.001,0.000,0.047,0.000,0.000,0.013,0.000,0.000,-3.974,0.000
0.249,0.000,0.000,0.047,0.000,0.000,0.013,0.000,0.000,-3.974,0.000
0.251,0.001,0.000,0.047,0.000,0.000,0.013,0.000,0.000,-3.974,0.000
0.253,0.001,0.000,0.047,0.000,0.000,0.013,0.000,0.000,-3.975,0.000
0.254,0.001,0.000,0.047,0.000,0.000,0.013,0.000,0.000,-3.975,0.000
0.256,0.001,0.000,0.047,0.000,0.000,0.013,0.000,0.000,-3.975,0.000
0.257,0.000,0.000,0.047,0.000,0.000,0.013,0.000,0.000,-3.975,0.000
0.272,0.001,0.000,0.048,0.000,0.000,0.013,0.000,0.000,-3.975,0.000
0.273,0.000,0.000,0.048,0.000,0.000,0.013,0.000,0.000,-3.975,0.000
0.275,0.001,0.000,0.048,0.000,0.000,0.013,0.000,0.000,-3.975,0.000
0.277,0.001,0.000,0.048,0.000,0.000,0.013,0.000,0.000,-3.975,0.000
0.278,0.000,0.000,0.048,0.000,0.000,0.013,0.000,0.000,-3.975,0.000
0.280,0.001,0.000,0.048,0.000,0.000,0.013,0.000,0.000,-3.975,0.000
0.282,0.001,0.000,0.048,0.000,0.000,0.013,0.000,0.000,-3.975,0.000
0.296,0.001,0.000,0.048,0.000,0.000,0.013,0.000,0.000,-3.976,0.000
0.297,0.000,0.000,0.048,0.000,0.000,0.013,0.000,0.000,-3.976,0.000
0.299,0.000,0.000,0.049,0.000,0.000,0.013,0.000,0.000,-3.976,0.000
0.301,0.001,0.000,0.049,0.000,0.000,0.013,0.000,0.000,-3.976,0.000
0.302,0.000,0.000,0.049,0.000,0.000,0.013,0.000,0.000,-3.976,0.000
0.304,0.001,0.000,0.049,0.000,0.000,0.013,0.000,0.000,-3.976,0.000
0.306,0.001,0.000,0.049,0.000,0.000,0.013,0.000,0.000,-3.976,0.000
0.307,0.000,0.000,0.049,0.000,0.000,0.013,0.000,0.000,-3.976,0.000
0.323,0.000,0.000,0.049,0.000,0.000,0.012,0.000,0.000,-3.977,0.000
0.325,0.001,0.000,0.049,0.000,0.000,0.012,0.000,0.000,-3.977,0.000
0.327,0.001,0.000,0.049,0.000,0.000,0.012,0.000,0.000,-3.977,0.000
0.328,0.000,0.000,0.049,0.000,0.000,0.012,0.000,0.000,-3.977,0.000
0.330,0.001,0.000,0.049,0.000,0.000,0.012,0.000,0.000,-3.977,0.000
0.332,0.001,0.000,0.049,0.000,0.000,0.012,0.000,0.000,-3.977,0.000
0.333,0.000,0.000,0.049,0.000,0.000,0.012,0.000,0.000,-3.977,0.000
0.351,0.001,0.000,0.050,0.000,0.000,0.011,0.000,0.000,-3.978,0.000
0.352,0.000,0.000,0.050,0.000,0.000,0.011,0.000,0.000,-3.978,0.000
0.354,0.001,0.000,0.050,0.000,0.000,0.011,0.000,0.000,-3.978,0.000
0.356,0.001,0.000,0.050,0.000,0.000,0.011,0.000,0.000,-3.978,0.000
0.357,0.000,0.000,0.050,0.000,0.000,0.011,0.000,0.000,-3.978,0.000
0.359,0.001,0.000,0.050,0.000,0.000,0.011,0.000,0.000,-3.978,0.000
0.361,0.001,0.000,0.050,0.000,0.000,0.011,0.000,0.000,-3.978,0.000
0.362,0.000,0.000,0.050,0.000,0.000,0.011,0.000,0.000,-3.978,0.000
0.376,0.000,0.000,0.051,0.000,0.000,0.011,0.000,0.000,-3.978,0.000
0.378,0.001,0.000,0.051,0.000,0.000,0.011,0.000,0.000,-3.978,0.000
0.380,0.001,0.000,0.051,0.000,0.000,0.011,0.000,0.000,-3.978,0.000
0.381,0.001,0.000,0.051,0.000,0.000,0.011,0.000,0.000,-3.978,0.000
0.383,0.001,0.000,0.051,0.000,0.000,0.011,0.000,0.000,-3.978,0.000
0.384,0.000,0.000,0.051,0.000,0.000,0.011,0.000,0.000,-3.978,0.000
0.386,0.001,0.000,0.051,0.000,0.000,0.011,0.000,0.000,-3.978,0.000
0.400,0.000,0.000,0.052,0.000,0.000,0.011,0.000,0.000,-3.979,0.000
0.402,0.001,0.000,0.052,0.000,0.000,0.011,0.000,0.000,-3.979,0.000
0.404,0.001,0.000,0.052,0.000,0.000,0.011,0.000,0.000,-3.979,0.000
0.405,0.001,0.000,0.052,0.000,0.000,0.011,0.000,0.000,-3.979,0.000
0.407,0.001,0.000,0.052,0.000,0.000,0.011,0.000,0.000,-3.979,0.000
0.408,0.000,0.000,0.052,0.000,0.000,0.011,0.000,0.000,-3.979,0.000
0.410,0.001,0.000,0.053,0.000,0.000,0.011,0.000,0.000,-3.979,0.000
0.412,0.001,0.000,0.053,0.000,0.000,0.011,0.000,0.000,-3.979,0.000
0.426,0.001,0.000,0.053,0.000,0.000,0.011,0.000,0.000,-3.980,0.000
0.427,0.000,0.000,0.053,0.000,0.000,0.011,0.000,0.000,-3.980,0.000
0.429,0.001,0.000,0.053,0.000,0.000,0.011,0.000,0.000,-3.980,0.000
0.431,0.001,0.000,0.053,0.000,0.000,0.011,0.000,0.000,-3.980,0.000
0.432,0.000,0.000,0.053,0.000,0.000,0.011,0.000,0.000,-3.980,0.000
0.434,0.001,0.000,0.053,0.000,0.000,0.011,0.000,0.000,-3.980,0.000
0.436,0.001,0.000,0.053,0.000,0.000,0.011,0.000,0.000,-3.980,0.000
0.450,0.001,0.000,0.053,0.000,0.000,0.011,0.000,0.000,-3.981,0.000
0.451,0.000,0.000,0.053,0.000,0.000,0.011,0.000,0.000,-3.981,0.000
0.453,0.000,0.000,0.054,0.000,0.000,0.011,0.000,0.000,-3.981,0.000
0.455,0.001,0.000,0.054,0.000,0.000,0.011,0.000,0.000,-3.981,0.000
0.456,0.000,0.000,0.054,0.000,0.000,0.011,0.000,0.000,-3.981,0.000
0.458,0.001,0.000,0.054,0.000,0.000,0.011,0.000,0.000,-3.981,0.000
0.460,0.001,0.000,0.054,0.000,0.000,0.011,0.000,0.000,-3.981,0.000
0.461,0.000,0.000,0.054,0.000,0.000,0.011,0.000,0.000,-3.981,0.000
0.476,0.001,0.000,0.054,0.000,0.000,0.012,0.000,0.000,-3.982,0.000
0.477,0.001,0.000,0.054,0.000,0.000,0.012,0.000,0.000,-3.982,0.000
0.479,0.001,0.000,0.054,0.000,0.000,0.012,0.000,0.000,-3.982,0.000
0.480,0.000,0.000,0.054,0.000,0.000,0.012,0.000,0.000,-3.982,0.000
0.482,0.001,0.000,0.054,0.000,0.000,0.012,0.000,0.000,-3.982,0.000
0.484,0.001,0.000,0.054,0.000,0.000,0.012,0.000,0.000,-3.982,0.000
0.485,0.000,0.000,0.054,0.000,0.000,0.012,0.000,0.000,-3.982,0.000
0.487,0.001,0.000,0.054,0.000,0.000,0.012,0.000,0.000,-3.982,0.000
0.499,0.001,0.000,0.054,0.000,0.000,0.012,0.000,0.000,-3.982,0.000
0.501,0.001,0.000,0.054,0.000,0.000,0.012,0.000,0.000,-3.982,0.000
0.502,0.000,0.000,0.054,0.000,0.000,0.012,0.000,0.000,-3.983,0.000
0.504,0.001,0.000,0.054,0.000,0.000,0.013,0.000,0.000,-3.983,0.000
0.505,0.000,0.000,0.054,0.000,0.000,0.013,0.000,0.000,-3.983,0.000
0.507,0.000,0.000,0.054,0.000,0.000,0.013,0.000,0.000,-3.983,0.000
0.509,0.001,0.000,0.054,0.000,0.000,0.013,0.000,0.000,-3.983,0.000
0.523,0.001,0.000,0.054,0.000,0.000,0.013,0.000,0.000,-3.983,0.000
0.524,0.000,0.000,0.054,0.000,0.000,0.013,0.000,0.000,-3.983,0.000
0.526,0.000,0.000,0.054,0.000,0.000,0.013,0.000,0.000,-3.983,0.000
0.528,0.001,0.000,0.054,0.000,0.000,0.013,0.000,0.000,-3.983,0.000
0.530,0.001,0.000,0.054,0.000,0.000,0.013,0.000,0.000,-3.983,0.000
0.531,0.001,0.000,0.054,0.000,0.000,0.013,0.000,0.000,-3.983,0.000
0.533,0.001,0.000,0.054,0.000,0.000,0.013,0.000,0.000,-3.983,0.000
0.534,0.000,0.000,0.054,0.000,0.000,0.013,0.000,0.000,-3.984,0.000
0.549,0.001,0.000,0.053,0.000,0.000,0.013,0.000,0.000,-3.984,0.000
0.550,0.000,0.000,0.053,0.000,0.000,0.013,0.000,0.000,-3.984,0.000
0.552,0.001,0.000,0.053,0.000,0.000,0.013,0.000,0.000,-3.984,0.000
0.554,0.001,0.000,0.053,0.000,0.000,0.013,0.000,0.000,-3.984,0.000
0.555,0.001,0.000,0.053,0.000,0.000,0.013,0.000,0.000,-3.984,0.000
0.557,0.001,0.000,0.053,0.000,0.000,0.013,0.000,0.000,-3.984,0.000
0.558,0.000,0.000,0.053,0.000,0.000,0.013,0.000,0.000,-3.984,0.000
0.573,0.001,0.000,0.054,0.000,0.000,0.013,0.000,0.000,-3.985,0.000
0.574,0.000,0.000,0.054,0.000,0.000,0.013,0.000,0.000,-3.985,0.000
0.576,0.001,0.000,0.054,0.000,0.000,0.013,0.000,0.000,-3.985,0.000
0.577,0.000,0.000,0.054,0.000,0.000,0.013,0.000,0.000,-3.985,0.000
0.579,0.001,0.000,0.054,0.000,0.000,0.013,0.000,0.000,-3.985,0.000
0.581,0.001,0.000,0.054,0.000,0.000,0.013,0.000,0.000,-3.985,0.000
0.582,0.000,0.000,0.054,0.000,0.000,0.013,0.000,0.000,-3.985,0.000
0.584,0.001,0.000,0.054,0.000,0.000,0.013,0.000,0.000,-3.985,0.000
0.598,0.001,0.000,0.053,0.000,0.000,0.014,0.000,0.000,-3.985,0.000
0.600,0.001,0.000,0.053,0.000,0.000,0.014,0.000,0.000,-3.985,0.000
0.601,0.000,0.000,0.053,0.000,0.000,0.014,0.000,0.000,-3.985,0.000
0.603,0.000,0.000,0.053,0.000,0.000,0.014,0.000,0.000,-3.985,0.000
0.605,0.001,0.000,0.053,0.000,0.000,0.014,0.000,0.000,-3.985,0.000
0.606,0.000,0.000,0.053,0.000,0.000,0.014,0.000,0.000,-3.986,0.000
0.608,0.001,0.000,0.053,0.000,0.000,0.014,0.000,0.000,-3.986,0.000
0.622,0.000,0.000,0.053,0.000,0.000,0.014,0.000,0.000,-3.986,0.000
0.624,0.001,0.000,0.053,0.000,0.000,0.014,0.000,0.000,-3.986,0.000
0.626,0.001,0.000,0.053,0.000,0.000,0.014,0.000,0.000,-3.986,0.000
0.627,0.001,0.000,0.053,0.000,0.000,0.014,0.000,0.000,-3.986,0.000
0.629,0.001,0.000,0.053,0.000,0.000,0.014,0.000,0.000,-3.986,0.000
0.630,0.000,0.000,0.053,0.000,0.000,0.014,0.000,0.000,-3.986,0.000
0.632,0.001,0.000,0.053,0.000,0.000,0.014,0.000,0.000,-3.986,0.000
0.634,0.001,0.000,0.053,0.000,0.000,0.014,0.000,0.000,-3.986,0.000
0.648,0.001,0.000,0.053,0.000,0.000,0.014,0.000,0.000,-3.986,0.000
0.649,0.000,0.000,0.053,0.000,0.000,0.014,0.000,0.000,-3.986,0.000
0.651,0.000,0.000,0.053,0.000,0.000,0.014,0.000,0.000,-3.986,0.000
0.653,0.001,0.000,0.053,0.000,0.000,0.014,0.000,0.000,-3.986,0.000
0.654,0.000,0.000,0.053,0.000,0.000,0.014,0.000,0.000,-3.986,0.000
0.656,0.000,0.000,0.053,0.000,0.000,0.014,0.000,0.000,-3.986,0.000
0.658,0.001,0.000,0.053,0.000,0.000,0.014,0.000,0.000,-3.986,0.000
0.676,0.001,0.000,0.053,0.000,0.000,0.015,0.000,0.000,-3.987,0.000
0.677,0.000,0.000,0.053,0.000,0.000,0.015,0.000,0.000,-3.987,0.000
0.679,0.001,0.000,0.053,0.000,0.000,0.015,0.000,0.000,-3.987,0.000
0.680,0.000,0.000,0.053,0.000,0.000,0.015,0.000,0.000,-3.987,0.000
0.682,0.000,0.000,0.053,0.000,0.000,0.015,0.000,0.000,-3.987,0.000
0.684,0.001,0.000,0.053,0.000,0.000,0.015,0.000,0.000,-3.987,0.000
0.685,0.000,0.000,0.053,0.000,0.000,0.015,0.000,0.000,-3.987,0.000
0.687,0.001,0.000,0.053,0.000,0.000,0.015,0.000,0.000,-3.987,0.000
0.701,0.000,0.000,0.053,0.000,0.000,0.015,0.000,0.000,-3.987,0.000
0.703,0.001,0.000,0.053,0.000,0.000,0.015,0.000,0.000,-3.987,0.000
0.705,0.001,0.000,0.053,0.000,0.000,0.015,0.000,0.000,-3.987,0.000
0.706,0.000,0.000,0.053,0.000,0.000,0.015,0.000,0.000,-3.987,0.000
0.708,0.001,0.000,0.054,0.000,0.000,0.015,0.000,0.000,-3.987,0.000
0.710,0.001,0.000,0.054,0.000,0.000,0.015,0.000,0.000,-3.987,0.000
0.711,0.000,0.000,0.054,0.000,0.000,0.015,0.000,0.000,-3.987,0.000
0.726,0.001,0.000,0.054,0.000,0.000,0.015,0.000,0.000,-3.986,0.000
0.727,0.000,0.000,0.054,0.000,0.000,0.015,0.000,0.000,-3.986,0.000
0.729,0.001,0.000,0.054,0.000,0.000,0.015,0.000,0.000,-3.986,0.000
0.731,0.001,0.000,0.054,0.000,0.000,0.015,0.000,0.000,-3.986,0.000
0.732,0.000,0.000,0.054,0.000,0.000,0.016,0.000,0.000,-3.986,0.000
0.734,0.001,0.000,0.054,0.000,0.000,0.016,0.000,0.000,-3.986,0.000
0.736,0.001,0.000,0.054,0.000,0.000,0.016,0.000,0.000,-3.986,0.000
0.737,0.000,0.000,0.054,0.000,0.000,0.016,0.000,0.000,-3.986,0.000
0.787,0.000,0.000,0.054,0.000,0.000,0.016,0.000,0.000,-3.984,0.000
0.789,0.001,0.000,0.054,0.000,0.000,0.016,0.000,0.000,-3.984,0.000
0.791,0.001,0.000,0.054,0.000,0.000,0.016,0.000,0.000,-3.984,0.000
0.792,0.000,0.000,0.054,0.000,0.000,0.016,0.000,0.000,-3.983,0.000
0.794,0.001,0.000,0.054,0.000,0.000,0.016,0.000,0.000,-3.983,0.000
0.796,0.001,0.000,0.054,0.000,0.000,0.016,0.000,0.000,-3.983,0.000
0.797,0.000,0.000,0.054,0.000,0.000,0.016,0.000,0.000,-3.983,0.000
0.802,0.001,0.000,0.054,0.000,0.000,0.016,0.000,0.000,-3.983,0.000
0.803,0.000,0.000,0.054,0.000,0.000,0.016,0.000,0.000,-3.983,0.000
0.805,0.001,0.000,0.054,0.000,0.000,0.016,0.000,0.000,-3.983,0.000
0.807,0.001,0.000,0.054,0.000,0.000,0.017,0.000,0.000,-3.983,0.000
0.808,0.000,0.000,0.054,0.000,0.000,0.017,0.000,0.000,-3.983,0.000
0.810,0.001,0.000,0.054,0.000,0.000,0.017,0.000,0.000,-3.983,0.000
0.812,0.001,0.000,0.054,0.000,0.000,0.017,0.000,0.000,-3.982,0.000
0.813,0.001,0.000,0.054,0.000,0.000,0.017,0.000,0.000,-3.982,0.000
0.817,0.000,0.000,0.054,0.000,0.000,0.017,0.000,0.000,-3.982,0.000
0.819,0.001,0.000,0.053,0.000,0.000,0.017,0.000,0.000,-3.982,0.000
0.821,0.001,0.000,0.053,0.000,0.000,0.017,0.000,0.000,-3.982,0.000
0.822,0.000,0.000,0.053,0.000,0.000,0.017,0.000,0.000,-3.982,0.000
0.824,0.001,0.000,0.053,0.000,0.000,0.017,0.000,0.000,-3.982,0.000
0.826,0.001,0.000,0.053,0.000,0.000,0.017,0.000,0.000,-3.982,0.000
0.827,0.000,0.000,0.053,0.000,0.000,0.017,0.000,0.000,-3.982,0.000
0.832,0.001,0.000,0.053,0.000,0.000,0.017,0.000,0.000,-3.982,0.000
0.833,0.000,0.000,0.053,0.000,0.000,0.017,0.000,0.000,-3.982,0.000
0.835,0.001,0.000,0.053,0.000,0.000,0.017,0.000,0.000,-3.982,0.000
0.837,0.001,0.000,0.053,0.000,0.000,0.017,0.000,0.000,-3.982,0.000
0.838,0.000,0.000,0.053,0.000,0.000,0.017,0.000,0.000,-3.982,0.000
0.840,0.001,0.000,0.053,0.000,0.000,0.017,0.000,0.000,-3.982,0.000
0.842,0.001,0.000,0.053,0.000,0.000,0.017,0.000,0.000,-3.982,0.000
0.843,0.000,0.000,0.053,0.000,0.000,0.017,0.000,0.000,-3.982,0.000
0.848,0.001,0.000,0.052,0.000,0.000,0.017,0.000,0.000,-3.982,0.000
0.849,0.000,0.000,0.052,0.000,0.000,0.017,0.000,0.000,-3.982,0.000
0.851,0.001,0.000,0.052,0.000,0.000,0.017,0.000,0.000,-3.982,0.000
0.852,0.000,0.000,0.052,0.000,0.000,0.017,0.000,0.000,-3.982,0.000
0.854,0.001,0.000,0.052,0.000,0.000,0.017,0.000,0.000,-3.982,0.000
0.856,0.001,0.000,0.052,0.000,0.000,0.017,0.000,0.000,-3.982,0.000
0.857,0.000,0.000,0.052,0.000,0.000,0.017,0.000,0.000,-3.982,0.000
0.862,0.001,0.000,0.052,0.000,0.000,0.018,0.000,0.000,-3.982,0.000
0.863,0.000,0.000,0.052,0.000,0.000,0.018,0.000,0.000,-3.982,0.000
0.865,0.001,0.000,0.051,0.000,0.000,0.018,0.000,0.000,-3.982,0.000
0.867,0.001,0.000,0.051,0.000,0.000,0.018,0.000,0.000,-3.982,0.000
0.868,0.000,0.000,0.051,0.000,0.000,0.018,0.000,0.000,-3.983,0.000
0.870,0.001,0.000,0.051,0.000,0.000,0.018,0.000,0.000,-3.983,0.000
0.872,0.001,0.000,0.051,0.000,0.000,0.018,0.000,0.000,-3.983,0.000
0.873,0.000,0.000,0.051,0.000,0.000,0.018,0.000,0.000,-3.983,0.000
0.878,0.001,0.000,0.051,0.000,0.000,0.019,0.000,0.000,-3.983,0.000
0.879,0.000,0.000,0.051,0.000,0.000,0.019,0.000,0.000,-3.983,0.000
0.881,0.001,0.000,0.051,0.000,0.000,0.019,0.000,0.000,-3.983,0.000
0.883,0.001,0.000,0.051,0.000,0.000,0.019,0.000,0.000,-3.983,0.000
0.884,0.000,0.000,0.050,0.000,0.000,0.019,0.000,0.000,-3.983,0.000
0.886,0.001,0.000,0.050,0.000,0.000,0.019,0.000,0.000,-3.983,0.000
0.888,0.001,0.000,0.050,0.000,0.000,0.019,0.000,0.000,-3.983,0.000
0.889,0.000,0.000,0.050,0.000,0.000,0.019,0.000,0.000,-3.983,0.000
0.894,0.001,0.000,0.050,0.000,0.000,0.019,0.000,0.000,-3.983,0.000
0.895,0.000,0.000,0.050,0.000,0.000,0.019,0.000,0.000,-3.983,0.000
0.897,0.001,0.000,0.050,0.000,0.000,0.020,0.000,0.000,-3.983,0.000
0.899,0.001,0.000,0.050,0.000,0.000,0.020,0.000,0.000,-3.983,0.000
0.900,0.000,0.000,0.050,0.000,0.000,0.020,0.000,0.000,-3.983,0.000
0.902,0.001,0.000,0.050,0.000,0.000,0.020,0.000,0.000,-3.983,0.000
0.904,0.001,0.000,0.050,0.000,0.000,0.020,0.000,0.000,-3.983,0.000
0.908,0.001,0.000,0.050,0.000,0.000,0.020,0.000,0.000,-3.983,0.000
0.910,0.001,0.000,0.050,0.000,0.000,0.020,0.000,0.000,-3.983,0.000
0.911,0.000,0.000,0.050,0.000,0.000,0.020,0.000,0.000,-3.983,0.000
0.913,0.001,0.000,0.050,0.000,0.000,0.020,0.000,0.000,-3.983,0.000
0.915,0.001,0.000,0.050,0.000,0.000,0.020,0.000,0.000,-3.984,0.000
0.916,0.000,0.000,0.050,0.000,0.000,0.020,0.000,0.000,-3.984,0.000
0.918,0.001,0.000,0.050,0.000,0.000,0.020,0.000,0.000,-3.984,0.000
0.919,0.000,0.000,0.050,0.000,0.000,0.020,0.000,0.000,-3.984,0.000
0.924,0.001,0.000,0.050,0.000,0.000,0.020,0.000,0.000,-3.984,0.000
0.926,0.001,0.000,0.050,0.000,0.000,0.020,0.000,0.000,-3.984,0.000
0.927,0.000,0.000,0.050,0.000,0.000,0.020,0.000,0.000,-3.984,0.000
0.929,0.001,0.000,0.050,0.000,0.000,0.020,0.000,0.000,-3.984,0.000
0.930,0.000,0.000,0.049,0.000,0.000,0.020,0.000,0.000,-3.984,0.000
0.932,0.000,0.000,0.049,0.000,0.000,0.020,0.000,0.000,-3.984,0.000
0.934,0.001,0.000,0.049,0.000,0.000,0.020,0.000,0.000,-3.984,0.000
0.938,0.000,0.000,0.049,0.000,0.000,0.020,0.000,0.000,-3.984,0.000
0.940,0.001,0.000,0.049,0.000,0.000,0.020,0.000,0.000,-3.984,0.000
0.942,0.001,0.000,0.049,0.000,0.000,0.020,0.000,0.000,-3.984,0.000
0.943,0.001,0.000,0.049,0.000,0.000,0.020,0.000,0.000,-3.984,0.000
0.945,0.001,0.000,0.049,0.000,0.000,0.021,0.000,0.000,-3.985,0.000
0.946,0.000,0.000,0.049,0.000,0.000,0.021,0.000,0.000,-3.985,0.000
0.948,0.001,0.000,0.049,0.000,0.000,0.021,0.000,0.000,-3.985,0.000
0.950,0.001,0.000,0.049,0.000,0.000,0.021,0.000,0.000,-3.985,0.000
0.954,0.001,0.000,0.049,0.000,0.000,0.021,0.000,0.000,-3.985,0.000
0.956,0.001,0.000,0.049,0.000,0.000,0.021,0.000,0.000,-3.985,0.000
0.957,0.000,0.000,0.049,0.000,0.000,0.020,0.000,0.000,-3.985,0.000
0.959,0.000,0.000,0.049,0.000,0.000,0.020,0.000,0.000,-3.985,0.000
0.961,0.001,0.000,0.049,0.000,0.000,0.020,0.000,0.000,-3.985,0.000
0.962,0.000,0.000,0.049,0.000,0.000,0.020,0.000,0.000,-3.985,0.000
0.964,0.001,0.000,0.049,0.000,0.000,0.020,0.000,0.000,-3.985,0.000
0.968,0.000,0.000,0.049,0.000,0.000,0.020,0.000,0.000,-3.985,0.000
0.970,0.001,0.000,0.049,0.000,0.000,0.020,0.000,0.000,-3.985,0.000
0.972,0.001,0.000,0.049,0.000,0.000,0.020,0.000,0.000,-3.985,0.000
0.973,0.000,0.000,0.049,0.000,0.000,0.020,0.000,0.000,-3.985,0.000
0.975,0.001,0.000,0.049,0.000,0.000,0.020,0.000,0.000,-3.985,0.000
0.977,0.001,0.000,0.049,0.000,0.000,0.020,0.000,0.000,-3.985,0.000
0.978,0.000,0.000,0.049,0.000,0.000,0.020,0.000,0.000,-3.985,0.000
0.980,0.001,0.000,0.049,0.000,0.000,0.020,0.000,0.000,-3.985,0.000
0.984,0.000,0.000,0.049,0.000,0.000,0.020,0.000,0.000,-3.986,0.000
0.986,0.001,0.000,0.049,0.000,0.000,0.020,0.000,0.000,-3.986,0.000
0.988,0.001,0.000,0.049,0.000,0.000,0.020,0.000,0.000,-3.986,0.000
0.989,0.000,0.000,0.049,0.000,0.000,0.020,0.000,0.000,-3.986,0.000
0.991,0.001,0.000,0.049,0.000,0.000,0.020,0.000,0.000,-3.986,0.000
0.993,0.001,0.000,0.049,0.000,0.000,0.020,0.000,0.000,-3.986,0.000
0.994,0.000,0.000,0.049,0.000,0.000,0.019,0.000,0.000,-3.986,0.000
0.999,0.001,0.000,0.049,0.000,0.000,0.019,0.000,0.000,-3.986,0.000
1.000,0.000,0.000,0.049,0.000,0.000,0.019,0.000,0.000,-3.986,0.000
1.002,0.001,0.000,0.049,0.000,0.000,0.019,0.000,0.000,-3.986,0.000
1.004,0.001,0.000,0.049,0.000,0.000,0.019,0.000,0.000,-3.986,0.000
1.005,0.000,0.000,0.049,0.000,0.000,0.019,0.000,0.000,-3.986,0.000
1.007,0.001,0.000,0.049,0.000,0.000,0.019,0.000,0.000,-3.987,0.000
1.009,0.001,0.000,0.049,0.000,0.000,0.019,0.000,0.000,-3.987,0.000
1.010,0.000,0.000,0.049,0.000,0.000,0.019,0.000,0.000,-3.987,0.000
1.015,0.001,0.000,0.049,0.000,0.000,0.019,0.000,0.000,-3.987,0.000
1.016,0.000,0.000,0.049,0.000,0.000,0.019,0.000,0.000,-3.987,0.000
1.018,0.001,0.000,0.049,0.000,0.000,0.019,0.000,0.000,-3.987,0.000
1.020,0.001,0.000,0.050,0.000,0.000,0.019,0.000,0.000,-3.987,0.000
1.021,0.000,0.000,0.050,0.000,0.000,0.019,0.000,0.000,-3.987,0.000
1.023,0.001,0.000,0.050,0.000,0.000,0.019,0.000,0.000,-3.987,0.000
1.025,0.001,0.000,0.050,0.000,0.000,0.019,0.000,0.000,-3.987,0.000
1.029,0.000,0.000,0.050,0.000,0.000,0.019,0.000,0.000,-3.987,0.000
1.031,0.001,0.000,0.050,0.000,0.000,0.019,0.000,0.000,-3.987,0.000
1.032,0.000,0.000,0.050,0.000,0.000,0.019,0.000,0.000,-3.987,0.000
1.034,0.001,0.000,0.050,0.000,0.000,0.019,0.000,0.000,-3.987,0.000
1.036,0.001,0.000,0.050,0.000,0.000,0.019,0.000,0.000,-3.987,0.000
1.037,0.000,0.000,0.050,0.000,0.000,0.019,0.000,0.000,-3.987,0.000
1.039,0.001,0.000,0.050,0.000,0.000,0.019,0.000,0.000,-3.987,0.000
1.041,0.001,0.000,0.050,0.000,0.000,0.019,0.000,0.000,-3.987,0.000
1.045,0.000,0.000,0.050,0.000,0.000,0.019,0.000,0.000,-3.988,0.000
1.047,0.001,0.000,0.050,0.000,0.000,0.019,0.000,0.000,-3.988,0.000
1.048,0.000,0.000,0.050,0.000,0.000,0.019,0.000,0.000,-3.988,0.000
1.050,0.001,0.000,0.050,0.000,0.000,0.019,0.000,0.000,-3.988,0.000
1.052,0.001,0.000,0.050,0.000,0.000,0.019,0.000,0.000,-3.988,0.000
1.053,0.000,0.000,0.050,0.000,0.000,0.019,0.000,0.000,-3.988,0.000
1.055,0.001,0.000,0.050,0.000,0.000,0.019,0.000,0.000,-3.988,0.000
1.060,0.001,0.000,0.050,0.000,0.000,0.019,0.000,0.000,-3.988,0.000
1.061,0.000,0.000,0.050,0.000,0.000,0.019,0.000,0.000,-3.989,0.000
1.063,0.001,0.000,0.050,0.000,0.000,0.019,0.000,0.000,-3.989,0.000
1.064,0.000,0.000,0.050,0.000,0.000,0.019,0.000,0.000,-3.989,0.000
1.066,0.000,0.000,0.050,0.000,0.000,0.019,0.000,0.000,-3.989,0.000
1.068,0.001,0.000,0.050,0.000,0.000,0.019,0.000,0.000,-3.989,0.000
1.069,0.000,0.000,0.050,0.000,0.000,0.019,0.000,0.000,-3.989,0.000
1.071,0.001,0.000,0.050,0.000,0.000,0.019,0.000,0.000,-3.989,0.000
1.076,0.001,0.000,0.050,0.000,0.000,0.019,0.000,0.000,-3.989,0.000
1.077,0.000,0.000,0.050,0.000,0.000,0.019,0.000,0.000,-3.989,0.000
1.079,0.001,0.000,0.050,0.000,0.000,0.019,0.000,0.000,-3.990,0.000
1.080,0.000,0.000,0.050,0.000,0.000,0.019,0.000,0.000,-3.990,0.000
1.082,0.000,0.000,0.050,0.000,0.000,0.019,0.000,0.000,-3.990,0.000
1.084,0.001,0.000,0.050,0.000,0.000,0.019,0.000,0.000,-3.990,0.000
1.086,0.001,0.000,0.050,0.000,0.000,0.019,0.000,0.000,-3.990,0.000
1.090,0.001,0.000,0.049,0.000,0.000,0.019,0.000,0.000,-3.990,0.000
1.092,0.001,0.000,0.049,-0.001,0.000,0.019,0.000,0.000,-3.990,0.039
1.094,0.001,0.000,0.049,-0.001,0.000,0.019,0.000,0.000,-3.990,0.059
1.095,0.000,0.000,0.049,-0.002,0.000,0.019,0.001,0.000,-3.990,0.098
1.097,0.001,0.000,0.049,-0.004,0.000,0.019,0.001,0.000,-3.990,0.137
1.099,0.001,0.000,0.049,-0.004,0.000,0.019,0.001,0.000,-3.990,0.156
1.100,0.000,0.000,0.049,-0.005,0.000,0.019,0.001,0.000,-3.990,0.195
1.102,0.001,0.000,0.049,-0.007,0.000,0.019,0.001,0.000,-3.990,0.234
1.107,0.001,0.000,0.049,-0.008,0.000,0.019,0.001,0.000,-3.990,0.313
1.108,0.000,0.000,0.049,-0.010,0.000,0.019,0.002,0.000,-3.990,0.351
1.110,0.001,0.000,0.049,-0.012,0.000,0.019,0.002,0.000,-3.990,0.390
1.111,0.000,0.000,0.049,-0.012,0.000,0.019,0.002,0.000,-3.990,0.410
1.113,0.000,0.000,0.049,-0.013,0.000,0.019,0.002,0.000,-3.990,0.450
1.115,0.001,0.000,0.049,-0.014,0.000,0.019,0.002,0.000,-3.990,0.489
1.117,0.001,0.000,0.049,-0.015,0.000,0.019,0.003,0.000,-3.991,0.509
1.121,0.000,0.000,0.049,-0.015,0.000,0.019,0.004,0.000,-3.991,0.615
1.123,0.001,0.000,0.049,-0.018,0.000,0.019,0.004,0.000,-3.991,0.646
1.125,0.001,0.000,0.049,-0.019,0.000,0.019,0.004,0.000,-3.991,0.687
1.126,0.000,0.000,0.049,-0.019,0.000,0.019,0.005,0.000,-3.991,0.706
1.128,0.000,0.000,0.049,-0.020,0.000,0.019,0.005,0.000,-3.991,0.747
1.130,0.001,0.000,0.049,-0.021,0.000,0.019,0.005,0.000,-3.991,0.785
1.131,0.000,0.000,0.048,-0.021,0.000,0.019,0.005,0.000,-3.991,0.805
1.133,0.001,0.000,0.048,-0.023,0.000,0.019,0.005,0.000,-3.991,0.845
1.138,0.001,0.000,0.048,-0.021,0.000,0.019,0.007,0.000,-3.991,0.954
1.139,0.000,0.000,0.048,-0.026,0.000,0.019,0.006,0.000,-3.992,0.962
1.141,0.000,0.000,0.048,-0.026,0.000,0.019,0.006,0.000,-3.992,0.999
1.143,0.001,0.000,0.048,-0.027,0.000,0.019,0.006,0.000,-3.992,1.039
1.144,0.000,0.000,0.048,-0.028,0.000,0.019,0.006,0.000,-3.992,1.057
1.146,0.000,0.000,0.048,-0.028,0.000,0.019,0.006,0.000,-3.992,1.094
1.148,0.001,0.000,0.048,-0.030,0.000,0.019,0.006,0.000,-3.992,1.131
1.152,0.000,0.000,0.048,-0.025,0.000,0.019,0.004,0.000,-3.992,1.215
1.154,0.001,0.000,0.048,-0.034,0.000,0.019,0.006,0.000,-3.992,1.249
1.156,0.001,0.000,0.048,-0.034,0.000,0.019,0.007,0.000,-3.992,1.290
1.157,0.000,0.000,0.048,-0.035,0.000,0.019,0.008,0.000,-3.992,1.307
1.159,0.001,0.000,0.048,-0.036,0.000,0.019,0.008,0.000,-3.992,1.348
1.161,0.001,0.000,0.048,-0.037,0.000,0.019,0.009,0.000,-3.992,1.366
1.162,0.000,0.000,0.048,-0.039,0.000,0.019,0.010,0.000,-3.992,1.405
1.164,0.001,0.000,0.048,-0.039,0.000,0.019,0.010,0.000,-3.992,1.405
1.169,0.001,0.000,0.048,-0.038,0.000,0.019,0.013,0.000,-3.992,1.407
1.171,0.001,0.000,0.048,-0.042,0.000,0.019,0.010,0.000,-3.992,1.444
1.172,0.000,0.000,0.048,-0.043,0.000,0.019,0.010,0.000,-3.992,1.483
1.174,0.001,0.000,0.048,-0.045,0.000,0.019,0.010,0.000,-3.992,1.522
1.176,0.001,0.000,0.048,-0.047,0.000,0.020,0.011,0.000,-3.992,1.561
1.178,0.001,0.000,0.048,-0.047,0.000,0.020,0.011,0.000,-3.992,1.581
1.179,0.000,0.000,0.048,-0.048,0.000,0.020,0.012,0.000,-3.992,1.620
1.184,0.001,0.000,0.048,-0.052,0.000,0.020,0.016,0.000,-3.992,1.725
1.185,0.000,0.000,0.048,-0.052,0.000,0.020,0.013,0.000,-3.992,1.737
1.187,0.000,0.000,0.048,-0.054,0.000,0.020,0.013,0.000,-3.992,1.776
1.189,0.001,0.000,0.048,-0.057,0.000,0.020,0.014,0.000,-3.992,1.818
1.191,0.001,0.000,0.048,-0.060,0.000,0.020,0.014,0.000,-3.992,1.857
1.192,0.000,0.000,0.048,-0.061,0.000,0.020,0.015,0.000,-3.992,1.877
1.194,0.001,0.000,0.048,-0.063,0.000,0.020,0.015,0.000,-3.992,1.913
1.199,0.001,0.000,0.048,-0.076,0.000,0.020,0.023,0.000,-3.992,2.026
1.200,0.000,0.000,0.048,-0.064,0.000,0.020,0.017,0.000,-3.992,2.033
1.202,0.000,0.000,0.048,-0.064,0.000,0.020,0.018,0.000,-3.992,2.072
1.204,0.001,0.000,0.048,-0.066,0.000,0.020,0.017,0.000,-3.992,2.111
1.205,0.000,0.000,0.048,-0.068,0.000,0.020,0.018,0.000,-3.992,2.131
1.207,0.001,0.000,0.048,-0.069,0.000,0.020,0.017,0.000,-3.993,2.170
1.209,0.001,0.000,0.048,-0.073,0.000,0.020,0.018,0.000,-3.993,2.213
1.210,0.000,0.000,0.048,-0.074,0.000,0.020,0.018,0.000,-3.993,2.229
1.215,0.001,0.000,0.048,-0.090,0.000,0.020,0.030,0.000,-3.993,2.345
1.217,0.001,0.000,0.048,-0.078,0.000,0.020,0.021,0.000,-3.993,2.366
1.218,0.000,0.000,0.048,-0.079,0.000,0.020,0.021,0.000,-3.993,2.389
1.220,0.001,0.000,0.048,-0.080,0.000,0.020,0.020,0.000,-3.993,2.429
1.222,0.001,0.000,0.048,-0.082,0.000,0.020,0.019,0.000,-3.993,2.468
1.224,0.001,0.000,0.049,-0.084,0.000,0.020,0.018,0.000,-3.993,2.487
1.225,0.000,0.000,0.049,-0.086,0.000,0.020,0.015,0.000,-3.993,2.523
1.230,0.001,0.000,0.049,-0.109,0.000,0.020,0.010,0.000,-3.993,2.653
1.232,0.001,0.000,0.049,-0.091,0.000,0.020,0.014,0.000,-3.993,2.664
1.234,0.001,0.000,0.049,-0.092,0.000,0.020,0.014,0.000,-3.993,2.688
1.235,0.000,0.000,0.049,-0.092,0.000,0.020,0.014,0.000,-3.993,2.727
1.237,0.001,0.000,0.049,-0.094,0.000,0.020,0.014,0.000,-3.993,2.766
1.239,0.001,0.000,0.049,-0.093,0.000,0.020,0.015,0.000,-3.993,2.782
1.240,0.000,0.000,0.049,-0.094,0.000,0.020,0.015,0.000,-3.993,2.821
1.242,0.001,0.000,0.049,-0.094,0.000,0.020,0.014,0.000,-3.993,2.860
1.247,0.001,0.000,0.049,-0.115,0.000,0.020,0.007,0.000,-3.994,2.957
1.248,0.000,0.000,0.049,-0.100,0.000,0.020,0.014,0.000,-3.994,2.973
1.250,0.001,0.000,0.049,-0.101,0.000,0.020,0.013,0.000,-3.994,3.008
1.252,0.001,0.000,0.049,-0.103,0.000,0.020,0.014,0.000,-3.994,3.052
1.253,0.000,0.000,0.049,-0.104,0.000,0.020,0.015,0.000,-3.994,3.062
1.255,0.001,0.000,0.049,-0.106,0.000,0.020,0.017,0.000,-3.994,3.106
1.257,0.001,0.000,0.050,-0.105,0.000,0.020,0.017,0.000,-3.994,3.116
1.263,0.001,0.000,0.050,-0.133,0.000,0.020,0.008,0.000,-3.994,3.247
1.265,0.001,0.000,0.050,-0.108,0.000,0.020,0.016,0.000,-3.994,3.271
1.267,0.001,0.000,0.050,-0.108,0.000,0.020,0.015,0.000,-3.994,3.310
1.268,0.000,0.000,0.050,-0.110,0.000,0.020,0.013,0.000,-3.994,3.344
1.270,0.001,0.000,0.050,-0.110,0.000,0.020,0.010,0.000,-3.994,3.388
1.271,0.000,0.000,0.050,-0.109,0.000,0.020,0.010,0.000,-3.994,3.403
1.273,0.000,0.000,0.050,-0.109,0.000,0.020,0.009,0.000,-3.993,3.441
1.278,0.001,0.000,0.050,-0.114,0.000,0.020,-0.010,0.000,-3.993,3.503
1.279,0.001,0.000,0.050,-0.111,0.000,0.019,0.008,0.000,-3.993,3.558
1.281,0.001,0.000,0.050,-0.111,0.000,0.019,0.006,0.000,-3.993,3.591
1.282,0.000,0.000,0.050,-0.112,0.000,0.019,0.005,0.000,-3.993,3.616
1.284,0.000,0.000,0.050,-0.115,0.000,0.019,0.004,0.000,-3.993,3.650
1.286,0.001,0.000,0.050,-0.117,0.000,0.019,0.006,0.000,-3.993,3.688
1.287,0.000,0.000,0.050,-0.121,0.000,0.019,0.007,0.000,-3.993,3.702
1.289,0.001,0.000,0.050,-0.123,0.000,0.019,0.010,0.000,-3.993,3.747
1.294,0.001,0.000,0.050,-0.141,0.000,0.019,-0.013,0.000,-3.993,3.782
1.295,0.001,0.000,0.050,-0.130,0.000,0.019,0.011,0.000,-3.993,3.857
1.297,0.001,0.000,0.050,-0.131,0.000,0.019,0.012,0.000,-3.993,3.896
1.299,0.001,0.000,0.050,-0.129,0.000,0.019,0.014,0.000,-3.993,3.909
1.301,0.001,0.000,0.050,-0.131,0.000,0.019,0.016,0.000,-3.993,3.954
1.302,0.000,0.000,0.050,-0.131,0.000,0.019,0.018,0.000,-3.993,3.986
1.304,0.001,0.000,0.050,-0.131,0.000,0.019,0.020,0.000,-3.993,4.025
1.309,0.001,0.000,0.050,-0.139,0.000,0.019,0.021,0.000,-3.992,4.044
1.310,0.000,0.000,0.050,-0.132,0.000,0.019,0.025,0.000,-3.992,4.135
1.312,0.001,0.000,0.050,-0.132,0.000,0.019,0.027,0.000,-3.992,4.167
1.313,0.000,0.000,0.050,-0.131,0.000,0.019,0.029,0.000,-3.992,4.186
1.315,0.000,0.000,0.050,-0.130,0.000,0.019,0.031,0.000,-3.992,4.218
1.317,0.001,0.000,0.050,-0.132,0.000,0.019,0.031,0.000,-3.992,4.249
1.318,0.000,0.000,0.050,-0.133,0.000,0.019,0.033,0.000,-3.992,4.268
1.320,0.001,0.000,0.050,-0.133,0.000,0.019,0.032,0.000,-3.992,4.314
1.325,0.001,0.000,0.050,-0.145,0.000,0.019,0.059,0.000,-3.991,4.286
1.326,0.000,0.000,0.050,-0.130,0.000,0.019,0.032,0.000,-3.991,4.422
1.328,0.001,0.000,0.050,-0.137,0.000,0.019,0.038,0.000,-3.991,4.439
1.330,0.001,0.000,0.050,-0.146,0.000,0.019,0.049,0.000,-3.991,4.456
1.332,0.001,0.000,0.050,-0.153,0.000,0.019,0.034,0.000,-3.990,4.482
1.333,0.000,0.000,0.050,-0.169,0.000,0.019,0.032,0.000,-3.990,4.498
1.335,0.001,0.000,0.050,-0.176,0.000,0.019,0.034,0.000,-3.990,4.536
1.339,0.000,0.000,0.051,-0.210,0.000,0.019,0.061,0.000,-3.989,4.359
1.341,0.001,0.000,0.051,-0.163,0.000,0.019,0.042,0.000,-3.989,4.634
1.343,0.001,0.000,0.051,-0.166,0.000,0.019,0.056,0.000,-3.988,4.656
1.344,0.000,0.000,0.051,-0.175,0.000,0.020,0.062,0.000,-3.988,4.697
1.346,0.001,0.000,0.051,-0.179,0.000,0.020,0.065,0.000,-3.988,4.750
1.348,0.001,0.000,0.051,-0.181,0.000,0.020,0.068,0.000,-3.988,4.792
1.349,0.000,0.000,0.051,-0.191,0.000,0.020,0.071,0.000,-3.988,4.869
1.351,0.001,0.000,0.051,-0.182,0.000,0.020,0.067,0.000,-3.988,4.962
1.355,0.000,0.000,0.051,-0.157,0.000,0.020,0.085,0.000,-3.988,5.150
1.357,0.000,0.000,0.051,-0.146,0.000,0.020,0.037,0.000,-3.988,5.183
1.359,0.001,0.000,0.051,-0.154,0.000,0.020,0.015,0.000,-3.988,5.255
1.361,0.001,0.000,0.051,-0.141,0.000,0.020,-0.008,0.000,-3.989,5.283
1.362,0.001,0.000,0.051,-0.161,0.000,0.020,-0.006,0.000,-3.989,5.307
1.364,0.001,0.000,0.051,-0.175,0.000,0.020,0.007,0.000,-3.989,5.347
1.365,0.000,0.000,0.051,-0.149,0.000,0.020,0.010,0.000,-3.989,5.343
1.370,0.001,0.000,0.051,-0.047,0.000,0.020,-0.004,0.000,-3.989,5.434
1.371,0.000,0.000,0.050,-0.090,0.000,0.020,0.033,0.000,-3.989,5.334
1.373,0.000,0.000,0.050,-0.099,0.000,0.020,0.056,0.000,-3.989,5.292
1.375,0.001,0.000,0.050,-0.110,0.000,0.020,0.066,0.000,-3.989,5.288
1.377,0.001,0.000,0.050,-0.107,0.000,0.020,0.086,0.000,-3.989,5.292
1.379,0.001,0.000,0.050,-0.120,0.000,0.020,0.101,0.000,-3.989,5.294
1.380,0.000,0.000,0.050,-0.142,0.000,0.020,0.108,0.000,-3.988,5.323
1.385,0.001,0.000,0.050,-0.117,0.000,0.021,0.190,0.000,-3.988,5.251
1.387,0.001,0.000,0.050,-0.140,0.000,0.021,0.074,0.000,-3.988,5.516
1.388,0.000,0.000,0.049,-0.121,0.000,0.021,0.051,0.000,-3.987,5.580
1.390,0.001,0.000,0.049,-0.115,0.000,0.021,0.018,0.000,-3.987,5.672
1.392,0.001,0.000,0.049,-0.114,0.000,0.021,-0.020,0.000,-3.988,5.746
1.394,0.001,0.000,0.049,-0.132,0.000,0.021,-0.058,0.000,-3.988,5.802
1.395,0.000,0.000,0.049,-0.141,0.000,0.020,-0.094,0.000,-3.988,5.878
1.397,0.001,0.000,0.049,-0.154,0.000,0.020,-0.105,0.000,-3.988,5.945
1.402,0.001,0.000,0.049,-0.079,0.000,0.019,-0.299,0.000,-3.989,6.284
1.403,0.000,0.000,0.049,-0.124,0.000,0.019,-0.067,0.000,-3.989,6.075
1.405,0.001,0.000,0.048,-0.110,0.000,0.018,-0.032,0.000,-3.989,6.106
1.407,0.001,0.000,0.048,-0.092,0.000,0.018,-0.002,0.000,-3.989,6.147
1.408,0.000,0.000,0.048,-0.106,0.000,0.018,0.027,0.000,-3.990,6.120
1.410,0.001,0.000,0.048,-0.110,0.000,0.018,0.046,0.000,-3.990,6.150
1.412,0.001,0.000,0.048,-0.122,0.000,0.018,0.053,0.000,-3.990,6.141
1.416,0.000,0.000,0.047,-0.071,0.000,0.019,0.128,0.000,-3.990,6.259
1.418,0.001,0.000,0.047,-0.147,0.000,0.019,0.086,0.000,-3.990,6.221
1.420,0.001,0.000,0.047,-0.122,0.000,0.019,0.100,0.000,-3.990,6.201
1.421,0.001,0.000,0.047,-0.128,0.000,0.019,0.096,0.000,-3.990,6.240
1.423,0.001,0.000,0.047,-0.119,0.000,0.019,0.096,0.000,-3.990,6.259
1.424,0.000,0.000,0.047,-0.103,0.000,0.019,0.064,0.000,-3.990,6.268
1.426,0.000,0.000,0.047,-0.109,0.000,0.019,0.040,0.000,-3.989,6.297
1.428,0.001,0.000,0.047,-0.136,0.000,0.019,0.008,0.000,-3.989,6.345
1.432,0.000,0.000,0.046,-0.066,0.000,0.019,-0.114,0.000,-3.989,6.300
1.434,0.001,0.000,0.046,-0.140,0.000,0.019,-0.024,0.000,-3.989,6.481
1.436,0.001,0.000,0.046,-0.132,0.000,0.018,-0.025,0.000,-3.989,6.531
1.438,0.001,0.000,0.046,-0.108,0.000,0.018,-0.018,0.000,-3.989,6.621
1.439,0.000,0.000,0.046,-0.106,0.000,0.018,0.014,0.000,-3.989,6.702
1.441,0.001,0.000,0.046,-0.095,0.000,0.018,0.022,0.000,-3.989,6.784
1.443,0.001,0.000,0.045,-0.100,0.000,0.018,0.047,0.000,-3.989,6.834
1.447,0.000,0.000,0.045,-0.024,0.000,0.018,0.106,0.000,-3.990,7.191
1.449,0.001,0.000,0.045,-0.144,0.000,0.018,0.065,0.000,-3.990,6.976
1.451,0.001,0.000,0.045,-0.166,0.000,0.019,0.080,0.000,-3.990,6.986
1.452,0.000,0.000,0.045,-0.161,0.000,0.019,0.073,0.000,-3.991,7.015
1.454,0.001,0.000,0.045,-0.147,0.000,0.019,0.089,0.000,-3.991,7.022
1.456,0.001,0.000,0.045,-0.155,0.000,0.019,0.103,0.000,-3.991,7.040
1.457,0.000,0.000,0.045,-0.145,0.000,0.019,0.083,0.000,-3.991,7.016
1.462,0.001,0.000,0.045,-0.170,0.000,0.019,0.159,0.000,-3.991,7.048
1.464,0.001,0.000,0.045,-0.210,0.000,0.019,0.061,0.000,-3.991,7.064
1.466,0.001,0.000,0.045,-0.227,0.000,0.019,0.039,0.000,-3.991,7.039
1.467,0.001,0.000,0.045,-0.223,0.000,0.019,0.028,0.000,-3.991,7.077
1.469,0.001,0.000,0.045,-0.239,0.000,0.019,0.008,0.000,-3.990,7.104
1.470,0.000,0.000,0.045,-0.218,0.000,0.019,0.013,0.000,-3.990,7.112
1.472,0.001,0.000,0.045,-0.204,0.000,0.019,0.011,0.000,-3.990,7.150
1.474,0.001,0.000,0.045,-0.188,0.000,0.019,0.031,0.000,-3.990,7.211
1.478,0.000,0.000,0.045,-0.192,0.000,0.019,0.085,0.000,-3.990,7.218
1.480,0.001,0.000,0.045,-0.195,0.000,0.019,0.054,0.000,-3.990,7.408
1.482,0.001,0.000,0.045,-0.223,0.000,0.019,0.061,0.000,-3.990,7.485
1.483,0.000,0.000,0.045,-0.199,0.000,0.019,0.050,0.000,-3.990,7.572
1.485,0.001,0.000,0.045,-0.214,0.000,0.019,0.031,0.000,-3.990,7.623
1.487,0.001,0.000,0.045,-0.183,0.000,0.019,0.023,0.000,-3.990,7.679
1.488,0.000,0.000,0.045,-0.178,0.000,0.019,0.010,0.000,-3.990,7.730
1.493,0.001,0.000,0.044,-0.055,0.000,0.019,-0.067,0.000,-3.991,8.059
1.494,0.000,0.000,0.044,-0.191,0.000,0.019,0.012,0.000,-3.991,7.815
1.496,0.000,0.000,0.044,-0.181,0.000,0.019,0.024,0.000,-3.991,7.818
1.498,0.001,0.000,0.044,-0.211,0.000,0.019,0.032,0.000,-3.991,7.821
1.499,0.000,0.000,0.044,-0.219,0.000,0.019,0.047,0.000,-3.991,7.804
1.501,0.001,0.000,0.044,-0.253,0.000,0.019,0.058,0.000,-3.991,7.794
1.503,0.001,0.000,0.044,-0.217,0.000,0.019,0.061,0.000,-3.991,7.757
1.504,0.000,0.000,0.044,-0.251,0.000,0.019,0.070,0.000,-3.991,7.720
1.509,0.001,0.000,0.045,-0.361,0.000,0.019,0.138,0.000,-3.990,7.437
1.511,0.001,0.000,0.045,-0.305,0.000,0.019,0.086,0.000,-3.990,7.682
1.512,0.000,0.000,0.045,-0.311,0.000,0.019,0.096,0.000,-3.990,7.694
1.514,0.001,0.000,0.045,-0.363,0.000,0.019,0.098,0.000,-3.990,7.694
1.516,0.001,0.000,0.045,-0.347,0.000,0.019,0.090,0.000,-3.989,7.718
1.517,0.000,0.000,0.046,-0.319,0.000,0.019,0.080,0.000,-3.989,7.730
1.519,0.001,0.000,0.046,-0.341,0.000,0.019,0.073,0.000,-3.989,7.767
1.524,0.001,0.000,0.046,-0.415,0.000,0.019,0.033,0.000,-3.989,7.718
1.525,0.000,0.000,0.046,-0.303,0.000,0.019,0.018,0.000,-3.989,7.828
1.527,0.001,0.000,0.046,-0.282,0.000,0.019,-0.006,0.000,-3.989,7.865
1.528,0.000,0.000,0.047,-0.298,0.000,0.019,-0.002,0.000,-3.989,7.889
1.530,0.000,0.000,0.047,-0.274,0.000,0.019,-0.005,0.000,-3.989,7.914
1.532,0.001,0.000,0.047,-0.307,0.000,0.019,0.028,0.000,-3.989,7.966
1.534,0.001,0.000,0.047,-0.243,0.000,0.019,0.032,0.000,-3.989,8.006
1.539,0.001,0.000,0.047,-0.211,0.000,0.019,0.082,0.000,-3.990,8.185
1.540,0.000,0.000,0.047,-0.206,0.000,0.019,0.068,0.000,-3.990,8.074
1.542,0.001,0.000,0.047,-0.208,0.000,0.019,0.092,0.000,-3.990,8.049
1.544,0.001,0.000,0.047,-0.217,0.000,0.019,0.083,0.000,-3.990,8.024
1.545,0.000,0.000,0.047,-0.226,0.000,0.019,0.094,0.000,-3.990,7.986
1.547,0.001,0.000,0.047,-0.247,0.000,0.019,0.092,0.000,-3.990,7.974
1.549,0.001,0.000,0.047,-0.264,0.000,0.020,0.094,0.000,-3.990,7.936
1.550,0.000,0.000,0.047,-0.309,0.000,0.020,0.097,0.000,-3.989,7.923
1.555,0.001,0.000,0.047,-0.358,0.000,0.020,0.128,0.000,-3.989,7.683
1.556,0.000,0.000,0.047,-0.267,0.000,0.020,0.053,0.000,-3.989,7.909
1.558,0.000,0.000,0.047,-0.284,0.000,0.020,0.010,0.000,-3.989,7.909
1.560,0.001,0.000,0.047,-0.281,0.000,0.020,-0.020,0.000,-3.988,7.921
1.561,0.000,0.000,0.047,-0.315,0.000,0.019,-0.026,0.000,-3.988,7.946
1.563,0.000,0.000,0.048,-0.309,0.000,0.019,-0.053,0.000,-3.988,7.972
1.565,0.001,0.000,0.048,-0.341,0.000,0.019,-0.048,0.000,-3.988,7.997
1.569,0.000,0.000,0.048,-0.429,0.000,0.019,-0.225,0.000,-3.988,8.009
1.571,0.001,0.000,0.048,-0.298,0.000,0.018,-0.014,0.000,-3.988,8.047
1.573,0.001,0.000,0.048,-0.253,0.000,0.018,-0.010,0.000,-3.988,8.085
1.574,0.000,0.000,0.048,-0.211,0.000,0.018,0.011,0.000,-3.988,8.110
1.576,0.001,0.000,0.048,-0.206,0.000,0.018,0.035,0.000,-3.989,8.123
1.578,0.001,0.000,0.048,-0.205,0.000,0.018,0.039,0.000,-3.989,8.148
1.579,0.000,0.000,0.048,-0.200,0.000,0.018,0.047,0.000,-3.989,8.148
1.584,0.001,0.000,0.048,-0.115,0.000,0.018,0.005,0.000,-3.989,8.312
1.586,0.001,0.000,0.048,-0.182,0.000,0.018,0.043,0.000,-3.989,8.111
1.587,0.000,0.000,0.048,-0.171,0.000,0.018,0.045,0.000,-3.989,8.086
1.589,0.001,0.000,0.047,-0.166,0.000,0.018,0.052,0.000,-3.989,8.049
1.591,0.001,0.000,0.047,-0.193,0.000,0.018,0.055,0.000,-3.989,8.024
1.592,0.000,0.000,0.047,-0.229,0.000,0.018,0.069,0.000,-3.989,7.998
1.594,0.001,0.000,0.047,-0.218,0.000,0.018,0.064,0.000,-3.989,7.961
1.596,0.001,0.000,0.047,-0.247,0.000,0.018,0.044,0.000,-3.989,7.910
1.600,0.000,0.000,0.047,-0.251,0.000,0.018,0.011,0.000,-3.988,7.582
1.602,0.001,0.000,0.047,-0.219,0.000,0.018,0.011,0.000,-3.988,7.833
1.604,0.001,0.000,0.047,-0.188,0.000,0.018,-0.004,0.000,-3.988,7.795
1.605,0.001,0.000,0.047,-0.204,0.000,0.018,0.000,0.000,-3.988,7.795
1.607,0.001,0.000,0.047,-0.198,0.000,0.018,0.022,0.000,-3.987,7.769
1.609,0.001,0.000,0.047,-0.191,0.000,0.018,0.054,0.000,-3.987,7.768
1.610,0.000,0.000,0.047,-0.209,0.000,0.018,0.081,0.000,-3.987,7.818
1.615,0.001,0.000,0.047,-0.162,0.000,0.018,0.196,0.000,-3.986,7.616
1.616,0.000,0.000,0.047,-0.207,0.000,0.018,0.088,0.000,-3.986,7.956
1.618,0.000,0.000,0.047,-0.165,0.000,0.018,0.057,0.000,-3.986,8.044
1.620,0.001,0.000,0.047,-0.151,0.000,0.018,0.025,0.000,-3.986,8.119
1.621,0.000,0.000,0.046,-0.145,0.000,0.018,-0.019,0.000,-3.986,8.183
1.623,0.001,0.000,0.046,-0.129,0.000,0.018,-0.064,0.000,-3.987,8.233
1.625,0.001,0.000,0.046,-0.123,0.000,0.018,-0.091,0.000,-3.987,8.297
1.626,0.000,0.000,0.046,-0.115,0.000,0.017,-0.121,0.000,-3.987,8.297
1.631,0.001,0.000,0.045,0.087,0.000,0.017,-0.297,0.000,-3.988,8.764
1.633,0.001,0.000,0.045,-0.059,0.000,0.016,-0.043,0.000,-3.988,8.261
1.634,0.000,0.000,0.045,-0.098,0.000,0.016,-0.007,0.000,-3.989,8.249
1.636,0.000,0.000,0.045,-0.063,0.000,0.016,0.019,0.000,-3.989,8.212
1.638,0.001,0.000,0.044,-0.120,0.000,0.016,0.055,0.000,-3.989,8.162
1.639,0.000,0.000,0.044,-0.106,0.000,0.016,0.069,0.000,-3.989,8.112
1.641,0.001,0.000,0.044,-0.106,0.000,0.016,0.064,0.000,-3.989,8.074
1.646,0.001,0.000,0.044,-0.046,0.000,0.017,0.072,0.000,-3.989,8.024
1.647,0.000,0.000,0.044,-0.167,0.000,0.017,0.055,0.000,-3.989,8.011
1.649,0.001,0.000,0.044,-0.183,0.000,0.017,0.077,0.000,-3.989,7.986
1.651,0.001,0.000,0.044,-0.190,0.000,0.017,0.077,0.000,-3.989,7.973
1.652,0.000,0.000,0.044,-0.242,0.000,0.017,0.056,0.000,-3.989,7.973
1.654,0.001,0.000,0.044,-0.234,0.000,0.017,0.046,0.000,-3.989,7.973
1.656,0.001,0.000,0.044,-0.239,0.000,0.017,0.026,0.000,-3.989,7.973
1.660,0.000,0.000,0.044,-0.285,0.000,0.017,-0.046,0.000,-3.989,7.872
1.662,0.001,0.000,0.044,-0.229,0.000,0.016,-0.019,0.000,-3.989,7.998
1.664,0.001,0.000,0.044,-0.225,0.000,0.016,-0.031,0.000,-3.989,8.010
1.665,0.000,0.000,0.044,-0.194,0.000,0.016,-0.009,0.000,-3.989,8.023
1.667,0.001,0.000,0.044,-0.168,0.000,0.016,0.024,0.000,-3.989,8.048
1.669,0.001,0.000,0.044,-0.127,0.000,0.016,0.057,0.000,-3.989,8.073
1.670,0.000,0.000,0.043,-0.102,0.000,0.016,0.092,0.000,-3.989,8.099
1.672,0.001,0.000,0.043,-0.108,0.000,0.016,0.107,0.000,-3.989,8.124
1.677,0.001,0.000,0.043,0.095,0.000,0.017,0.263,0.000,-3.989,8.363
1.678,0.000,0.000,0.042,-0.104,0.000,0.017,0.109,0.000,-3.989,8.150
1.680,0.001,0.000,0.042,-0.103,0.000,0.017,0.104,0.000,-3.989,8.163
1.681,0.000,0.000,0.042,-0.087,0.000,0.017,0.103,0.000,-3.990,8.176
1.683,0.000,0.000,0.042,-0.081,0.000,0.017,0.100,0.000,-3.990,8.163
1.685,0.001,0.000,0.042,-0.062,0.000,0.017,0.080,0.000,-3.990,8.176
1.687,0.001,0.000,0.041,-0.096,0.000,0.017,0.061,0.000,-3.990,8.139
1.691,0.000,0.000,0.041,0.037,0.000,0.017,-0.008,0.000,-3.990,8.214
1.693,0.001,0.000,0.041,-0.173,0.000,0.017,0.004,0.000,-3.990,8.064
1.695,0.001,0.000,0.041,-0.213,0.000,0.017,-0.026,0.000,-3.990,8.026
1.696,0.000,0.000,0.041,-0.247,0.000,0.017,-0.039,0.000,-3.990,8.001
1.698,0.001,0.000,0.041,-0.273,0.000,0.017,-0.077,0.000,-3.990,7.963
1.699,0.000,0.000,0.041,-0.292,0.000,0.017,-0.062,0.000,-3.990,7.963
1.701,0.000,0.000,0.041,-0.304,0.000,0.016,-0.033,0.000,-3.990,7.937
1.703,0.001,0.000,0.042,-0.309,0.000,0.016,0.010,0.000,-3.990,7.937
1.707,0.000,0.000,0.042,-0.507,0.000,0.016,0.060,0.000,-3.990,7.811
1.709,0.000,0.000,0.042,-0.328,0.000,0.016,0.059,0.000,-3.989,7.987
1.711,0.001,0.000,0.042,-0.301,0.000,0.016,0.064,0.000,-3.989,8.012
1.713,0.001,0.000,0.043,-0.289,0.000,0.016,0.051,0.000,-3.989,8.037
1.714,0.001,0.000,0.043,-0.266,0.000,0.016,0.032,0.000,-3.989,8.063
1.716,0.001,0.000,0.043,-0.225,0.000,0.016,0.002,0.000,-3.990,8.075
1.717,0.000,0.000,0.043,-0.167,0.000,0.016,-0.013,0.000,-3.990,8.100
1.722,0.001,0.000,0.042,0.062,0.000,0.016,-0.186,0.000,-3.990,8.201
1.724,0.001,0.000,0.042,-0.077,0.000,0.016,-0.068,0.000,-3.990,8.088
1.725,0.000,0.000,0.042,-0.041,0.000,0.015,-0.108,0.000,-3.990,8.076
1.727,0.001,0.000,0.041,-0.050,0.000,0.015,-0.092,0.000,-3.990,8.051
1.729,0.001,0.000,0.041,-0.035,0.000,0.015,-0.083,0.000,-3.990,8.038
1.730,0.000,0.000,0.041,-0.064,0.000,0.015,-0.076,0.000,-3.990,8.000
1.732,0.001,0.000,0.041,-0.083,0.000,0.014,-0.090,0.000,-3.990,7.988
1.737,0.001,0.000,0.040,-0.012,0.000,0.014,-0.273,0.000,-3.990,7.824
1.738,0.000,0.000,0.040,-0.188,0.000,0.014,-0.041,0.000,-3.989,7.949
1.740,0.001,0.000,0.040,-0.232,0.000,0.014,0.023,0.000,-3.989,7.949
1.742,0.001,0.000,0.041,-0.275,0.000,0.014,0.082,0.000,-3.989,7.949
1.743,0.000,0.000,0.041,-0.341,0.000,0.014,0.124,0.000,-3.989,7.936
1.745,0.001,0.000,0.041,-0.357,0.000,0.014,0.135,0.000,-3.989,7.961
1.747,0.001,0.000,0.041,-0.385,0.000,0.014,0.158,0.000,-3.989,7.974
1.748,0.000,0.000,0.042,-0.392,0.000,0.014,0.136,0.000,-3.989,7.974
1.753,0.001,0.000,0.042,-0.682,0.000,0.015,0.336,0.000,-3.989,7.873
1.755,0.001,0.000,0.043,-0.347,0.000,0.015,0.097,0.000,-3.989,7.986
1.756,0.000,0.000,0.043,-0.305,0.000,0.015,0.046,0.000,-3.989,7.973
1.758,0.001,0.000,0.043,-0.253,0.000,0.015,0.001,0.000,-3.988,7.986
1.760,0.001,0.000,0.043,-0.216,0.000,0.015,-0.028,0.000,-3.988,7.998
1.761,0.000,0.000,0.043,-0.174,0.000,0.015,-0.061,0.000,-3.988,7.986
1.763,0.001,0.000,0.043,-0.150,0.000,0.015,-0.069,0.000,-3.988,7.998
1.767,0.001,0.000,0.042,0.054,0.000,0.014,-0.259,0.000,-3.988,7.922
1.769,0.001,0.000,0.042,-0.082,0.000,0.014,-0.083,0.000,-3.988,8.010
1.770,0.000,0.000,0.042,-0.068,0.000,0.014,-0.052,0.000,-3.988,8.010
1.772,0.001,0.000,0.042,-0.088,0.000,0.013,-0.002,0.000,-3.988,8.023
1.774,0.001,0.000,0.041,-0.104,0.000,0.014,0.047,0.000,-3.988,8.048
1.775,0.000,0.000,0.041,-0.132,0.000,0.014,0.097,0.000,-3.988,8.048
1.777,0.001,0.000,0.041,-0.157,0.000,0.014,0.144,0.000,-3.988,8.086
1.779,0.001,0.000,0.041,-0.184,0.000,0.014,0.171,0.000,-3.988,8.086
1.788,0.000,0.000,0.041,-0.337,0.000,0.015,0.382,0.000,-3.988,8.162
1.790,0.001,0.000,0.042,-0.257,0.000,0.015,0.020,0.000,-3.988,8.023
1.792,0.001,0.000,0.042,-0.275,0.000,0.015,-0.039,0.000,-3.988,7.986
1.793,0.000,0.000,0.042,-0.287,0.000,0.014,-0.084,0.000,-3.988,7.948
1.795,0.001,0.000,0.042,-0.269,0.000,0.014,-0.102,0.000,-3.988,7.935
1.797,0.001,0.000,0.042,-0.242,0.000,0.014,-0.115,0.000,-3.988,7.897
1.798,0.000,0.000,0.042,-0.208,0.000,0.014,-0.096,0.000,-3.988,7.884
1.803,0.001,0.000,0.042,-0.085,0.000,0.013,-0.115,0.000,-3.987,7.644
1.804,0.000,0.000,0.042,-0.109,0.000,0.013,0.046,0.000,-3.987,7.921
1.806,0.001,0.000,0.041,-0.065,0.000,0.013,0.087,0.000,-3.987,7.933
1.808,0.001,0.000,0.041,-0.053,0.000,0.014,0.096,0.000,-3.987,7.971
1.809,0.000,0.000,0.041,-0.024,0.000,0.014,0.116,0.000,-3.987,8.008
1.811,0.001,0.000,0.040,-0.017,0.000,0.014,0.129,0.000,-3.987,8.059
1.813,0.001,0.000,0.040,-0.031,0.000,0.014,0.132,0.000,-3.987,8.096
1.817,0.001,0.000,0.039,0.243,0.000,0.014,0.236,0.000,-3.987,8.286
1.819,0.001,0.000,0.039,-0.043,0.000,0.015,0.082,0.000,-3.987,8.135
1.820,0.000,0.000,0.039,-0.083,0.000,0.015,0.035,0.000,-3.988,8.135
1.822,0.001,0.000,0.039,-0.118,0.000,0.014,-0.001,0.000,-3.988,8.123
1.824,0.001,0.000,0.039,-0.145,0.000,0.014,-0.019,0.000,-3.988,8.098
1.825,0.000,0.000,0.039,-0.188,0.000,0.014,-0.034,0.000,-3.988,8.060
1.827,0.001,0.000,0.039,-0.223,0.000,0.014,-0.077,0.000,-3.988,8.022
1.828,0.000,0.000,0.039,-0.254,0.000,0.014,-0.108,0.000,-3.988,7.984
1.833,0.001,0.000,0.039,-0.356,0.000,0.013,-0.301,0.000,-3.987,7.795
1.835,0.001,0.000,0.039,-0.262,0.000,0.013,-0.082,0.000,-3.987,7.896
1.836,0.000,0.000,0.039,-0.242,0.000,0.013,-0.053,0.000,-3.987,7.921
1.838,0.001,0.000,0.039,-0.241,0.000,0.013,-0.040,0.000,-3.987,7.920
1.840,0.001,0.000,0.040,-0.245,0.000,0.012,-0.021,0.000,-3.987,7.945
1.841,0.000,0.000,0.040,-0.271,0.000,0.012,-0.006,0.000,-3.987,7.983
1.843,0.001,0.000,0.040,-0.274,0.000,0.012,0.026,0.000,-3.987,8.046
1.847,0.000,0.000,0.040,-0.397,0.000,0.012,-0.031,0.000,-3.987,8.197
1.849,0.001,0.000,0.040,-0.262,0.000,0.012,0.005,0.000,-3.987,8.160
1.851,0.001,0.000,0.040,-0.221,0.000,0.012,0.025,0.000,-3.987,8.223
1.852,0.000,0.000,0.040,-0.200,0.000,0.012,0.045,0.000,-3.988,8.248
1.854,0.001,0.000,0.040,-0.185,0.000,0.012,0.054,0.000,-3.988,8.287
1.855,0.000,0.000,0.040,-0.161,0.000,0.012,0.053,0.000,-3.988,8.300
1.857,0.000,0.000,0.040,-0.130,0.000,0.012,0.054,0.000,-3.989,8.288
1.862,0.001,0.000,0.040,-0.016,0.000,0.012,0.081,0.000,-3.989,8.553
1.863,0.000,0.000,0.040,-0.134,0.000,0.012,0.055,0.000,-3.989,8.163
1.865,0.001,0.000,0.040,-0.129,0.000,0.012,0.042,0.000,-3.989,8.088
1.867,0.001,0.000,0.039,-0.145,0.000,0.012,0.019,0.000,-3.989,8.025
1.868,0.000,0.000,0.039,-0.169,0.000,0.012,0.011,0.000,-3.989,7.949
1.870,0.001,0.000,0.039,-0.178,0.000,0.012,0.033,0.000,-3.989,7.924
1.872,0.001,0.000,0.039,-0.182,0.000,0.012,0.035,0.000,-3.989,7.886
1.873,0.000,0.000,0.039,-0.202,0.000,0.012,0.034,0.000,-3.989,7.873
1.878,0.001,0.000,0.039,-0.272,0.000,0.012,-0.026,0.000,-3.988,7.659
1.879,0.000,0.000,0.040,-0.253,0.000,0.012,-0.009,0.000,-3.988,7.948
1.881,0.000,0.000,0.040,-0.293,0.000,0.012,-0.020,0.000,-3.988,8.010
1.883,0.001,0.000,0.040,-0.309,0.000,0.012,-0.030,0.000,-3.988,8.086
1.884,0.000,0.000,0.040,-0.296,0.000,0.012,-0.042,0.000,-3.988,8.149
1.886,0.000,0.000,0.040,-0.301,0.000,0.012,-0.056,0.000,-3.989,8.212
1.888,0.001,0.000,0.040,-0.293,0.000,0.012,-0.054,0.000,-3.989,8.263
1.892,0.000,0.000,0.041,-0.388,0.000,0.011,-0.133,0.000,-3.990,8.705
1.894,0.001,0.000,0.041,-0.247,0.000,0.011,-0.037,0.000,-3.990,8.290
1.896,0.001,0.000,0.041,-0.235,0.000,0.011,-0.035,0.000,-3.990,8.278
1.897,0.000,0.000,0.041,-0.209,0.000,0.011,-0.019,0.000,-3.991,8.228
1.899,0.001,0.000,0.041,-0.176,0.000,0.011,0.002,0.000,-3.991,8.191
1.900,0.000,0.000,0.041,-0.163,0.000,0.011,0.015,0.000,-3.991,8.128
1.902,0.000,0.000,0.041,-0.139,0.000,0.011,0.030,0.000,-3.991,8.065
1.907,0.001,0.000,0.040,-0.075,0.000,0.011,0.066,0.000,-3.991,7.952
1.908,0.000,0.000,0.040,-0.160,0.000,0.011,0.080,0.000,-3.991,7.964
1.910,0.001,0.000,0.040,-0.166,0.000,0.011,0.110,0.000,-3.991,7.926
1.912,0.001,0.000,0.040,-0.169,0.000,0.011,0.113,0.000,-3.990,7.926
1.913,0.000,0.000,0.040,-0.181,0.000,0.011,0.093,0.000,-3.990,7.913
1.915,0.001,0.000,0.040,-0.197,0.000,0.011,0.046,0.000,-3.990,7.938
1.917,0.001,0.000,0.040,-0.208,0.000,0.011,0.005,0.000,-3.990,7.976
1.918,0.000,0.000,0.040,-0.220,0.000,0.011,-0.012,0.000,-3.990,8.026
1.923,0.001,0.000,0.040,-0.250,0.000,0.011,-0.209,0.000,-3.990,8.177
1.924,0.000,0.000,0.040,-0.234,0.000,0.011,-0.096,0.000,-3.990,8.153
1.926,0.001,0.000,0.041,-0.252,0.000,0.010,-0.150,0.000,-3.991,8.216
1.928,0.001,0.000,0.041,-0.266,0.000,0.010,-0.150,0.000,-3.991,8.229
1.929,0.000,0.000,0.041,-0.283,0.000,0.010,-0.168,0.000,-3.991,8.292
1.931,0.001,0.000,0.041,-0.281,0.000,0.009,-0.168,0.000,-3.991,8.293
1.933,0.001,0.000,0.041,-0.254,0.000,0.009,-0.137,0.000,-3.992,8.281
1.937,0.001,0.000,0.041,-0.301,0.000,0.008,-0.207,0.000,-3.992,8.558
1.939,0.001,0.000,0.041,-0.226,0.000,0.008,-0.005,0.000,-3.992,8.181
1.940,0.000,0.000,0.041,-0.235,0.000,0.008,0.043,0.000,-3.993,8.131
1.942,0.001,0.000,0.041,-0.245,0.000,0.008,0.093,0.000,-3.993,8.081
1.944,0.001,0.000,0.041,-0.242,0.000,0.009,0.170,0.000,-3.993,8.043
1.945,0.000,0.000,0.041,-0.240,0.000,0.009,0.224,0.000,-3.993,7.993
1.947,0.001,0.000,0.041,-0.218,0.000,0.010,0.295,0.000,-3.992,7.968
1.949,0.001,0.000,0.041,-0.207,0.000,0.010,0.320,0.000,-3.992,7.955
1.953,0.000,0.000,0.041,-0.207,0.000,0.012,0.726,0.000,-3.992,7.816
1.955,0.001,0.000,0.041,-0.211,0.000,0.012,0.233,0.000,-3.992,7.980
1.956,0.000,0.000,0.042,-0.228,0.000,0.012,0.146,0.000,-3.992,8.005
1.958,0.000,0.000,0.042,-0.234,0.000,0.012,0.054,0.000,-3.992,8.030
1.960,0.001,0.000,0.042,-0.238,0.000,0.012,-0.045,0.000,-3.992,8.055
1.962,0.001,0.000,0.042,-0.256,0.000,0.012,-0.150,0.000,-3.992,8.105
1.963,0.000,0.000,0.042,-0.265,0.000,0.012,-0.171,0.000,-3.992,8.131
1.968,0.001,0.000,0.042,-0.338,0.000,0.010,-0.579,0.000,-3.992,8.345
1.969,0.000,0.000,0.042,-0.250,0.000,0.010,-0.191,0.000,-3.993,8.169
1.971,0.001,0.000,0.042,-0.242,0.000,0.010,-0.154,0.000,-3.993,8.195
1.972,0.000,0.000,0.042,-0.237,0.000,0.009,-0.064,0.000,-3.993,8.170
1.974,0.000,0.000,0.042,-0.250,0.000,0.009,0.020,0.000,-3.993,8.170
1.976,0.001,0.000,0.042,-0.250,0.000,0.010,0.115,0.000,-3.993,8.171
1.978,0.001,0.000,0.042,-0.235,0.000,0.010,0.171,0.000,-3.993,8.146
1.982,0.001,0.000,0.042,-0.267,0.000,0.011,0.620,0.000,-3.994,8.259
1.984,0.001,0.000,0.043,-0.216,0.000,0.012,0.291,0.000,-3.994,8.109
1.985,0.000,0.000,0.042,-0.188,0.000,0.012,0.301,0.000,-3.994,8.071
1.987,0.001,0.000,0.042,-0.172,0.000,0.013,0.259,0.000,-3.994,8.058
1.989,0.001,0.000,0.042,-0.178,0.000,0.013,0.225,0.000,-3.994,8.033
1.990,0.000,0.000,0.042,-0.192,0.000,0.013,0.150,0.000,-3.994,8.008
1.992,0.001,0.000,0.042,-0.206,0.000,0.013,0.097,0.000,-3.994,8.008
1.994,0.001,0.000,0.042,-0.231,0.000,0.013,0.026,0.000,-3.994,7.983
1.998,0.001,0.000,0.042,-0.243,0.000,0.013,-0.214,0.000,-3.993,7.882
2.000,0.001,0.000,0.042,-0.216,0.000,0.012,-0.119,0.000,-3.993,7.995
2.002,0.001,0.000,0.042,-0.220,0.000,0.012,-0.160,0.000,-3.993,7.995
2.003,0.000,0.000,0.042,-0.209,0.000,0.012,-0.161,0.000,-3.993,8.007
2.005,0.001,0.000,0.042,-0.207,0.000,0.011,-0.134,0.000,-3.993,8.033
2.007,0.001,0.000,0.042,-0.202,0.000,0.011,-0.124,0.000,-3.993,8.070
2.008,0.000,0.000,0.042,-0.231,0.000,0.011,-0.097,0.000,-3.993,8.083
2.013,0.001,0.000,0.043,-0.307,0.000,0.011,-0.062,0.000,-3.994,8.234
2.014,0.000,0.000,0.043,-0.250,0.000,0.011,0.059,0.000,-3.994,8.121
2.016,0.001,0.000,0.043,-0.244,0.000,0.011,0.115,0.000,-3.994,8.147
2.018,0.001,0.000,0.043,-0.231,0.000,0.011,0.152,0.000,-3.994,8.147
2.019,0.000,0.000,0.043,-0.227,0.000,0.011,0.206,0.000,-3.994,8.160
2.021,0.001,0.000,0.043,-0.228,0.000,0.012,0.213,0.000,-3.994,8.160
2.023,0.001,0.000,0.043,-0.216,0.000,0.012,0.232,0.000,-3.994,8.148
2.027,0.000,0.000,0.043,-0.244,0.000,0.013,0.396,0.000,-3.994,8.211
2.029,0.001,0.000,0.043,-0.235,0.000,0.013,0.107,0.000,-3.994,8.073
2.031,0.001,0.000,0.043,-0.220,0.000,0.013,0.068,0.000,-3.994,8.022
2.032,0.000,0.000,0.043,-0.222,0.000,0.013,0.006,0.000,-3.994,7.985
2.034,0.001,0.000,0.043,-0.200,0.000,0.013,-0.070,0.000,-3.994,7.934
2.036,0.001,0.000,0.043,-0.219,0.000,0.013,-0.125,0.000,-3.994,7.921
2.037,0.000,0.000,0.043,-0.220,0.000,0.012,-0.163,0.000,-3.994,7.896
2.039,0.001,0.000,0.043,-0.225,0.000,0.012,-0.144,0.000,-3.994,7.896
2.044,0.001,0.000,0.043,-0.270,0.000,0.011,-0.421,0.000,-3.993,7.694
2.045,0.001,0.000,0.043,-0.243,0.000,0.011,-0.117,0.000,-3.993,7.958
2.047,0.001,0.000,0.043,-0.267,0.000,0.011,-0.075,0.000,-3.993,8.008
2.048,0.000,0.000,0.043,-0.287,0.000,0.010,-0.017,0.000,-3.993,8.033
2.050,0.000,0.000,0.043,-0.317,0.000,0.010,0.038,0.000,-3.993,8.096
2.052,0.001,0.000,0.044,-0.324,0.000,0.011,0.092,0.000,-3.993,8.146
2.053,0.000,0.000,0.044,-0.293,0.000,0.011,0.114,0.000,-3.993,8.172
2.058,0.001,0.000,0.044,-0.372,0.000,0.011,0.349,0.000,-3.994,8.462
2.060,0.001,0.000,0.044,-0.241,0.000,0.012,0.145,0.000,-3.994,8.198
2.061,0.000,0.000,0.044,-0.233,0.000,0.012,0.126,0.000,-3.994,8.186
2.063,0.001,0.000,0.044,-0.210,0.000,0.012,0.073,0.000,-3.994,8.148
2.065,0.001,0.000,0.044,-0.185,0.000,0.012,0.039,0.000,-3.995,8.111
2.066,0.000,0.000,0.044,-0.149,0.000,0.012,0.020,0.000,-3.995,8.073
2.068,0.001,0.000,0.044,-0.119,0.000,0.012,-0.005,0.000,-3.994,7.998
2.070,0.001,0.000,0.044,-0.098,0.000,0.012,-0.031,0.000,-3.994,7.960
2.074,0.000,0.000,0.043,0.061,0.000,0.011,-0.156,0.000,-3.994,7.708
2.076,0.001,0.000,0.043,-0.124,0.000,0.011,-0.042,0.000,-3.994,7.883
2.078,0.001,0.000,0.043,-0.155,0.000,0.011,0.008,0.000,-3.994,7.908
2.079,0.000,0.000,0.043,-0.166,0.000,0.011,0.050,0.000,-3.993,7.921
2.081,0.001,0.000,0.043,-0.200,0.000,0.011,0.059,0.000,-3.993,7.933
2.083,0.001,0.000,0.043,-0.222,0.000,0.011,0.058,0.000,-3.993,7.971
2.084,0.000,0.000,0.043,-0.276,0.000,0.011,0.064,0.000,-3.993,8.021
2.089,0.001,0.000,0.043,-0.475,0.000,0.012,0.081,0.000,-3.993,8.134
2.090,0.000,0.000,0.044,-0.345,0.000,0.012,0.035,0.000,-3.993,8.134
2.092,0.001,0.000,0.044,-0.366,0.000,0.011,0.011,0.000,-3.994,8.172
2.094,0.001,0.000,0.044,-0.366,0.000,0.011,-0.012,0.000,-3.994,8.185
2.095,0.000,0.000,0.044,-0.375,0.000,0.011,-0.040,0.000,-3.994,8.211
2.097,0.001,0.000,0.045,-0.330,0.000,0.011,-0.037,0.000,-3.994,8.186
2.099,0.001,0.000,0.045,-0.293,0.000,0.011,-0.035,0.000,-3.994,8.161
2.103,0.000,0.000,0.045,-0.332,0.000,0.011,-0.139,0.000,-3.994,8.249
2.105,0.001,0.000,0.045,-0.214,0.000,0.011,-0.002,0.000,-3.995,8.073
2.107,0.001,0.000,0.045,-0.163,0.000,0.011,0.032,0.000,-3.994,8.023
2.108,0.000,0.000,0.045,-0.123,0.000,0.011,0.045,0.000,-3.994,7.998
2.110,0.001,0.000,0.044,-0.092,0.000,0.011,0.056,0.000,-3.994,7.973
2.112,0.001,0.000,0.044,-0.084,0.000,0.011,0.069,0.000,-3.994,7.947
2.113,0.000,0.000,0.044,-0.075,0.000,0.011,0.101,0.000,-3.994,7.947
2.115,0.001,0.000,0.044,-0.080,0.000,0.011,0.129,0.000,-3.994,7.972
2.120,0.001,0.000,0.043,0.097,0.000,0.012,0.284,0.000,-3.994,7.909
2.121,0.000,0.000,0.043,-0.143,0.000,0.012,0.079,0.000,-3.994,8.022
2.123,0.001,0.000,0.043,-0.212,0.000,0.012,0.053,0.000,-3.994,8.072
2.125,0.001,0.000,0.043,-0.270,0.000,0.012,0.004,0.000,-3.994,8.110
2.126,0.000,0.000,0.043,-0.302,0.000,0.012,-0.033,0.000,-3.994,8.123
2.128,0.001,0.000,0.043,-0.326,0.000,0.011,-0.093,0.000,-3.994,8.161
2.130,0.001,0.000,0.044,-0.361,0.000,0.011,-0.141,0.000,-3.994,8.161
2.134,0.000,0.000,0.044,-0.588,0.000,0.010,-0.452,0.000,-3.995,8.313
2.136,0.001,0.000,0.044,-0.327,0.000,0.010,-0.141,0.000,-3.995,8.112
2.138,0.001,0.000,0.045,-0.302,0.000,0.009,-0.125,0.000,-3.995,8.087
2.139,0.000,0.000,0.045,-0.265,0.000,0.009,-0.074,0.000,-3.995,8.049
2.141,0.001,0.000,0.045,-0.242,0.000,0.009,-0.030,0.000,-3.995,8.024
2.142,0.000,0.000,0.045,-0.203,0.000,0.009,0.031,0.000,-3.995,7.999
2.144,0.000,0.000,0.045,-0.175,0.000,0.009,0.083,0.000,-3.995,7.973
2.149,0.001,0.000,0.044,-0.017,0.000,0.010,0.236,0.000,-3.994,7.860
2.150,0.000,0.000,0.044,-0.151,0.000,0.010,0.103,0.000,-3.994,8.011
2.152,0.000,0.000,0.044,-0.136,0.000,0.010,0.139,0.000,-3.994,8.023
2.154,0.001,0.000,0.044,-0.136,0.000,0.010,0.145,0.000,-3.994,8.048
2.156,0.001,0.000,0.044,-0.134,0.000,0.011,0.113,0.000,-3.994,8.073
2.157,0.001,0.000,0.044,-0.167,0.000,0.011,0.060,0.000,-3.994,8.099
2.159,0.001,0.000,0.044,-0.193,0.000,0.011,0.027,0.000,-3.994,8.124
2.160,0.000,0.000,0.044,-0.217,0.000,0.011,-0.006,0.000,-3.995,8.149
2.165,0.001,0.000,0.044,-0.237,0.000,0.010,-0.177,0.000,-3.995,8.301
2.167,0.001,0.000,0.044,-0.241,0.000,0.010,-0.087,0.000,-3.995,8.125
2.168,0.000,0.000,0.044,-0.252,0.000,0.010,-0.118,0.000,-3.995,8.100
2.170,0.001,0.000,0.044,-0.260,0.000,0.009,-0.106,0.000,-3.995,8.062
2.172,0.001,0.000,0.044,-0.264,0.000,0.009,-0.096,0.000,-3.995,8.037
2.174,0.001,0.000,0.044,-0.241,0.000,0.009,-0.063,0.000,-3.995,7.999
2.175,0.001,0.000,0.044,-0.216,0.000,0.009,-0.022,0.000,-3.995,7.987
2.180,0.001,0.000,0.044,-0.186,0.000,0.009,0.091,0.000,-3.995,7.823
2.181,0.000,0.000,0.044,-0.194,0.000,0.009,0.110,0.000,-3.994,7.973
2.183,0.001,0.000,0.044,-0.183,0.000,0.009,0.142,0.000,-3.994,7.973
2.185,0.001,0.000,0.044,-0.170,0.000,0.010,0.131,0.000,-3.994,7.998
2.186,0.000,0.000,0.044,-0.148,0.000,0.010,0.129,0.000,-3.994,8.036
2.188,0.001,0.000,0.043,-0.124,0.000,0.010,0.115,0.000,-3.994,8.074
2.190,0.001,0.000,0.043,-0.112,0.000,0.010,0.111,0.000,-3.994,8.112
2.191,0.000,0.000,0.043,-0.096,0.000,0.010,0.054,0.000,-3.995,8.150
