timestamp_s,dt_s,pitch_setpoint,pitch_measurement,pitch_command,roll_setpoint,roll_measurement,roll_command,yaw_setpoint,yaw_measurement,yaw_command,throttle
0.099,0.099,-3.657,0.279,2.271,0.281,-0.049,-9.678,2.787,-18.485,52.482,537.996
0.112,0.011,1.564,0.085,8.482,2.835,-0.157,-11.730,1.532,-18.180,51.563,537.996
0.125,0.011,3.652,0.078,8.792,-6.488,-0.150,-9.990,3.382,-18.148,51.255,537.996
0.138,0.011,1.647,0.077,-0.755,-1.807,-0.165,-11.998,-0.253,-18.111,53.676,537.996
0.151,0.011,-1.416,0.071,0.535,0.726,-0.151,-10.556,2.799,-18.092,53.141,537.996
0.179,0.012,3.153,0.088,-0.444,-0.125,-0.164,-11.507,4.237,-18.006,53.841,537.996
0.192,0.011,-5.081,0.083,2.692,6.535,-0.150,-2.736,3.949,-17.964,50.097,537.996
0.205,0.011,-2.607,0.088,0.959,-4.402,-0.159,-14.878,3.993,-17.927,49.979,537.996
0.218,0.011,2.740,0.098,-2.222,4.415,-0.173,-11.326,3.412,-17.874,49.749,537.996
0.231,0.011,-2.015,0.078,0.782,-3.550,-0.157,-13.937,3.837,-17.820,49.975,537.996
0.244,0.011,-1.837,0.085,0.676,-2.013,-0.168,-12.231,4.412,-17.761,49.160,537.996
0.271,0.011,4.847,0.094,-3.000,-8.010,-0.177,-18.896,6.347,-17.613,47.407,537.996
0.284,0.011,0.100,0.102,0.282,0.036,-0.181,-9.964,4.812,-17.539,48.335,537.996
0.297,0.011,-4.956,0.096,1.910,2.617,-0.172,-7.095,9.276,-17.454,44.895,537.996
0.310,0.011,1.945,0.112,-3.396,0.074,-0.171,-11.640,1.812,-17.393,49.293,537.996
0.323,0.011,1.893,0.099,0.437,3.644,-0.166,-8.489,3.606,-17.350,49.342,537.996
0.336,0.011,-0.603,0.092,1.810,-1.770,-0.150,-4.107,6.625,-17.297,46.242,537.996
0.349,0.011,-0.766,0.085,-1.430,-8.721,-0.174,-26.849,7.321,-17.234,46.323,537.996
0.376,0.011,4.658,0.098,-2.605,-16.594,-0.197,-28.426,5.978,-17.082,45.448,537.996
0.389,0.011,4.104,0.105,-2.663,-0.917,-0.215,-23.603,2.277,-17.008,45.620,537.996
0.402,0.011,-6.638,0.094,0.310,12.358,-0.155,-3.753,5.260,-16.943,48.808,537.996
0.415,0.011,12.921,0.125,-7.551,-15.493,-0.186,-27.205,9.585,-16.851,42.728,537.996
0.428,0.011,-0.279,0.124,1.661,4.441,-0.209,-5.600,4.173,-16.751,45.262,537.996
0.441,0.011,-3.890,0.128,1.849,5.994,-0.194,-3.359,13.398,-16.635,43.964,537.996
0.464,0.011,2.330,0.126,-1.078,-2.574,-0.197,-12.871,4.993,-16.483,45.119,537.996
0.477,0.011,2.022,0.131,0.462,1.393,-0.190,-12.567,5.713,-16.419,44.650,537.996
0.490,0.011,-2.759,0.127,1.431,8.246,-0.178,-0.855,5.429,-16.351,44.332,537.996
0.503,0.011,1.122,0.128,-0.492,-11.190,-0.199,-22.568,3.909,-16.286,44.652,537.996
0.516,0.011,0.479,0.131,-0.411,4.158,-0.219,-16.907,5.843,-16.206,42.986,537.996
0.529,0.011,-5.489,0.124,2.629,4.897,-0.192,-4.591,6.715,-16.113,42.637,537.996
0.555,0.011,-0.757,0.124,1.502,2.779,-0.190,-9.261,3.512,-15.948,44.075,537.996
0.568,0.011,3.160,0.115,-2.056,-3.390,-0.182,-13.786,9.271,-15.860,40.357,537.996
0.581,0.011,-1.039,0.128,-2.718,-0.330,-0.192,-14.658,5.286,-15.766,41.061,537.996
0.594,0.011,-0.077,0.120,-0.203,3.034,-0.183,-10.477,6.430,-15.681,43.754,537.996
0.607,0.011,3.537,0.114,2.361,-8.480,-0.190,-8.165,8.502,-15.591,38.904,537.996
0.620,0.011,-1.462,0.128,0.482,-7.120,-0.212,-17.932,3.728,-15.510,43.180,537.996
0.648,0.012,-0.663,0.128,-0.100,-7.133,-0.215,-17.948,5.970,-15.355,40.990,537.996
0.661,0.011,1.813,0.139,-0.596,5.388,-0.236,-22.438,5.044,-15.281,40.592,537.996
0.674,0.011,-1.637,0.136,0.330,8.379,-0.205,-0.719,5.591,-15.220,40.943,537.996
0.687,0.011,1.525,0.139,-1.522,-7.064,-0.211,-17.170,7.672,-15.147,38.866,537.996
0.700,0.011,-0.096,0.147,-0.554,0.425,-0.213,-9.550,3.077,-15.082,42.272,537.996
0.713,0.011,-5.245,0.146,2.375,-0.780,-0.203,-8.285,7.335,-15.014,40.046,537.996
0.726,0.011,-0.027,0.157,-0.420,-4.128,-0.212,-14.606,2.740,-14.947,42.348,537.996
0.753,0.011,-3.256,0.147,0.250,7.677,-0.195,-8.548,3.960,-14.852,39.919,537.996
0.766,0.011,0.062,0.152,-0.219,-5.598,-0.192,-16.239,2.767,-14.804,41.705,537.996
0.779,0.011,3.660,0.158,-1.831,-0.031,-0.194,-14.240,4.171,-14.759,40.790,537.996
0.792,0.011,-4.809,0.155,2.860,-2.516,-0.190,-5.552,4.144,-14.711,39.892,537.996
0.805,0.011,3.912,0.165,-1.799,-8.993,-0.219,-20.019,4.777,-14.653,39.773,537.996
0.818,0.011,2.862,0.163,-0.629,5.281,-0.200,-9.657,0.922,-14.606,41.490,537.996
0.852,0.012,3.659,0.170,-1.594,-7.216,-0.214,-17.681,4.561,-14.466,38.534,537.996
0.865,0.011,-1.013,0.166,0.433,-2.946,-0.214,-13.304,2.059,-14.416,41.013,537.996
0.878,0.011,2.094,0.165,-0.928,2.869,-0.213,-6.848,6.790,-14.361,37.444,537.996
0.891,0.011,2.710,0.153,0.425,-1.566,-0.211,-6.977,2.809,-14.312,39.590,537.996
0.904,0.011,2.628,0.148,-0.586,-1.323,-0.222,-19.748,3.848,-14.260,40.112,537.996
0.917,0.011,-2.177,0.144,1.622,12.844,-0.191,4.230,5.554,-14.200,37.823,537.996
0.943,0.011,4.081,0.158,-1.922,-3.414,-0.212,-16.251,5.125,-14.071,37.411,537.996
0.956,0.011,-0.453,0.161,-0.136,7.745,-0.180,-1.431,4.612,-14.008,38.033,537.996
0.969,0.011,4.451,0.152,-2.608,-7.935,-0.179,-18.842,5.766,-13.947,37.646,537.996
0.982,0.011,-1.092,0.162,0.250,-0.616,-0.194,-12.475,0.744,-13.893,39.327,537.996
0.995,0.011,-4.184,0.164,-0.361,-0.300,-0.188,-10.670,3.952,-13.842,39.529,537.996
1.008,0.011,2.736,0.174,-1.173,0.998,-0.184,-10.358,3.869,-13.793,36.149,537.996
1.036,0.012,-1.540,0.163,0.781,1.892,-0.190,-7.934,3.174,-13.719,38.144,537.996
1.049,0.011,-4.092,0.164,0.332,-6.555,-0.189,-18.950,0.316,-13.697,40.155,537.996
1.062,0.011,2.340,0.170,-0.730,-2.163,-0.197,-12.435,1.913,-13.666,39.007,537.996
1.075,0.011,-3.714,0.151,0.524,1.559,-0.181,-1.113,2.515,-13.623,38.284,537.996
1.088,0.011,-0.072,0.153,0.887,-5.004,-0.191,-16.336,3.937,-13.577,37.289,537.996
1.101,0.011,1.479,0.153,-0.163,6.464,-0.171,-15.949,2.056,-13.540,37.726,537.996
1.128,0.011,0.804,0.162,-0.538,-2.707,-0.172,-15.191,2.306,-13.461,36.860,537.996
1.141,0.011,-1.967,0.160,0.928,-0.480,-0.168,-10.567,1.923,-13.437,38.232,537.996
1.154,0.011,1.053,0.157,-0.483,-0.138,-0.163,-10.187,2.072,-13.411,38.064,537.996
1.167,0.011,-0.635,0.152,0.021,-3.989,-0.165,-11.775,-1.449,-13.404,40.787,537.996
1.180,0.011,1.309,0.155,-1.021,1.461,-0.165,-12.213,3.977,-13.387,37.995,537.996
1.193,0.011,-0.278,0.154,0.125,3.959,-0.148,-5.640,-0.062,-13.380,39.507,537.996
1.206,0.011,-0.832,0.162,-0.019,-6.827,-0.176,-13.884,0.438,-13.378,39.517,537.996
1.233,0.011,1.231,0.164,-0.070,-8.233,-0.163,-6.964,1.658,-13.353,37.613,537.996
1.246,0.011,2.257,0.174,-1.445,-0.535,-0.181,-17.103,-0.272,-13.330,38.459,537.996
1.259,0.011,-2.617,0.181,-0.435,5.460,-0.173,-7.259,2.698,-13.296,38.309,537.996
1.272,0.011,-0.123,0.183,1.117,-9.887,-0.185,-17.029,5.328,-13.249,35.717,537.996
1.285,0.011,-2.493,0.190,0.949,3.028,-0.170,-6.742,0.201,-13.212,39.000,537.996
1.298,0.011,1.023,0.176,-0.208,3.520,-0.167,-6.121,4.689,-13.179,35.445,537.996
1.324,0.011,-3.097,0.175,-0.462,0.430,-0.160,-10.196,1.800,-13.110,36.771,537.996
1.337,0.011,1.304,0.181,-1.175,2.870,-0.160,-9.624,4.410,-13.067,35.423,537.996
1.350,0.011,0.277,0.187,-0.279,-4.169,-0.163,-14.653,1.968,-13.030,37.081,537.996
1.363,0.011,1.722,0.179,-0.486,-4.379,-0.175,-19.835,3.700,-12.990,37.125,537.996
1.376,0.011,-2.167,0.183,0.231,9.607,-0.145,-3.073,2.713,-12.946,36.404,537.996
1.389,0.011,-0.831,0.171,2.390,-6.406,-0.149,-8.741,6.223,-12.893,34.172,543.196
1.418,0.011,4.475,0.179,0.418,-3.146,-0.133,-7.042,7.806,-12.755,31.898,554.797
1.431,0.011,-0.314,0.174,0.007,-2.113,-0.135,-12.371,1.497,-12.693,36.454,559.997
1.444,0.011,-0.672,0.160,-0.303,2.545,-0.132,-15.245,7.122,-12.640,37.736,562.797
1.458,0.012,4.927,0.167,-1.694,-7.651,-0.118,-15.039,5.901,-12.552,31.969,568.398
1.471,0.011,4.792,0.161,1.464,2.374,-0.110,-11.972,4.003,-12.499,35.248,573.598
1.484,0.011,-2.779,0.146,2.975,2.545,-0.090,-2.370,4.725,-12.443,32.631,578.798
1.512,0.012,-6.800,0.141,-0.895,11.907,-0.044,3.783,3.044,-12.378,36.534,584.799
1.525,0.011,-0.543,0.148,-2.575,-8.140,-0.043,-12.872,1.205,-12.360,33.696,587.599
1.538,0.011,1.385,0.157,1.110,2.661,-0.033,-11.373,-0.961,-12.352,36.995,592.799
1.551,0.011,6.361,0.147,0.365,-8.653,-0.054,-19.239,4.780,-12.306,31.462,597.999
1.564,0.011,-0.205,0.142,-0.237,1.739,-0.054,-8.099,1.682,-12.261,34.938,603.200
1.577,0.011,-3.611,0.159,-1.388,1.968,-0.043,-5.739,7.691,-12.197,33.810,606.400
1.604,0.011,-1.686,0.173,0.449,5.220,-0.007,-4.228,5.424,-12.081,31.685,615.200
1.617,0.011,1.036,0.173,-1.056,-6.995,-0.058,-17.647,6.026,-12.007,31.144,620.401
1.630,0.011,-0.901,0.147,1.371,0.216,-0.067,-2.325,5.695,-11.923,30.796,625.601
1.643,0.011,1.503,0.129,-0.791,-10.971,-0.110,-22.222,8.065,-11.824,29.162,630.001
1.656,0.011,-6.092,0.119,2.624,12.905,-0.077,2.596,8.951,-11.738,29.593,635.202
1.669,0.011,-1.412,0.127,-2.667,-0.594,-0.086,-15.264,7.680,-11.636,25.416,640.002
1.682,0.011,-0.152,0.108,2.177,6.786,-0.022,-3.317,8.235,-11.543,30.965,640.002
1.709,0.011,1.311,0.152,-2.748,-1.838,0.026,-12.057,9.764,-11.299,26.426,640.002
1.722,0.011,-2.496,0.172,0.265,-4.693,0.006,-19.362,6.730,-11.193,27.838,640.002
1.735,0.011,0.758,0.173,-0.638,8.190,0.029,5.494,11.153,-11.071,24.695,640.002
1.748,0.011,5.802,0.213,-4.482,-7.986,0.014,-21.266,10.917,-10.946,25.420,640.002
1.761,0.011,-5.196,0.213,-0.621,7.850,0.089,-3.762,9.830,-10.809,26.217,640.002
1.774,0.011,-9.717,0.171,3.116,6.314,0.125,-9.393,9.604,-10.661,22.351,640.002
1.800,0.011,1.051,0.047,1.346,6.246,0.186,-3.049,7.989,-10.387,24.977,640.002
1.813,0.011,2.291,0.058,-1.625,0.104,0.222,-9.859,15.138,-10.225,19.423,640.002
1.826,0.011,-5.023,0.064,-1.955,7.290,0.274,-13.964,9.270,-10.076,22.965,640.002
1.839,0.011,-0.085,0.055,0.294,6.313,0.381,4.153,15.795,-9.908,18.218,640.002
1.852,0.011,3.652,0.087,-2.347,-11.542,0.376,-22.747,12.398,-9.736,19.896,640.002
1.865,0.011,1.866,0.138,-1.785,4.576,0.396,-4.847,15.134,-9.557,18.665,640.002
1.893,0.012,0.649,0.076,2.978,-0.976,0.421,-14.427,18.520,-9.158,14.237,640.002
1.906,0.011,0.043,0.031,1.577,0.130,0.457,-4.453,15.374,-8.985,18.160,640.002
1.919,0.011,1.502,0.022,-0.260,-4.370,0.447,-14.767,9.587,-8.793,18.962,640.002
1.932,0.011,5.227,0.066,-4.202,3.956,0.432,-5.526,17.583,-8.616,12.688,640.002
1.945,0.011,4.052,0.075,-0.457,-16.726,0.402,-19.502,9.962,-8.433,15.724,640.002
1.958,0.011,-4.317,0.065,2.287,2.052,0.273,-24.370,14.586,-8.261,13.771,640.002
1.971,0.011,2.419,0.038,-0.807,-12.328,0.200,-18.655,12.631,-8.064,11.702,640.002
1.998,0.011,0.568,0.033,-2.844,-1.683,0.071,-14.640,15.483,-7.654,10.970,640.002
2.011,0.011,1.656,0.010,0.564,2.779,0.076,-6.927,14.663,-7.484,11.631,640.002
2.024,0.011,5.332,0.030,-2.481,8.636,0.080,-5.370,11.412,-7.299,11.616,640.002
2.037,0.011,-2.951,0.050,-0.947,8.727,0.144,-0.137,15.759,-7.114,11.502,640.002
2.050,0.011,-1.297,0.032,2.375,3.179,0.227,-8.724,10.687,-6.913,11.255,640.002
2.063,0.011,1.654,0.052,-1.053,8.696,0.273,-3.501,19.445,-6.716,10.207,640.002
2.093,0.011,-1.305,0.018,1.425,-5.620,0.373,-16.190,18.070,-6.222,5.368,640.002
2.106,0.011,-6.919,-0.008,3.213,8.671,0.399,-7.318,11.053,-6.023,10.182,640.002
2.119,0.011,4.692,-0.003,0.754,3.383,0.492,2.561,19.105,-5.815,3.303,640.002
2.132,0.011,2.528,0.026,-1.988,-3.119,0.547,-13.367,13.777,-5.630,6.586,640.002
2.145,0.011,3.375,0.015,-1.613,3.376,0.557,-6.156,19.916,-5.417,1.645,640.002
2.158,0.011,-3.984,-0.013,2.414,-5.040,0.536,-15.503,13.156,-5.210,6.119,644.002
2.185,0.011,-10.707,-0.160,2.395,-7.130,0.508,-23.275,16.846,-4.757,3.025,654.803
2.198,0.011,-13.702,-0.264,10.094,6.131,0.513,-3.105,19.134,-4.544,-0.333,655.203
2.211,0.011,-8.027,-0.331,4.235,3.623,0.473,-13.225,14.035,-4.326,0.435,657.603
2.224,0.011,-1.858,-0.380,3.278,-0.492,0.481,-8.448,19.466,-4.125,2.721,659.603
2.237,0.011,-3.232,-0.411,3.476,4.188,0.507,-5.259,11.882,-3.913,3.493,659.603
2.250,0.011,-1.757,-0.428,2.040,8.853,0.610,1.112,21.748,-3.692,-0.041,659.603
2.263,0.011,7.508,-0.402,2.653,3.984,0.736,10.296,16.031,-3.472,-1.464,659.603
2.289,0.011,10.792,-0.271,-7.192,3.944,0.979,-3.260,21.088,-3.014,-5.322,659.603
2.302,0.011,-1.653,-0.248,-0.731,11.392,1.131,2.918,17.479,-2.791,-4.294,659.603
2.315,0.011,3.817,-0.243,-2.836,8.290,1.258,-1.253,17.998,-2.545,-8.724,659.603
2.328,0.011,-6.510,-0.303,5.247,10.549,1.389,-0.013,19.064,-2.303,-5.104,659.603
2.341,0.011,-4.786,-0.393,7.162,3.763,1.519,6.339,19.317,-2.042,-7.840,659.603
2.354,0.011,-14.856,-0.531,12.413,15.369,1.638,7.471,21.542,-1.786,-10.279,659.603
2.380,0.011,-12.452,-0.789,10.616,8.827,1.905,0.103,13.172,-1.282,-13.016,659.603
2.393,0.011,-6.216,-0.902,7.430,10.281,2.035,1.937,27.754,-1.014,-17.270,659.603
2.406,0.011,-4.855,-0.995,9.986,1.074,2.137,7.564,19.092,-0.750,-12.681,659.603
2.419,0.011,-9.466,-1.090,8.851,28.281,2.293,21.998,21.608,-0.463,-14.032,659.603
2.432,0.011,-0.569,-1.185,6.077,0.213,2.455,1.271,24.319,-0.173,-16.397,659.603
2.445,0.011,-4.766,-1.290,9.084,21.079,2.680,16.562,20.958,0.104,-10.852,659.603
2.473,0.012,-5.512,-1.434,4.575,19.016,3.109,5.288,22.477,0.705,-17.614,659.603
2.486,0.011,-1.043,-1.472,3.483,14.198,3.293,6.635,24.391,0.991,-20.137,659.603
2.499,0.011,-4.130,-1.496,4.470,19.269,3.461,12.315,14.952,1.280,-14.644,659.603
2.512,0.011,-1.890,-1.541,4.983,19.952,3.651,4.727,26.932,1.574,-18.924,659.603
2.525,0.011,3.291,-1.578,1.338,-4.177,3.772,-7.593,21.111,1.849,-19.789,659.603
2.538,0.011,-1.229,-1.595,2.385,21.509,3.847,-6.334,22.028,2.134,-21.904,659.603
2.551,0.011,4.216,-1.616,2.669,0.165,3.951,-0.386,24.775,2.436,-25.528,659.603
2.578,0.011,-1.540,-1.648,2.208,13.161,4.194,5.525,23.838,3.068,-28.582,659.603
2.591,0.011,-0.121,-1.643,2.099,7.193,4.283,-0.855,22.349,3.378,-25.563,659.603
2.604,0.011,-3.862,-1.661,4.331,20.374,4.405,14.180,24.934,3.692,-27.767,659.603
2.617,0.011,8.663,-1.633,1.074,1.846,4.493,16.970,24.293,4.016,-29.318,659.603
2.630,0.011,11.557,-1.571,-5.721,21.898,4.637,15.604,22.221,4.323,-28.484,659.603
2.643,0.011,8.644,-1.485,-5.962,9.709,4.788,2.118,23.632,4.643,-30.316,659.603
2.669,0.011,0.603,-1.311,-1.665,18.410,5.074,11.867,23.308,5.242,-32.199,658.403
2.682,0.011,10.562,-1.237,-6.545,3.909,5.207,-4.184,23.831,5.541,-33.251,653.203
2.695,0.011,-1.702,-1.234,1.218,30.155,5.416,22.192,20.239,5.824,-29.605,648.402
2.708,0.011,-1.112,-1.255,2.168,4.145,5.581,12.356,24.396,6.128,-36.536,642.802
2.721,0.011,-3.931,-1.311,5.084,12.067,5.700,5.042,18.993,6.405,-32.538,637.602
2.734,0.011,-12.221,-1.400,7.941,19.108,5.806,11.014,24.670,6.710,-37.847,632.801
2.760,0.011,-12.847,-1.609,9.198,17.898,5.957,-3.425,16.391,7.309,-37.620,629.201
2.773,0.011,-11.129,-1.758,12.129,1.607,6.013,-6.445,30.309,7.614,-44.489,624.001
2.786,0.011,-7.270,-1.894,9.994,-4.967,6.001,-11.047,19.595,7.926,-39.509,618.801
2.799,0.011,-1.836,-1.988,6.633,11.152,6.023,4.184,23.712,8.226,-41.093,613.600
2.812,0.011,-3.727,-2.030,6.213,8.455,6.063,5.695,22.447,8.526,-40.752,612.400
2.825,0.011,10.804,-2.008,-2.332,-15.794,6.006,-16.597,27.647,8.833,-45.118,608.400
2.853,0.012,4.641,-1.870,-5.225,-4.070,5.968,-1.925,27.095,9.472,-45.813,597.199
2.866,0.011,12.576,-1.783,-7.682,-0.850,5.958,-9.103,20.262,9.766,-43.592,591.999
2.879,0.011,10.402,-1.685,-5.507,9.371,5.999,-1.354,22.194,10.061,-45.799,587.599
2.892,0.011,2.656,-1.593,-2.994,18.616,6.083,12.565,21.102,10.350,-45.052,581.998
2.905,0.011,7.837,-1.547,-3.069,7.144,6.198,10.034,23.656,10.636,-47.839,576.798
2.918,0.011,7.686,-1.497,-3.402,5.958,6.308,-6.610,21.537,10.923,-48.289,571.598
2.931,0.011,6.510,-1.436,-3.873,32.194,6.508,11.623,17.814,11.196,-47.523,571.198
2.958,0.011,62.371,-0.305,-59.495,-50.154,5.799,-72.765,18.005,11.629,-45.000,571.198
2.971,0.011,50.146,0.437,-59.209,-71.602,5.163,-71.057,18.962,11.795,-46.231,565.597
2.984,0.011,-12.147,0.469,5.700,-91.702,4.134,-110.393,16.666,12.005,-47.520,560.397
2.997,0.011,-26.472,0.277,18.091,-70.566,3.151,-83.446,20.022,12.224,-48.855,555.197
3.010,0.011,13.292,0.172,1.545,-89.811,2.215,-108.832,11.278,12.416,-44.622,551.197
3.035,0.011,0.714,0.472,-4.832,-71.478,0.183,-88.976,17.840,12.774,-50.695,545.596
3.048,0.011,-31.199,0.220,22.292,19.991,-0.470,12.420,14.373,12.947,-48.164,540.396
3.061,0.011,-3.989,0.323,1.717,20.078,-0.384,19.476,11.593,13.071,-42.163,535.196
3.074,0.011,-2.750,0.366,2.682,6.874,-0.300,-2.108,8.472,13.170,-44.809,529.995
3.087,0.011,-7.641,0.475,-1.010,23.897,-0.060,16.848,5.336,13.248,-42.967,525.195
3.100,0.011,-4.988,0.502,-1.004,22.467,0.261,12.727,8.984,13.328,-45.724,519.995
3.113,0.011,-15.365,0.400,7.383,12.017,0.487,-4.157,1.000,13.405,-44.014,514.794
3.140,0.011,8.146,0.172,3.634,-16.486,0.154,-35.126,5.475,13.578,-42.444,503.994
3.153,0.011,9.080,0.267,-7.920,-27.376,-0.163,-40.132,3.756,13.635,-42.929,501.595
3.166,0.011,2.393,0.269,1.302,-9.616,-0.221,-9.037,3.235,13.670,-40.816,501.595
3.179,0.011,-4.964,0.286,3.132,0.261,-0.180,-8.990,2.536,13.674,-41.121,501.595
3.192,0.011,6.858,0.275,-0.347,-0.498,-0.136,-7.831,2.345,13.683,-41.004,501.595
3.205,0.011,12.239,0.292,0.198,1.360,-0.052,-4.773,1.877,13.685,-40.294,501.595
3.231,0.011,2.328,0.292,-1.458,2.017,-0.101,-6.656,-1.513,13.715,-40.713,501.595
3.244,0.011,1.234,0.290,-3.919,-2.939,-0.063,-9.365,-0.412,13.707,-39.866,501.595
3.257,0.011,-1.632,0.320,-1.089,6.567,0.003,-7.534,-1.980,13.704,-39.235,501.595
3.270,0.011,-3.590,0.254,3.809,0.399,-0.020,-12.594,0.062,13.695,-40.195,501.595
3.283,0.011,-7.350,0.263,4.971,-4.243,0.018,-15.670,-1.308,13.695,-39.212,501.595
3.296,0.011,0.925,0.272,-1.338,1.708,0.048,-7.882,-0.502,13.700,-40.038,501.595
3.327,0.011,-2.448,0.211,0.650,-5.457,0.106,-16.743,0.725,13.715,-42.262,501.595
3.340,0.011,1.641,0.204,0.263,-1.311,0.143,-16.885,1.251,13.719,-41.177,501.595
3.353,0.011,2.533,0.185,-0.703,3.663,0.166,-9.614,0.311,13.723,-40.966,501.595
3.366,0.011,3.103,0.180,-1.400,1.935,0.212,-7.627,0.450,13.726,-40.801,501.595
3.379,0.011,-1.419,0.159,0.243,1.899,0.239,-6.905,-1.178,13.724,-39.699,501.595
3.392,0.011,-5.640,0.147,0.161,-1.317,0.263,-10.475,-1.597,13.717,-39.312,501.595
3.419,0.011,3.911,0.131,-1.355,2.091,0.314,-7.281,0.366,13.709,-40.902,501.595
3.432,0.011,3.126,0.142,-1.708,-1.471,0.338,-11.417,-0.266,13.701,-40.213,501.595
3.445,0.011,-1.957,0.133,-0.208,0.611,0.365,-7.474,-0.924,13.689,-39.789,501.595
3.458,0.011,-3.001,0.125,1.859,2.941,0.403,-6.517,-1.139,13.673,-39.517,501.595
3.471,0.011,-3.719,0.106,0.618,-3.383,0.423,-5.054,-0.260,13.653,-38.880,501.595
3.484,0.011,-0.275,0.103,0.123,-4.555,0.438,-14.841,-1.400,13.623,-39.156,501.595
3.497,0.011,0.696,0.098,-0.084,-6.292,0.455,-15.963,-1.435,13.599,-39.104,501.595
3.523,0.011,1.618,0.092,-1.128,3.969,0.493,-4.974,-2.192,13.552,-38.965,501.595
3.536,0.011,-0.349,0.094,0.290,1.402,0.518,-8.229,-3.182,13.532,-37.666,501.595
3.549,0.011,-1.972,0.091,-0.014,-0.362,0.536,-9.581,-2.855,13.511,-37.734,501.595
3.562,0.011,-1.759,0.079,1.089,-1.941,0.546,-11.944,-3.075,13.486,-37.556,501.595
3.575,0.011,2.482,0.084,-1.073,1.596,0.559,-8.016,-1.975,13.457,-38.359,501.595
3.588,0.011,2.783,0.085,-0.931,3.876,0.576,-8.771,-0.567,13.431,-39.247,501.595
3.614,0.011,-1.636,0.091,-1.491,-0.884,0.593,-8.961,-0.825,13.404,-38.174,501.595
3.627,0.011,-4.151,0.085,2.183,0.824,0.602,-8.876,-0.314,13.393,-39.282,501.595
3.640,0.011,-3.480,0.075,1.994,0.981,0.613,-8.702,-0.389,13.382,-39.208,501.595
3.653,0.011,-2.648,0.079,1.930,-4.259,0.607,-9.739,1.028,13.374,-39.735,501.595
3.666,0.011,-0.344,0.079,-0.299,-2.150,0.610,-11.713,-0.870,13.358,-39.290,501.595
3.679,0.011,-0.700,0.075,0.438,0.083,0.602,-12.728,-4.143,13.327,-38.211,501.595
3.707,0.012,-0.465,0.073,0.790,-1.468,0.587,-9.229,-3.188,13.240,-37.650,501.595
3.720,0.011,1.098,0.084,-0.597,-1.458,0.570,-12.780,-1.397,13.216,-37.004,501.595
3.733,0.011,0.937,0.083,-0.676,1.839,0.566,-7.753,-0.371,13.203,-38.679,501.595
3.746,0.011,2.294,0.090,-1.252,3.398,0.562,-6.023,-0.652,13.198,-38.474,501.595
3.759,0.011,-0.259,0.096,-2.490,4.178,0.568,-5.408,-0.422,13.186,-37.904,501.595
3.772,0.011,-2.166,0.099,-1.740,-1.262,0.561,-5.344,-0.821,13.174,-37.955,501.595
3.799,0.011,-0.612,0.094,-0.188,0.584,0.550,-9.147,-0.188,13.155,-38.688,501.595
3.812,0.011,0.863,0.098,-0.034,0.366,0.550,-9.594,-1.610,13.138,-38.404,501.595
3.825,0.011,0.506,0.108,-0.320,-1.769,0.551,-10.009,-3.307,13.107,-36.519,501.595
3.838,0.011,-1.325,0.115,0.401,-1.385,0.550,-11.334,-4.264,13.076,-35.496,501.595
3.851,0.011,-2.002,0.112,0.783,-1.641,0.543,-11.619,-3.955,13.039,-36.035,505.594
3.864,0.011,0.755,0.117,0.821,1.785,0.536,-10.638,-2.947,13.001,-35.814,510.794
3.877,0.011,1.432,0.124,-1.012,-1.909,0.525,-11.918,-1.435,12.967,-37.209,515.995
3.904,0.011,-2.532,0.129,1.089,3.644,0.514,-5.755,-2.129,12.911,-36.564,523.995
3.917,0.011,-2.518,0.133,0.495,1.193,0.516,-5.572,-0.046,12.895,-37.456,523.995
3.930,0.011,-3.040,0.128,0.540,-5.616,0.507,-5.439,-0.066,12.883,-37.052,524.795
3.944,0.012,-0.595,0.122,-0.481,-3.640,0.480,-15.717,-1.742,12.860,-37.055,530.795
3.957,0.011,2.231,0.118,-1.213,5.498,0.482,-3.696,-4.598,12.822,-34.533,535.996
3.970,0.011,0.223,0.121,-0.326,1.587,0.476,-8.750,-6.100,12.771,-34.020,540.796
3.996,0.011,-2.451,0.127,-1.029,0.434,0.452,-10.640,-2.253,12.663,-34.541,548.396
4.009,0.011,0.250,0.124,-0.236,3.971,0.459,-5.390,-0.610,12.625,-36.864,553.597
4.022,0.011,-3.365,0.111,0.204,-4.298,0.448,-4.046,-2.742,12.597,-36.461,556.397
4.035,0.011,-0.017,0.119,-0.414,-5.891,0.432,-16.345,-1.580,12.572,-35.942,556.397
4.048,0.011,1.779,0.119,1.014,2.565,0.431,-16.188,-2.026,12.543,-34.476,556.797
4.061,0.011,-2.534,0.120,1.346,5.028,0.427,-4.225,-2.426,12.522,-35.200,557.997
4.089,0.012,4.613,0.126,-2.339,-5.558,0.409,-15.974,-0.548,12.472,-36.381,557.997
4.102,0.011,2.683,0.128,-1.355,-0.208,0.409,-10.034,-5.619,12.436,-32.679,557.997
4.115,0.011,1.549,0.118,-2.020,3.928,0.396,-5.758,-4.540,12.386,-32.174,557.997
4.128,0.011,0.589,0.124,-1.582,5.459,0.392,2.121,-1.875,12.341,-34.713,557.997
4.141,0.011,-5.130,0.135,1.520,-4.102,0.397,-11.419,-4.371,12.281,-33.672,557.997
4.154,0.011,-4.299,0.133,1.743,-6.369,0.383,-18.584,-8.849,12.202,-30.131,557.997
4.181,0.011,-1.458,0.154,-1.932,-0.253,0.371,-5.050,-6.099,12.054,-31.667,557.997
4.194,0.011,-3.097,0.147,1.316,1.013,0.360,-8.677,-4.913,11.982,-31.800,557.997
4.207,0.011,1.408,0.143,-0.011,-6.453,0.346,-12.202,-5.315,11.909,-32.742,557.997
4.220,0.011,6.441,0.169,-3.513,-0.274,0.343,-10.103,-5.786,11.838,-30.993,557.997
4.233,0.011,0.133,0.149,3.430,6.228,0.340,-6.218,-8.053,11.754,-27.496,557.997
4.246,0.011,-1.158,0.168,-1.332,0.324,0.342,-6.848,-3.401,11.680,-31.721,557.997
4.259,0.011,1.993,0.162,0.663,-0.416,0.338,-5.145,-5.935,11.600,-30.902,557.997
4.286,0.011,2.240,0.165,-1.410,3.186,0.304,-6.267,-6.631,11.420,-28.857,557.997
4.299,0.011,2.301,0.174,-1.327,2.007,0.313,-7.575,-4.180,11.343,-30.468,557.997
4.312,0.011,-2.641,0.176,1.022,1.358,0.321,-5.499,-3.441,11.281,-29.895,557.997
4.325,0.011,-0.831,0.167,-0.292,-9.281,0.304,-16.060,-2.010,11.236,-31.987,557.997
4.338,0.011,3.164,0.177,-2.227,2.437,0.307,-12.619,-5.167,11.185,-29.940,557.997
4.351,0.011,-0.538,0.181,-1.536,1.474,0.315,-14.057,-3.885,11.130,-29.970,563.197
4.377,0.011,-2.308,0.194,0.182,-2.130,0.325,-12.048,-2.747,11.022,-30.992,573.598
4.390,0.011,-0.045,0.198,0.715,-3.951,0.328,-14.007,-5.864,10.960,-27.895,573.998
4.403,0.011,0.091,0.195,-0.224,-0.095,0.324,-11.733,-4.700,10.905,-28.562,579.598
4.416,0.011,-2.029,0.195,0.677,1.785,0.322,-7.832,-2.625,10.852,-30.116,584.798
4.429,0.011,-1.663,0.201,0.368,1.775,0.321,-7.842,-4.353,10.798,-28.726,589.999
4.442,0.011,0.542,0.202,-0.345,-8.523,0.299,-19.283,-4.771,10.749,-28.306,594.799
4.470,0.012,0.750,0.200,1.069,-6.218,0.314,-0.567,-1.161,10.646,-30.654,604.799
4.483,0.011,-0.554,0.204,-1.279,-4.183,0.302,-16.101,-5.909,10.588,-28.279,609.600
4.496,0.011,-1.073,0.208,0.621,4.579,0.308,-3.843,-4.008,10.528,-26.400,611.200
4.509,0.011,-2.703,0.211,0.872,-5.494,0.295,-15.923,-3.117,10.475,-28.627,611.200
4.522,0.011,1.670,0.215,0.690,-6.945,0.296,-11.601,-10.818,10.391,-27.249,611.200
4.535,0.011,3.089,0.215,0.231,0.656,0.291,-11.215,-4.773,10.314,-26.212,611.200
4.565,0.011,-0.718,0.199,-1.165,5.791,0.313,-6.390,-5.680,10.176,-26.192,611.200
4.578,0.011,0.077,0.210,-0.298,-3.225,0.305,-4.156,-1.122,10.135,-28.703,611.200
4.591,0.011,5.895,0.212,-5.504,-2.339,0.250,-17.532,-3.183,10.105,-29.432,611.200
4.604,0.011,-3.350,0.188,2.368,8.401,0.282,-0.473,-7.120,10.044,-24.444,611.200
4.617,0.011,1.110,0.201,-1.166,-4.532,0.292,0.228,1.728,10.000,-23.910,611.200
4.630,0.011,-1.724,0.204,-1.263,-9.501,0.279,-9.893,-7.701,9.946,-26.271,611.200
4.643,0.011,3.767,0.208,-2.492,6.124,0.276,-2.995,-1.903,9.910,-27.910,611.200
4.670,0.011,4.756,0.217,-2.680,-3.778,0.221,-13.995,-1.331,9.844,-28.080,611.200
4.683,0.011,-2.232,0.221,-0.374,7.716,0.229,0.293,-2.884,9.816,-26.819,611.200
4.696,0.011,2.919,0.213,1.638,-9.364,0.235,-14.021,0.445,9.783,-27.591,611.200
4.709,0.011,-1.635,0.215,0.693,7.811,0.235,-1.115,-8.240,9.739,-22.836,611.200
4.722,0.011,-4.149,0.212,0.599,4.979,0.239,-2.291,-1.162,9.695,-22.628,611.200
4.735,0.011,2.278,0.216,0.893,-3.382,0.226,-8.207,1.409,9.688,-30.678,611.200
4.761,0.011,-2.180,0.226,-0.272,7.427,0.209,-6.991,0.008,9.611,-24.897,611.200
4.774,0.011,1.164,0.209,-0.647,-8.314,0.213,-19.033,-2.740,9.586,-26.282,611.200
4.787,0.011,1.090,0.209,-1.383,-3.604,0.209,-20.764,0.678,9.559,-25.769,611.200
4.800,0.011,-4.292,0.185,3.333,14.390,0.252,2.111,-3.168,9.541,-25.965,611.200
4.813,0.011,1.521,0.202,3.073,-8.213,0.220,-10.691,1.052,9.526,-26.894,614.400
4.826,0.011,-1.217,0.197,-4.555,5.577,0.202,-20.899,-7.494,9.512,-28.812,619.200
4.854,0.012,-2.648,0.205,-0.573,-3.682,0.200,-15.507,-5.817,9.437,-24.672,630.401
4.867,0.011,-0.278,0.201,-0.086,4.996,0.193,-16.597,-2.939,9.392,-22.711,634.001
4.880,0.011,-4.061,0.200,1.683,2.403,0.235,-7.118,-4.336,9.354,-24.461,639.601
4.893,0.011,-0.770,0.168,1.006,-6.115,0.218,-16.578,-5.183,9.293,-23.713,641.201
4.906,0.011,-1.790,0.194,-0.051,14.529,0.246,6.345,-4.612,9.230,-23.853,641.201
4.919,0.011,2.328,0.190,0.385,-18.112,0.209,-20.765,-2.699,9.175,-25.611,641.201
4.932,0.011,-1.578,0.173,-0.544,9.466,0.215,-9.401,-7.858,9.118,-23.079,641.201
4.959,0.011,1.275,0.180,-1.362,1.240,0.253,-8.405,-7.417,8.984,-21.102,641.201
4.972,0.011,0.083,0.187,-1.412,0.329,0.244,-10.337,-0.356,8.921,-22.621,641.201
4.985,0.011,6.837,0.179,2.303,-9.909,0.222,-3.952,-5.405,8.865,-23.108,641.201
4.998,0.011,-2.363,0.156,1.071,0.106,0.183,-20.325,-3.392,8.803,-23.288,641.201
5.011,0.011,2.667,0.140,-0.217,-4.767,0.187,-15.085,-3.960,8.748,-23.045,641.201
5.024,0.011,1.746,0.184,-3.438,-7.636,0.115,-24.344,-5.111,8.693,-22.339,641.201
5.050,0.011,2.360,0.166,0.107,-10.641,0.167,-22.903,-3.706,8.601,-26.047,641.201
5.063,0.011,1.605,0.136,1.347,4.512,0.196,-4.065,-1.945,8.547,-20.940,641.201
5.076,0.011,4.583,0.110,0.379,-7.211,0.189,-14.916,-2.015,8.520,-25.732,641.201
5.089,0.011,1.369,0.140,-1.821,3.333,0.170,-13.463,-4.583,8.474,-24.314,641.201
5.102,0.011,-3.938,0.159,-1.064,8.537,0.209,-1.230,-0.034,8.452,-26.133,641.201
5.115,0.011,4.777,0.203,-4.089,-4.902,0.236,-15.224,-1.964,8.422,-23.453,641.201
5.143,0.012,0.484,0.122,2.173,-9.732,0.216,-20.586,-0.006,8.384,-24.708,641.201
5.156,0.011,-9.500,0.070,3.074,6.240,0.193,-10.512,-2.186,8.344,-21.976,641.201
5.169,0.011,3.715,0.008,1.239,-10.949,0.167,-17.562,2.674,8.340,-28.269,641.201
5.182,0.011,-3.575,-0.046,3.839,0.828,0.152,-11.989,-6.120,8.309,-20.447,641.201
5.195,0.011,-0.419,-0.059,0.846,3.215,0.153,-6.228,4.080,8.292,-27.415,641.201
5.208,0.011,-0.799,-0.083,1.637,-11.650,0.114,-9.278,-6.759,8.240,-22.182,641.201
5.221,0.011,-2.002,-0.105,1.908,15.584,0.095,7.500,-1.062,8.199,-23.483,641.201
5.248,0.011,0.195,-0.016,-3.296,17.123,0.148,4.601,-3.569,8.150,-21.564,641.201
5.261,0.011,8.689,0.026,-2.513,-8.526,0.223,-8.349,0.044,8.114,-24.002,641.201
5.274,0.011,7.713,0.138,-6.715,7.047,0.263,-0.012,-6.801,8.071,-18.070,643.601
5.287,0.011,1.933,0.215,-4.518,-4.749,0.233,-10.162,1.979,8.048,-23.898,648.802
5.300,0.011,-0.845,0.219,1.569,-5.108,0.189,-12.769,-5.644,8.005,-21.232,654.002
5.313,0.011,-2.364,0.169,2.340,4.988,0.167,-4.234,-1.326,7.960,-22.555,659.202
5.339,0.011,3.932,0.099,-1.252,-4.650,0.145,-16.414,-1.866,7.871,-20.008,668.403
5.352,0.011,8.200,0.134,-5.902,-0.536,0.149,-10.367,-1.115,7.839,-22.306,671.203
5.365,0.011,-3.223,0.170,-3.985,5.528,0.164,-13.857,-5.475,7.808,-20.841,676.003
5.378,0.011,0.126,0.161,-0.591,5.748,0.280,-3.358,2.717,7.765,-24.943,681.604
5.391,0.011,-4.596,0.146,2.608,7.990,0.342,-0.852,-12.268,7.712,-13.859,686.804
5.404,0.011,-4.521,0.110,1.248,8.197,0.447,0.328,4.066,7.665,-18.997,692.004
5.432,0.012,-5.262,-0.063,9.785,-0.304,0.600,6.308,-2.755,7.575,-20.041,692.404
5.445,0.011,-7.731,-0.156,5.754,7.484,0.688,-4.144,-3.594,7.539,-20.369,692.404
5.458,0.011,-14.967,-0.314,12.583,10.567,0.802,1.411,-0.717,7.505,-21.588,692.404
5.471,0.011,-16.936,-0.504,15.510,11.812,0.926,3.551,-4.667,7.473,-18.646,692.404
5.484,0.011,-19.044,-0.726,17.376,14.204,1.085,10.284,2.308,7.446,-18.720,692.404
5.497,0.011,-17.473,-0.962,16.930,9.953,1.236,3.408,-7.007,7.400,-18.459,692.404
5.510,0.011,-17.836,-1.213,20.933,16.521,1.439,19.526,-1.704,7.356,-17.488,692.404
5.537,0.011,-18.656,-1.615,17.182,12.537,1.782,4.567,0.995,7.269,-21.227,692.404
5.550,0.011,-6.754,-1.769,11.056,10.067,1.932,1.477,-4.479,7.230,-15.427,692.404
5.563,0.011,-12.106,-1.897,13.648,17.544,2.125,15.616,-3.138,7.196,-17.945,692.404
5.576,0.011,-4.222,-1.970,6.414,9.214,2.262,1.011,-6.001,7.153,-16.731,692.404
5.589,0.011,-4.512,-2.025,7.032,11.636,2.375,-0.710,-1.253,7.097,-15.256,692.404
5.602,0.011,-1.939,-2.072,4.685,-0.356,2.457,-9.564,-5.393,7.051,-16.895,692.404
5.629,0.011,-10.350,-2.291,11.413,8.028,2.720,-0.182,-4.483,6.961,-17.271,692.404
5.642,0.011,-13.625,-2.453,12.719,18.628,2.904,13.461,0.827,6.929,-19.332,692.404
5.655,0.011,-10.580,-2.640,18.899,9.948,3.101,2.048,-5.518,6.890,-16.324,692.404
5.668,0.011,-17.260,-2.794,16.946,23.484,3.294,17.131,-5.930,6.852,-15.959,692.404
5.681,0.011,-4.591,-2.921,14.054,5.323,3.427,5.131,0.792,6.820,-19.782,690.404
5.694,0.011,-8.683,-3.019,10.776,4.764,3.514,-3.584,-3.879,6.772,-17.189,685.204
5.720,0.011,-3.870,-3.098,2.263,5.863,3.679,-13.490,-5.368,6.731,-17.954,674.803
5.733,0.011,4.182,-3.080,0.831,3.748,3.751,0.928,3.414,6.710,-20.812,669.603
5.746,0.011,-0.580,-3.040,1.402,1.428,3.754,-11.422,-6.847,6.678,-14.712,665.203
5.759,0.011,1.867,-2.977,0.428,5.249,3.747,-2.980,2.513,6.662,-21.499,665.203
5.772,0.011,4.897,-2.907,-1.860,-5.172,3.693,-14.563,-5.838,6.619,-15.319,661.202
5.785,0.011,-1.488,-2.834,-1.403,11.301,3.702,-2.623,-1.547,6.586,-18.590,658.002
5.816,0.011,4.120,-2.657,-4.572,5.127,3.846,-9.198,-3.472,6.516,-18.913,658.002
5.829,0.011,3.131,-2.595,-0.056,11.907,3.951,4.990,-4.110,6.473,-14.422,658.002
5.842,0.011,5.808,-2.533,-1.239,6.496,4.041,0.917,-6.552,6.430,-16.621,658.002
5.855,0.011,0.941,-2.472,0.112,4.608,4.113,-4.676,-3.255,6.364,-14.249,658.002
5.868,0.011,3.994,-2.437,1.917,5.640,4.191,9.724,-3.260,6.316,-16.637,658.002
5.881,0.011,-1.912,-2.385,1.782,5.345,4.234,-2.729,-6.939,6.258,-13.410,658.002
5.894,0.011,0.917,-2.366,1.262,6.184,4.315,-1.778,-1.923,6.196,-16.907,658.002
5.921,0.011,-1.998,-2.317,2.699,0.938,4.310,-7.589,0.780,6.061,-18.594,658.002
5.934,0.011,-1.953,-2.323,3.769,-5.893,4.272,-16.516,-10.458,5.971,-11.016,658.002
5.947,0.011,-6.596,-2.329,3.890,11.207,4.267,3.506,-2.855,5.908,-11.896,658.002
5.960,0.011,2.271,-2.334,1.282,-13.186,4.234,-23.268,-5.823,5.843,-13.058,658.002
5.973,0.011,-5.464,-2.338,4.568,14.393,4.269,7.489,-4.838,5.783,-12.313,656.002
5.986,0.011,4.846,-2.315,-0.889,-4.761,4.285,-13.895,-3.808,5.729,-14.129,650.802
6.012,0.011,3.618,-2.193,-2.141,-1.060,4.287,-9.778,-3.330,5.608,-14.176,640.401
6.025,0.011,4.549,-2.109,-3.018,2.914,4.295,-5.510,-4.920,5.551,-11.388,638.001
6.038,0.011,-0.078,-2.042,-0.114,6.704,4.327,-1.138,-2.924,5.505,-14.110,635.201
6.051,0.011,6.265,-1.962,-4.372,0.805,4.354,-9.965,-3.268,5.456,-13.663,630.001
6.064,0.011,-0.246,-1.898,0.125,12.672,4.399,5.525,-4.597,5.413,-12.679,624.800
6.077,0.011,9.905,-1.824,-6.099,-7.410,4.410,-16.756,0.241,5.380,-14.672,619.600
6.105,0.012,7.777,-1.704,-2.960,-0.002,4.509,-6.220,3.394,5.330,-18.306,613.600
6.118,0.011,0.042,-1.645,-0.896,10.211,4.582,2.198,-6.231,5.289,-10.497,607.999
6.131,0.011,4.395,-1.590,-1.616,15.382,4.672,8.524,0.559,5.271,-17.360,602.799
6.144,0.011,8.570,-1.513,-2.544,-4.549,4.749,0.097,-5.238,5.229,-12.720,597.599
6.157,0.011,0.431,-1.452,-1.310,28.762,4.877,23.554,-2.842,5.206,-13.303,592.398
6.170,0.011,5.482,-1.390,-3.334,19.208,5.024,12.989,-1.580,5.181,-14.173,592.398
6.197,0.011,4.229,-1.200,-3.893,8.598,5.084,8.678,0.816,5.146,-8.847,581.198
6.210,0.011,5.866,-1.116,-4.764,-3.938,5.084,-12.677,2.753,5.150,-17.154,575.998
6.223,0.011,7.269,-1.029,-5.202,5.376,5.120,-3.596,-4.245,5.119,-10.626,570.797
6.236,0.011,6.414,-0.944,-5.811,7.915,5.146,-1.469,0.671,5.104,-14.285,567.197
6.249,0.011,2.368,-0.881,-4.318,2.107,5.183,5.843,-1.680,5.092,-14.444,561.997
6.262,0.011,6.408,-0.814,-2.106,-7.368,5.170,-12.309,0.923,5.081,-14.872,559.597
6.275,0.011,4.497,-0.756,-4.562,7.864,5.154,-7.447,-2.394,5.072,-13.718,559.597
6.301,0.011,6.004,-0.672,-0.430,-5.314,5.130,-8.666,2.976,5.053,-15.390,559.597
6.314,0.011,7.548,-0.613,-4.169,-2.711,5.088,-13.779,-0.238,5.055,-16.009,559.597
6.327,0.011,0.996,-0.563,-2.657,4.271,5.084,-4.446,-3.337,5.038,-11.727,559.597
6.340,0.011,4.492,-0.510,-3.195,4.411,5.082,-4.879,2.125,5.026,-14.529,559.597
6.353,0.011,5.365,-0.450,-4.362,-1.555,5.080,-9.953,0.847,5.021,-15.426,559.597
6.366,0.011,3.291,-0.394,-3.183,-11.202,5.048,-8.722,-2.983,5.006,-15.770,559.597
6.394,0.011,-0.452,-0.296,-1.396,-14.589,4.974,-15.410,0.609,4.996,-15.680,550.796
6.407,0.011,2.237,-0.276,-0.079,-11.217,4.890,-23.729,-0.180,4.996,-15.707,545.596
6.420,0.011,-0.349,-0.273,0.533,7.308,4.813,-5.141,-1.065,4.990,-12.984,540.396
6.433,0.011,79.938,-0.139,-40.398,-94.220,4.514,-112.918,-31.124,4.888,7.985,537.195
6.446,0.011,39.839,0.838,-51.942,-262.861,2.226,-200.000,16.200,4.977,-26.505,537.195
6.459,0.011,63.530,1.995,-92.876,-239.616,-1.245,-200.000,11.119,5.060,-24.094,537.195
6.487,0.012,8.739,1.479,4.566,30.108,-1.167,-177.932,21.008,5.087,-29.474,525.595
6.500,0.011,41.159,1.648,-27.482,54.416,-0.746,-139.290,10.396,5.190,-22.871,520.794
6.513,0.011,4.450,1.777,-8.754,94.745,0.363,-80.840,0.122,5.161,-8.518,520.794
6.526,0.011,-21.142,1.668,11.810,76.351,1.569,-108.522,5.069,5.204,-18.949,516.794
6.539,0.011,-29.967,1.178,24.002,82.690,2.805,-114.895,7.788,5.209,-20.042,511.594
6.552,0.011,-6.999,0.940,13.200,61.099,3.682,-128.052,10.360,5.295,-23.059,506.394
6.580,0.012,-8.972,1.134,-3.482,67.654,5.540,-123.607,8.300,5.431,-19.992,495.194
6.593,0.011,-6.398,0.920,9.305,45.421,6.273,-142.366,9.734,5.544,-25.446,489.994
6.606,0.011,6.108,0.851,-0.216,58.067,6.952,-153.300,7.935,5.664,-22.457,484.794
6.619,0.011,5.930,0.970,-7.587,44.167,7.615,-142.231,12.392,5.799,-27.173,479.594
6.632,0.011,-5.576,0.852,1.048,40.503,8.214,-150.501,9.353,5.963,-24.365,474.394
6.645,0.011,-5.369,0.730,5.127,51.316,8.799,-140.341,14.974,6.156,-29.087,470.395
6.672,0.011,-6.004,0.807,-2.102,41.698,9.793,-156.947,17.263,6.577,-31.215,459.595
6.685,0.011,-1.404,0.659,3.205,36.824,10.230,-156.086,20.677,6.816,-34.731,454.395
6.698,0.011,20.210,0.699,-12.233,9.927,10.563,-185.857,17.574,7.065,-33.610,449.195
6.711,0.011,-5.525,0.732,-0.525,27.964,10.878,-165.753,18.325,7.333,-34.769,448.795
6.724,0.011,-1.466,0.618,2.912,22.201,11.187,-172.092,26.188,7.628,-41.129,448.795
6.737,0.011,18.279,0.593,-5.328,5.785,11.402,-188.640,22.232,7.929,-38.644,447.595
6.750,0.011,2.713,0.660,-4.896,15.837,11.568,-179.052,23.059,8.249,-41.095,441.995
6.777,0.011,15.422,0.538,-4.890,-1.839,11.816,-200.000,25.562,8.987,-45.908,431.995
6.790,0.011,9.451,0.621,-7.000,7.617,11.845,-188.099,25.491,9.349,-45.428,429.195
6.803,0.011,0.604,0.589,0.884,-5.068,11.828,-196.169,32.561,9.744,-51.867,423.995
6.816,0.011,13.022,0.533,-4.379,-15.702,11.746,-200.000,29.305,10.151,-50.963,418.795
6.829,0.011,8.967,0.584,-8.565,-5.865,11.619,-200.000,28.034,10.560,-52.869,413.595
6.842,0.011,3.441,0.586,-3.293,-13.662,11.446,-200.000,33.262,10.983,-55.131,408.795
6.869,0.011,9.932,0.601,-7.805,-18.282,10.898,-200.000,31.422,11.895,-58.145,402.796
6.882,0.011,4.054,0.607,-3.717,-24.014,10.589,-200.000,36.219,12.350,-62.030,397.596
6.895,0.011,9.037,0.568,-1.697,-36.520,10.200,-200.000,35.610,12.831,-63.473,392.396
6.908,0.011,10.709,0.606,-7.101,-45.305,9.732,-200.000,35.705,13.309,-64.974,388.396
6.921,0.011,6.982,0.608,-4.689,-38.442,9.212,-200.000,36.213,13.798,-66.575,388.396
6.934,0.011,1.915,0.567,-1.053,-44.144,8.642,-200.000,38.779,14.313,-69.608,385.196
6.961,0.011,11.345,0.574,-4.200,-47.121,8.143,-200.000,38.888,14.707,-69.834,357.596
6.974,0.011,11.345,0.574,-4.200,-47.121,8.143,-200.000,38.888,14.707,-69.834,338.096
6.987,0.011,11.345,0.574,-4.200,-47.121,8.143,-200.000,38.888,14.707,-69.834,318.596
7.000,0.011,11.345,0.574,-4.200,-47.121,8.143,-200.000,38.888,14.707,-69.834,299.096
7.013,0.011,11.345,0.574,-4.200,-47.121,8.143,-200.000,38.888,14.707,-69.834,279.596
7.026,0.011,11.345,0.574,-4.200,-47.121,8.143,-200.000,38.888,14.707,-69.834,260.096
7.056,0.011,11.345,0.574,-4.200,-47.121,8.143,-200.000,38.888,14.707,-69.834,215.096
7.069,0.011,11.345,0.574,-4.200,-47.121,8.143,-200.000,38.888,14.707,-69.834,195.596
7.082,0.011,11.345,0.574,-4.200,-47.121,8.143,-200.000,38.888,14.707,-69.834,176.096
7.095,0.011,11.345,0.574,-4.200,-47.121,8.143,-200.000,38.888,14.707,-69.834,156.596
7.108,0.011,11.345,0.574,-4.200,-47.121,8.143,-200.000,38.888,14.707,-69.834,137.096
7.135,0.011,11.345,0.574,-4.200,-47.121,8.143,-200.000,38.888,14.707,-69.834,96.596
7.148,0.011,11.345,0.574,-4.200,-47.121,8.143,-200.000,38.888,14.707,-69.834,77.096
7.161,0.011,11.345,0.574,-4.200,-47.121,8.143,-200.000,38.888,14.707,-69.834,57.596
7.174,0.011,11.345,0.574,-4.200,-47.121,8.143,-200.000,38.888,14.707,-69.834,38.096
7.187,0.011,11.345,0.574,-4.200,-47.121,8.143,-200.000,38.888,14.707,-69.834,18.596
7.200,0.011,11.345,0.574,0.000,-47.121,8.143,0.000,38.888,14.707,0.000,0.000
7.213,0.011,4.539,0.119,0.000,-5.663,1.915,0.000,23.949,23.103,0.000,0.000
7.240,0.011,0.363,0.066,0.000,-0.274,2.018,0.000,18.533,23.642,0.000,0.000
7.253,0.011,0.828,0.005,0.000,0.026,2.060,0.000,17.140,23.867,0.000,0.000
7.266,0.012,-0.762,-0.043,0.000,2.361,2.115,0.000,13.811,24.070,0.000,0.000
7.279,0.011,0.572,-0.094,0.000,-0.423,2.160,0.000,12.660,24.250,0.000,0.000
7.292,0.011,0.627,-0.153,0.000,0.436,2.203,0.000,10.202,24.403,0.000,0.000
7.305,0.011,-0.715,-0.192,0.000,0.185,2.250,0.000,8.660,24.531,0.000,0.000
7.332,0.011,0.878,-0.295,0.000,0.778,2.328,0.000,3.207,24.714,0.000,0.000
7.345,0.011,-0.421,-0.331,0.000,0.730,2.367,0.000,0.204,24.736,0.000,0.000
7.358,0.011,0.024,-0.364,0.000,-0.137,2.383,0.000,-0.288,24.734,0.000,0.000
7.371,0.011,0.536,-0.384,0.000,-0.299,2.384,0.000,-0.189,24.733,0.000,0.000
7.384,0.011,0.004,-0.381,0.000,0.337,2.379,0.000,0.266,24.735,0.000,0.000
7.397,0.011,0.118,-0.369,0.000,-0.084,2.359,0.000,0.016,24.738,0.000,0.000
7.410,0.011,0.194,-0.358,0.000,-0.099,2.342,0.000,-0.634,24.732,0.000,0.000
7.436,0.011,0.002,-0.348,0.000,0.407,2.310,0.000,0.692,24.732,0.000,0.000
7.449,0.011,0.337,-0.344,0.000,-0.018,2.296,0.000,0.051,24.734,0.000,0.000
7.462,0.011,0.067,-0.337,0.000,-0.215,2.280,0.000,-0.399,24.729,0.000,0.000
7.475,0.011,-0.024,-0.330,0.000,0.208,2.263,0.000,0.440,24.729,0.000,0.000
7.488,0.011,0.072,-0.327,0.000,-0.061,2.250,0.000,-0.395,24.730,0.000,0.000
7.501,0.011,0.245,-0.321,0.000,-0.445,2.233,0.000,-0.279,24.727,0.000,0.000
7.514,0.011,0.076,-0.315,0.000,0.545,2.216,0.000,-0.182,24.723,0.000,0.000
7.543,0.011,-0.226,-0.304,0.000,-0.350,2.179,0.000,-0.311,24.727,0.000,0.000
7.556,0.011,-0.187,-0.298,0.000,-0.155,2.166,0.000,-0.314,24.725,0.000,0.000
7.569,0.011,0.232,-0.290,0.000,-0.009,2.148,0.000,0.041,24.724,0.000,0.000
7.582,0.011,0.235,-0.284,0.000,-0.421,2.132,0.000,0.128,24.725,0.000,0.000
7.595,0.011,0.276,-0.281,0.000,-0.206,2.118,0.000,0.107,24.727,0.000,0.000
7.608,0.011,0.071,-0.275,0.000,0.194,2.102,0.000,-0.580,24.724,0.000,0.000
7.635,0.011,-0.115,-0.267,0.000,0.026,2.072,0.000,0.251,24.726,0.000,0.000
7.648,0.011,0.299,-0.262,0.000,-0.046,2.057,0.000,-0.897,24.720,0.000,0.000
7.661,0.011,0.124,-0.257,0.000,-0.211,2.036,0.000,0.219,24.714,0.000,0.000
7.674,0.011,0.174,-0.252,0.000,0.161,2.027,0.000,0.520,24.721,0.000,0.000
7.687,0.011,-0.156,-0.245,0.000,-0.030,2.016,0.000,-0.654,24.719,0.000,0.000
7.700,0.011,0.030,-0.241,0.000,-0.090,1.994,0.000,-0.345,24.712,0.000,0.000
7.713,0.011,0.433,-0.238,0.000,0.228,1.983,0.000,0.432,24.712,0.000,0.000
7.741,0.012,-0.112,-0.228,0.000,0.175,1.953,0.000,-0.278,24.713,0.000,0.000
7.754,0.011,0.061,-0.224,0.000,-0.121,1.940,0.000,0.208,24.713,0.000,0.000
7.767,0.011,0.339,-0.218,0.000,-0.300,1.925,0.000,0.096,24.713,0.000,0.000
7.780,0.011,0.138,-0.213,0.000,0.242,1.912,0.000,-0.031,24.714,0.000,0.000
7.793,0.011,-0.029,-0.208,0.000,-0.058,1.899,0.000,-0.155,24.712,0.000,0.000
7.806,0.011,0.047,-0.204,0.000,-0.294,1.884,0.000,-0.175,24.711,0.000,0.000
7.819,0.011,0.207,-0.199,0.000,0.240,1.873,0.000,0.272,24.711,0.000,0.000
7.845,0.011,0.010,-0.191,0.000,-0.222,1.846,0.000,-0.265,24.709,0.000,0.000
7.858,0.011,0.089,-0.187,0.000,0.050,1.834,0.000,0.293,24.710,0.000,0.000
7.871,0.011,0.260,-0.182,0.000,0.010,1.821,0.000,0.042,24.713,0.000,0.000
7.884,0.011,-0.057,-0.178,0.000,-0.232,1.806,0.000,-0.175,24.711,0.000,0.000
7.897,0.011,0.122,-0.177,0.000,-0.168,1.793,0.000,0.168,24.711,0.000,0.000
7.910,0.011,0.121,-0.171,0.000,0.231,1.781,0.000,0.152,24.713,0.000,0.000
7.923,0.011,0.088,-0.167,0.000,-0.065,1.768,0.000,-0.184,24.713,0.000,0.000
7.950,0.011,0.330,-0.159,0.000,-0.093,1.740,0.000,0.273,24.710,0.000,0.000
7.963,0.011,0.048,-0.153,0.000,0.125,1.729,0.000,-0.091,24.712,0.000,0.000
7.976,0.011,-0.041,-0.149,0.000,-0.473,1.717,0.000,-0.306,24.709,0.000,0.000
7.989,0.011,-0.123,-0.148,0.000,0.032,1.704,0.000,0.033,24.708,0.000,0.000
8.002,0.011,0.095,-0.146,0.000,0.065,1.693,0.000,0.198,24.708,0.000,0.000
8.015,0.011,0.117,-0.141,0.000,-0.149,1.681,0.000,-0.238,24.708,0.000,0.000
8.043,0.012,-0.164,-0.135,0.000,-0.049,1.654,0.000,0.284,24.704,0.000,0.000
8.056,0.011,0.090,-0.131,0.000,0.012,1.642,0.000,-0.237,24.705,0.000,0.000
8.069,0.011,0.104,-0.126,0.000,-0.162,1.631,0.000,-0.284,24.700,0.000,0.000
8.082,0.011,-0.154,-0.125,0.000,-0.059,1.619,0.000,-0.030,24.700,0.000,0.000
8.095,0.011,-0.013,-0.122,0.000,0.018,1.607,0.000,0.104,24.702,0.000,0.000
8.108,0.011,0.014,-0.119,0.000,-0.067,1.595,0.000,-0.106,24.702,0.000,0.000
8.121,0.011,0.019,-0.113,0.000,0.010,1.583,0.000,-0.195,24.699,0.000,0.000
8.147,0.011,-0.002,-0.106,0.000,0.030,1.558,0.000,-0.118,24.699,0.000,0.000
8.160,0.011,0.102,-0.101,0.000,-0.049,1.547,0.000,-0.209,24.698,0.000,0.000
8.173,0.011,-0.031,-0.096,0.000,-0.127,1.533,0.000,-0.116,24.696,0.000,0.000
8.186,0.011,0.192,-0.093,0.000,-0.033,1.521,0.000,0.219,24.697,0.000,0.000
8.199,0.011,0.069,-0.089,0.000,-0.142,1.510,0.000,-0.105,24.696,0.000,0.000
8.212,0.011,-0.010,-0.085,0.000,0.098,1.498,0.000,0.083,24.694,0.000,0.000
8.225,0.011,-0.026,-0.082,0.000,0.164,1.489,0.000,0.183,24.694,0.000,0.000
8.255,0.011,0.269,-0.073,0.000,-0.029,1.465,0.000,0.053,24.696,0.000,0.000
8.268,0.011,-0.138,-0.069,0.000,0.178,1.456,0.000,0.140,24.697,0.000,0.000
8.281,0.011,-0.071,-0.068,0.000,0.069,1.446,0.000,0.029,24.697,0.000,0.000
8.294,0.011,0.203,-0.064,0.000,-0.083,1.437,0.000,-0.284,24.694,0.000,0.000
8.307,0.011,0.077,-0.060,0.000,-0.121,1.426,0.000,0.065,24.692,0.000,0.000
8.320,0.011,0.039,-0.056,0.000,0.144,1.416,0.000,0.166,24.695,0.000,0.000
8.347,0.011,0.182,-0.051,0.000,0.029,1.394,0.000,-0.175,24.693,0.000,0.000
8.360,0.011,0.175,-0.047,0.000,0.019,1.386,0.000,0.011,24.694,0.000,0.000
8.373,0.011,-0.199,-0.045,0.000,0.118,1.375,0.000,0.111,24.694,0.000,0.000
8.386,0.011,0.144,-0.043,0.000,-0.095,1.366,0.000,-0.226,24.693,0.000,0.000
8.399,0.011,0.010,-0.039,0.000,0.110,1.356,0.000,-0.072,24.691,0.000,0.000
8.412,0.011,0.038,-0.036,0.000,-0.056,1.346,0.000,0.120,24.693,0.000,0.000
8.425,0.011,0.108,-0.033,0.000,-0.166,1.336,0.000,-0.117,24.693,0.000,0.000
8.451,0.012,0.100,-0.025,0.000,0.140,1.316,0.000,-0.001,24.690,0.000,0.000
8.464,0.011,0.056,-0.022,0.000,0.012,1.307,0.000,-0.172,24.691,0.000,0.000
8.477,0.011,0.205,-0.020,0.000,-0.175,1.297,0.000,-0.063,24.689,0.000,0.000
8.490,0.011,0.113,-0.015,0.000,0.014,1.288,0.000,-0.017,24.687,0.000,0.000
8.503,0.011,0.236,-0.012,0.000,-0.060,1.278,0.000,-0.093,24.689,0.000,0.000
8.516,0.011,0.089,-0.007,0.000,-0.062,1.269,0.000,-0.126,24.688,0.000,0.000
8.529,0.011,0.153,-0.003,0.000,-0.069,1.259,0.000,-0.008,24.687,0.000,0.000
8.555,0.011,-0.000,0.003,0.000,-0.015,1.241,0.000,0.136,24.688,0.000,0.000
8.568,0.011,-0.132,0.005,0.000,-0.097,1.232,0.000,-0.163,24.687,0.000,0.000
